%time,field.header.seq,field.header.stamp,field.pose.pose.position.x,field.pose.pose.position.y,field.pose.pose.position.z,field.pose.pose.orientation.x,field.pose.pose.orientation.y,field.pose.pose.orientation.z,field.pose.pose.orientation.w,field.twist.twist.linear.x,field.twist.twist.linear.y,field.twist.twist.linear.z,field.twist.twist.angular.x,field.twist.twist.angular.y,field.twist.twist.angular.z
1609055986742660449,23,1609055986742660449,0.212323561311,-1.00555598736,-0.0166756659746,-0.968434591376,-0.247164266089,-0.0304921401154,0.0107003357863,0.0,0.0,0.0,0.0,0.0,0.0
1609055986948480921,24,1609055986948480921,0.144361838698,-0.721704185009,-0.0121847838163,-0.968703655592,-0.246065967731,-0.030705565663,0.011042436533,0.0,0.0,0.0,0.0,0.0,0.0
1609055987155036087,25,1609055987155036087,0.126263052225,-0.635302960873,-0.0101273292676,-0.968690342024,-0.246101735806,-0.0308022977102,0.011143399795,0.0,0.0,0.0,0.0,0.0,0.0
1609055987343108261,26,1609055987343108261,0.131349161267,-0.655735969543,-0.01264752727,-0.968653777565,-0.246252203284,-0.0307517556936,0.0111373744107,0.0,0.0,0.0,0.0,0.0,0.0
1609055987548728858,27,1609055987548728858,0.132439017296,-0.678477525711,-0.012366971001,-0.968772990051,-0.245784684645,-0.0307408894443,0.0111256576337,0.0,0.0,0.0,0.0,0.0,0.0
1609055987755050372,28,1609055987755050372,0.131598711014,-0.699035525322,-0.0119911590591,-0.968808688207,-0.245651311627,-0.0306918057036,0.0110982797685,0.0,0.0,0.0,0.0,0.0,0.0
1609055987944043758,29,1609055987944043758,0.138576671481,-0.713232696056,-0.0133756641299,-0.968778624668,-0.245769091287,-0.0307009582799,0.0110896941267,0.0,0.0,0.0,0.0,0.0,0.0
1609055988148486732,30,1609055988148486732,0.139690965414,-0.724986791611,-0.0140279820189,-0.968738125248,-0.245929438026,-0.0307016243675,0.0110709739539,0.0,0.0,0.0,0.0,0.0,0.0
1609055988354472958,31,1609055988354472958,0.139218792319,-0.733680605888,-0.0121288523078,-0.968765940823,-0.245826254991,-0.0306633594512,0.0110346112564,0.0,0.0,0.0,0.0,0.0,0.0
1609055988542609099,32,1609055988542609099,0.13691522181,-0.731632649899,-0.0142830982804,-0.968817421822,-0.245616849215,-0.0307066867481,0.0110573932534,0.0,0.0,0.0,0.0,0.0,0.0
1609055988748525448,33,1609055988748525448,0.13548322022,-0.726052343845,-0.0134860947728,-0.96884389886,-0.245521267603,-0.0306324694736,0.0110661018702,0.0,0.0,0.0,0.0,0.0,0.0
1609055988954743369,34,1609055988954743369,0.139253690839,-0.71254247427,-0.0122733712196,-0.968766425582,-0.245820225678,-0.0306979199071,0.0110302777065,0.0,0.0,0.0,0.0,0.0,0.0
1609055989142338230,35,1609055989142338230,0.12761233747,-0.691536068916,-0.01377742365,-0.968787496445,-0.245733390481,-0.0306981982508,0.0111134224491,0.0,0.0,0.0,0.0,0.0,0.0
1609055989348921161,36,1609055989348921161,0.123868435621,-0.663381397724,-0.0121095767245,-0.968773772969,-0.245783262673,-0.0307326242112,0.0111117238143,0.0,0.0,0.0,0.0,0.0,0.0
1609055989554576154,37,1609055989554576154,0.12327452749,-0.628317058086,-0.0107025923207,-0.968716337029,-0.246003998184,-0.0307647944572,0.0111453430519,0.0,0.0,0.0,0.0,0.0,0.0
1609055989742198855,38,1609055989742198855,0.120569959283,-0.585651934147,-0.0107166888192,-0.968629716271,-0.246339301925,-0.030790512345,0.0111966706103,0.0,0.0,0.0,0.0,0.0,0.0
1609055989949838251,39,1609055989949838251,0.111050523818,-0.542311310768,-0.00916396360844,-0.968596239043,-0.246463238228,-0.0308391143666,0.0112315154146,0.0,0.0,0.0,0.0,0.0,0.0
1609055990155371304,40,1609055990155371304,0.105190716684,-0.493894189596,-0.00859886873513,-0.968588485616,-0.246486928646,-0.0308764182348,0.011277691926,0.0,0.0,0.0,0.0,0.0,0.0
1609055990342290508,41,1609055990342290508,0.0915708839893,-0.440341681242,-0.00854836218059,-0.968620672848,-0.246354381775,-0.0308961163105,0.0113552062534,0.0,0.0,0.0,0.0,0.0,0.0
1609055990548463817,42,1609055990548463817,0.0791212841868,-0.386743366718,-0.00786540657282,-0.968571497667,-0.246537396281,-0.0309604785491,0.0114024080407,0.0,0.0,0.0,0.0,0.0,0.0
1609055990754375865,43,1609055990754375865,0.0735086798668,-0.330857008696,-0.00453359726816,-0.968533566758,-0.246683983393,-0.0309535086689,0.011472693744,0.0,0.0,0.0,0.0,0.0,0.0
1609055990942098196,44,1609055990942098196,0.0547431968153,-0.273355036974,-0.0055442424491,-0.968535538787,-0.24666410882,-0.0310208812946,0.0115512965201,0.0,0.0,0.0,0.0,0.0,0.0
1609055991148312381,45,1609055991148312381,0.0444574207067,-0.214930847287,-0.00550815137103,-0.968585800967,-0.246453463294,-0.0311112346667,0.0115899816168,0.0,0.0,0.0,0.0,0.0,0.0
1609055991354644837,46,1609055991354644837,0.0361881107092,-0.155893325806,-0.00256148795597,-0.968589156901,-0.246438455649,-0.0311007242013,0.0116566575311,0.0,0.0,0.0,0.0,0.0,0.0
1609055991546940601,47,1609055991546940601,0.000776561675593,-0.0579964928329,-0.00183692015707,-0.968887082761,-0.245251637863,-0.0311353275876,0.0118341184624,0.0,0.0,0.0,0.0,0.0,0.0
1609055991753188981,48,1609055991753188981,0.00492194574326,-0.0432809516788,-0.000834955368191,-0.96877921273,-0.245673850479,-0.0311667689152,0.0118249181486,0.0,0.0,0.0,0.0,0.0,0.0
1609055991943787851,49,1609055991943787851,-0.133714839816,0.448782026768,-0.0039618499577,-0.969909147924,-0.241058598037,-0.0317657174316,0.01256727025,0.0,0.0,0.0,0.0,0.0,0.0
1609055992146739195,50,1609055992146739195,-0.144082263112,0.470991611481,-0.00281204003841,-0.969911387131,-0.241047957161,-0.0317811411841,0.0125595591994,0.0,0.0,0.0,0.0,0.0,0.0
1609055992352989562,51,1609055992352989562,-0.148703381419,0.489058822393,-0.00305487099104,-0.970007195642,-0.240669119318,-0.0317187468334,0.0125831835461,0.0,0.0,0.0,0.0,0.0,0.0
1609055992541869248,52,1609055992541869248,-0.15132124722,0.505034983158,-0.00394885614514,-0.969945150583,-0.240905880515,-0.0317900378161,0.0126552395755,0.0,0.0,0.0,0.0,0.0,0.0
1609055992746981625,53,1609055992746981625,-0.156089663506,0.5211353302,-0.00303619168699,-0.969979578953,-0.240764706221,-0.0318041908828,0.012667521221,0.0,0.0,0.0,0.0,0.0,0.0
1609055992952941181,54,1609055992952941181,-0.166363865137,0.53805577755,-0.00301068881527,-0.970073786819,-0.240393245952,-0.0317396087542,0.0126701484748,0.0,0.0,0.0,0.0,0.0,0.0
1609055993142177092,55,1609055993142177092,-0.173944324255,0.561237156391,-0.00502546923235,-0.97009533959,-0.240290189225,-0.0318422556063,0.0127172255867,0.0,0.0,0.0,0.0,0.0,0.0
1609055993346942863,56,1609055993346942863,-0.180706590414,0.591390013695,-0.00516032334417,-0.970198293699,-0.239863873595,-0.031888551463,0.0127950510868,0.0,0.0,0.0,0.0,0.0,0.0
1609055993553157285,57,1609055993553157285,-0.181474119425,0.629572093487,-0.00444632815197,-0.970225819836,-0.239756252443,-0.0318503244141,0.0128200925305,0.0,0.0,0.0,0.0,0.0,0.0
1609055993743474028,58,1609055993743474028,-0.201700881124,0.672015607357,-0.00441865576431,-0.970266783001,-0.239575321458,-0.0319249309845,0.0129164211438,0.0,0.0,0.0,0.0,0.0,0.0
1609055993946878235,59,1609055993946878235,-0.214624673128,0.723193347454,-0.00388493598439,-0.970383808022,-0.239101865348,-0.0318864817546,0.0129928979169,0.0,0.0,0.0,0.0,0.0,0.0
1609055994153218898,60,1609055994153218898,-0.23386014998,0.779343247414,-0.00216232379898,-0.970509371432,-0.238584115652,-0.0319241258345,0.0130395517616,0.0,0.0,0.0,0.0,0.0,0.0
1609055994342040661,61,1609055994342040661,-0.247661620378,0.843818366528,-0.00424113497138,-0.970592377816,-0.238221764713,-0.0320482675405,0.0131808759159,0.0,0.0,0.0,0.0,0.0,0.0
1609055994546814884,62,1609055994546814884,-0.262305289507,0.911477029324,-0.000459409377072,-0.970642991016,-0.238015074308,-0.0320224848306,0.0132502399441,0.0,0.0,0.0,0.0,0.0,0.0
1609055994752910348,63,1609055994752910348,-0.280762523413,0.979823350906,0.00122646929231,-0.970725976612,-0.237661524619,-0.032081159746,0.0133744994639,0.0,0.0,0.0,0.0,0.0,0.0
1609055994943265906,64,1609055994943265906,-0.293133825064,1.0537276268,0.00308685027994,-0.97072948833,-0.237633494954,-0.0321075932766,0.0135530445512,0.0,0.0,0.0,0.0,0.0,0.0
1609055995146581894,65,1609055995146581894,-0.301680922508,1.12847685814,0.00890091247857,-0.970751694389,-0.237538413742,-0.0320828563805,0.0136872262856,0.0,0.0,0.0,0.0,0.0,0.0
1609055995353129844,66,1609055995353129844,-0.302611708641,1.20451724529,0.00880200508982,-0.970695160185,-0.237749739874,-0.0322120546042,0.0137240927497,0.0,0.0,0.0,0.0,0.0,0.0
1609055995542001393,67,1609055995542001393,-0.321568846703,1.27692866325,0.0126074021682,-0.970814592379,-0.237256555694,-0.0321991155461,0.0138409162434,0.0,0.0,0.0,0.0,0.0,0.0
1609055995746975785,68,1609055995746975785,-0.34779638052,1.34490990639,0.0118757700548,-0.970992899829,-0.236504655543,-0.0322994297269,0.0139672197232,0.0,0.0,0.0,0.0,0.0,0.0
1609055995952973109,69,1609055995952973109,-0.320300966501,1.42681467533,0.0164350550622,-0.970481334486,-0.23858613548,-0.0323547439952,0.0139930665637,0.0,0.0,0.0,0.0,0.0,0.0
1609055996142228224,70,1609055996142228224,-0.336855173111,1.49477291107,0.0174558926374,-0.970364609285,-0.2390450076,-0.0324199448558,0.0141051963212,0.0,0.0,0.0,0.0,0.0,0.0
1609055996348141203,71,1609055996348141203,-0.341505289078,1.47811639309,0.0184551458806,-0.970280985971,-0.239395487576,-0.0323632199838,0.0140438877845,0.0,0.0,0.0,0.0,0.0,0.0
1609055996553064624,72,1609055996553064624,-0.33982115984,1.47153329849,0.0182258933783,-0.97034597019,-0.239144296917,-0.0322930659801,0.013995044764,0.0,0.0,0.0,0.0,0.0,0.0
1609055996742244095,73,1609055996742244095,-0.439409226179,1.80532038212,0.0139392437413,-0.971120791413,-0.235878043559,-0.032827567956,0.0144328734154,0.0,0.0,0.0,0.0,0.0,0.0
1609055996951497366,74,1609055996951497366,-0.345306605101,1.46424269676,0.0177667811513,-0.970258354092,-0.239495720248,-0.032318430862,0.0140016186029,0.0,0.0,0.0,0.0,0.0,0.0
1609055997142051572,75,1609055997142051572,-0.345103561878,1.44872283936,0.0166801828891,-0.970298893155,-0.239336305349,-0.0322709637975,0.014027679021,0.0,0.0,0.0,0.0,0.0,0.0
1609055997347134762,76,1609055997347134762,-0.335738569498,1.4172539711,0.0154079319909,-0.970231263757,-0.239605901937,-0.032332501786,0.0139612289699,0.0,0.0,0.0,0.0,0.0,0.0
1609055997553153393,77,1609055997553153393,-0.326588541269,1.37911975384,0.0161315463483,-0.970153856971,-0.239934922844,-0.0322531660349,0.0138729911948,0.0,0.0,0.0,0.0,0.0,0.0
1609055997742726250,78,1609055997742726250,-0.318218708038,1.34271085262,0.0154743110761,-0.970134218054,-0.24001040099,-0.0322931709134,0.0138476528863,0.0,0.0,0.0,0.0,0.0,0.0
1609055997946794365,79,1609055997946794365,-0.307669907808,1.29206764698,0.0136463791132,-0.970126192858,-0.240051638592,-0.0322625952909,0.0137661064176,0.0,0.0,0.0,0.0,0.0,0.0
1609055998153190035,80,1609055998153190035,-0.293225795031,1.22894513607,0.0138682145625,-0.970066425304,-0.240304467418,-0.0322342473353,0.0136325616086,0.0,0.0,0.0,0.0,0.0,0.0
1609055998342132732,81,1609055998342132732,-0.278533190489,1.16111695766,0.0121846161783,-0.970066787985,-0.240311823469,-0.032194536797,0.0135707829619,0.0,0.0,0.0,0.0,0.0,0.0
1609055998553320740,82,1609055998553320740,-0.246847331524,1.07531964779,0.0110882055014,-0.969921526295,-0.240918017302,-0.0321100633179,0.0134046858377,0.0,0.0,0.0,0.0,0.0,0.0
1609055998742154960,83,1609055998742154960,-0.228696465492,0.981430530548,0.00934496708214,-0.969944514423,-0.24083498558,-0.0320783065531,0.0133090536876,0.0,0.0,0.0,0.0,0.0,0.0
1609055998945259261,84,1609055998945259261,-0.210924357176,0.867210388184,0.00451160036027,-0.970036159483,-0.240484974003,-0.0320042129289,0.0131360926226,0.0,0.0,0.0,0.0,0.0,0.0
1609055999152014592,85,1609055999152014592,-0.190175995231,0.734823346138,0.00223195692524,-0.969990148724,-0.240693523468,-0.0319075255766,0.0129479323226,0.0,0.0,0.0,0.0,0.0,0.0
1609055999342576161,86,1609055999342576161,-0.161524534225,0.601096212864,-0.00159597687889,-0.96993363291,-0.240932024512,-0.0318908240747,0.0127860335994,0.0,0.0,0.0,0.0,0.0,0.0
1609055999545406152,87,1609055999545406152,-0.128717184067,0.447304755449,-0.00277630216442,-0.969804495064,-0.241484909653,-0.0317295363717,0.0125505491525,0.0,0.0,0.0,0.0,0.0,0.0
1609055999751463767,88,1609055999751463767,-0.0763229206204,0.278042048216,-0.00193171936553,-0.969449486959,-0.242943368454,-0.0315544535597,0.0122690023954,0.0,0.0,0.0,0.0,0.0,0.0
1609055999942207468,89,1609055999942207468,-0.0203709471971,0.104977943003,-0.00217955373228,-0.969075111492,-0.244459620927,-0.0314332308252,0.012036362524,0.0,0.0,0.0,0.0,0.0,0.0
1609056000145654074,90,1609056000145654074,0.0250464696437,-0.10189396143,-0.00463817967102,-0.968907373232,-0.245164842909,-0.0312064072014,0.0117839741563,0.0,0.0,0.0,0.0,0.0,0.0
1609056000351586409,91,1609056000351586409,0.0804022401571,-0.326662123203,-0.00684230681509,-0.96874544153,-0.245841116372,-0.0310239207018,0.0114861377339,0.0,0.0,0.0,0.0,0.0,0.0
1609056000542326845,92,1609056000542326845,0.124263703823,-0.551644265652,-0.0111716194078,-0.968739829597,-0.24588962117,-0.0308944056461,0.0112682054296,0.0,0.0,0.0,0.0,0.0,0.0
1609056000745265255,93,1609056000745265255,0.193831846118,-0.810061454773,-0.0136735718697,-0.968476105999,-0.246961962282,-0.030745399826,0.0108876850171,0.0,0.0,0.0,0.0,0.0,0.0
1609056000951564464,94,1609056000951564464,0.245154127479,-1.08118927479,-0.0191506370902,-0.968348911104,-0.24749327782,-0.03062724838,0.0104611401656,0.0,0.0,0.0,0.0,0.0,0.0
1609056001142189818,95,1609056001142189818,0.309440493584,-1.35642457008,-0.0318274497986,-0.968472352224,-0.247032175011,-0.0305737619721,0.0100822897119,0.0,0.0,0.0,0.0,0.0,0.0
1609056001345245591,96,1609056001345245591,0.391832649708,-1.66552603245,-0.0348228253424,-0.968284908169,-0.247805761998,-0.0303734950185,0.00970008932018,0.0,0.0,0.0,0.0,0.0,0.0
1609056001551408379,97,1609056001551408379,0.40175947547,-1.64871907234,-0.0326356329024,-0.968351767535,-0.247542421102,-0.0303894085618,0.00969989243673,0.0,0.0,0.0,0.0,0.0,0.0
1609056001745228128,98,1609056001745228128,0.394209802151,-1.62748742104,-0.0334033221006,-0.968351570687,-0.247535233453,-0.0304316501365,0.00977028231049,0.0,0.0,0.0,0.0,0.0,0.0
1609056001951433288,99,1609056001951433288,0.396208524704,-1.61931800842,-0.0329589545727,-0.968396411083,-0.247355033381,-0.0304798425227,0.00973948983289,0.0,0.0,0.0,0.0,0.0,0.0
1609056002141948467,100,1609056002141948467,0.391482293606,-1.6224398613,-0.0341878272593,-0.968362377308,-0.247488812819,-0.0304640313651,0.00977427932193,0.0,0.0,0.0,0.0,0.0,0.0
1609056002345260927,101,1609056002345260927,0.395433872938,-1.63217020035,-0.0337828136981,-0.968348518267,-0.247544236133,-0.0304620089733,0.00975009420883,0.0,0.0,0.0,0.0,0.0,0.0
1609056002551279284,102,1609056002551279284,0.400184988976,-1.62881147861,-0.0321841873229,-0.968348280269,-0.24755017714,-0.0304355070181,0.00970555565704,0.0,0.0,0.0,0.0,0.0,0.0
1609056002742298615,103,1609056002742298615,0.362510025501,-1.45005738735,-0.0293396003544,-0.968469221919,-0.247053023497,-0.0305255899608,0.0100178907236,0.0,0.0,0.0,0.0,0.0,0.0
1609056002946768675,104,1609056002946768675,0.347624450922,-1.41165304184,-0.0289289802313,-0.968526863613,-0.246825281498,-0.0305263329733,0.0100567324866,0.0,0.0,0.0,0.0,0.0,0.0
1609056003151423298,105,1609056003151423298,0.396850556135,-1.62787020206,-0.033563669771,-0.96832280106,-0.24765332347,-0.0304045765249,0.00971318937962,0.0,0.0,0.0,0.0,0.0,0.0
1609056003342184826,106,1609056003342184826,0.398414552212,-1.63844692707,-0.0344729050994,-0.968364277521,-0.247482656835,-0.030456600222,0.00976504432576,0.0,0.0,0.0,0.0,0.0,0.0
1609056003545015025,107,1609056003545015025,0.292365759611,-1.21735680103,-0.0252831578255,-0.968621600848,-0.246431230197,-0.0306112638034,0.0103341028506,0.0,0.0,0.0,0.0,0.0,0.0
1609056003751260986,108,1609056003751260986,0.263456374407,-1.0495544672,-0.0203937534243,-0.968534353147,-0.246753451754,-0.0307046504013,0.0105434940215,0.0,0.0,0.0,0.0,0.0,0.0
1609056003941593768,109,1609056003941593768,0.267129808664,-1.05555975437,-0.022283975035,-0.968481258035,-0.246959324564,-0.0307170929856,0.0105643288743,0.0,0.0,0.0,0.0,0.0,0.0
1609056004145228988,110,1609056004145228988,0.267819881439,-1.05522847176,-0.0218423716724,-0.968435925061,-0.247139151907,-0.0307142475775,0.0105230053153,0.0,0.0,0.0,0.0,0.0,0.0
1609056004351456205,111,1609056004351456205,0.266429394484,-1.04753816128,-0.0197366122156,-0.968429144598,-0.247164785517,-0.0307285399517,0.0105032150609,0.0,0.0,0.0,0.0,0.0,0.0
1609056004541931567,112,1609056004541931567,0.26163738966,-1.03021728992,-0.020797714591,-0.968434094627,-0.247143705589,-0.0307159198933,0.0105794809382,0.0,0.0,0.0,0.0,0.0,0.0
1609056004744932255,113,1609056004744932255,0.257535398006,-1.0007455349,-0.0203469917178,-0.968462100874,-0.247031642365,-0.0307230460878,0.0106123173457,0.0,0.0,0.0,0.0,0.0,0.0
1609056004951519154,114,1609056004951519154,0.244751349092,-0.959207892418,-0.0186548270285,-0.968384628672,-0.247329613159,-0.0307577449957,0.0106411714349,0.0,0.0,0.0,0.0,0.0,0.0
1609056005141534849,115,1609056005141534849,0.221109315753,-0.904680788517,-0.0203190539032,-0.968491887053,-0.246897240815,-0.0308108680471,0.0107660392411,0.0,0.0,0.0,0.0,0.0,0.0
1609056005344730688,116,1609056005344730688,0.203931868076,-0.828985035419,-0.0168013069779,-0.968497334451,-0.246875707965,-0.0307826766799,0.0108501057041,0.0,0.0,0.0,0.0,0.0,0.0
1609056005550956425,117,1609056005550956425,0.182351604104,-0.73439770937,-0.0136054577306,-0.968630054503,-0.246348849783,-0.0307846676119,0.0109711423677,0.0,0.0,0.0,0.0,0.0,0.0
1609056005741646121,118,1609056005741646121,0.153625681996,-0.621413290501,-0.0115031506866,-0.96869117347,-0.246086798631,-0.0308948934237,0.011144664227,0.0,0.0,0.0,0.0,0.0,0.0
1609056005944968834,119,1609056005944968834,0.122869305313,-0.486220270395,-0.0100986557081,-0.968770517722,-0.245754626165,-0.0309898678979,0.0113126388707,0.0,0.0,0.0,0.0,0.0,0.0
1609056006150946956,120,1609056006150946956,0.0910800546408,-0.326929539442,-0.00631276099011,-0.968830515518,-0.24549852197,-0.0310855408928,0.0114715761273,0.0,0.0,0.0,0.0,0.0,0.0
1609056006341852696,121,1609056006341852696,0.0364600531757,-0.158754363656,-0.00544998049736,-0.969043301037,-0.244631097062,-0.0311890651923,0.0117451810509,0.0,0.0,0.0,0.0,0.0,0.0
1609056006544911021,122,1609056006544911021,-0.00982268061489,0.0363549888134,-0.00310425832868,-0.969139191842,-0.244221483126,-0.031341381749,0.0119503893285,0.0,0.0,0.0,0.0,0.0,0.0
1609056006751482466,123,1609056006751482466,-0.0647593662143,0.252923876047,-0.000825630035251,-0.969396160424,-0.243163404927,-0.0315138655343,0.012227793706,0.0,0.0,0.0,0.0,0.0,0.0
1609056006942154644,124,1609056006942154644,-0.122749134898,0.475878506899,-0.00136643240694,-0.969706994837,-0.241873025844,-0.0317400604933,0.0125838028314,0.0,0.0,0.0,0.0,0.0,0.0
1609056007144597027,125,1609056007144597027,-0.177108749747,0.72778826952,0.00316556706093,-0.969893805973,-0.241082361462,-0.0319076531709,0.0129306533428,0.0,0.0,0.0,0.0,0.0,0.0
1609056007350899036,126,1609056007350899036,-0.24572892487,0.991566240788,0.00863169319928,-0.970090473899,-0.240254703626,-0.032028263931,0.0132793126852,0.0,0.0,0.0,0.0,0.0,0.0
1609056007541299742,127,1609056007541299742,-0.305639326572,1.26751804352,0.0127391535789,-0.970117332923,-0.240094519301,-0.0322206952118,0.0137407773893,0.0,0.0,0.0,0.0,0.0,0.0
1609056007744777039,128,1609056007744777039,-0.353888034821,1.47107696533,0.0183736290783,-0.970301346754,-0.239320237732,-0.0323037465664,0.0140566090201,0.0,0.0,0.0,0.0,0.0,0.0
1609056007950859556,129,1609056007950859556,-0.434881269932,1.78483247757,0.0259575210512,-0.97064178924,-0.237911337702,-0.0322922877213,0.0144886344178,0.0,0.0,0.0,0.0,0.0,0.0
1609056008141311182,130,1609056008141311182,-0.477214634418,2.62407803535,0.0499306432903,0.970115697237,0.241413632198,0.0243855311681,0.000581406675282,0.0,0.0,0.0,0.0,0.0,0.0
1609056008344799930,131,1609056008344799930,-0.490574032068,2.61458492279,0.0455088280141,0.970062529667,0.241622877704,0.0244293949853,0.000527414548622,0.0,0.0,0.0,0.0,0.0,0.0
1609056008551826698,132,1609056008551826698,-0.493985146284,2.62032985687,0.0469319745898,0.970073555585,0.241583198668,0.0243830470491,0.000567355170902,0.0,0.0,0.0,0.0,0.0,0.0
1609056008742173810,133,1609056008742173810,-0.493204832077,2.62784171104,0.0432926006615,0.970019012126,0.241796078109,0.0244442914185,0.00049934274352,0.0,0.0,0.0,0.0,0.0,0.0
1609056008944662984,134,1609056008944662984,-0.493045866489,2.62273693085,0.0442992150784,0.970063869787,0.241617111004,0.0244339163381,0.00049389864222,0.0,0.0,0.0,0.0,0.0,0.0
1609056009150979282,135,1609056009150979282,-0.485524773598,2.61153960228,0.0438212640584,0.970044606759,0.241688727647,0.0244889983323,0.000555685281834,0.0,0.0,0.0,0.0,0.0,0.0
1609056009342231946,136,1609056009342231946,-0.493218868971,2.62599563599,0.0429855026305,0.970026555095,0.241769861155,0.0244049021566,0.000466260678742,0.0,0.0,0.0,0.0,0.0,0.0
1609056009544654908,137,1609056009544654908,-0.491696894169,2.61463880539,0.0451162755489,0.970067271544,0.24159886952,0.0244780429727,0.00054803210891,0.0,0.0,0.0,0.0,0.0,0.0
1609056009751409708,138,1609056009751409708,-0.495832294226,2.62459373474,0.042920704931,0.970057342402,0.241654426546,0.0243240144823,0.000482599726612,0.0,0.0,0.0,0.0,0.0,0.0
1609056009941464152,139,1609056009941464152,-0.48673081398,2.62291121483,0.0449225455523,0.970005464051,0.241853533416,0.0244126335743,0.000539822072111,0.0,0.0,0.0,0.0,0.0,0.0
1609056010144757564,140,1609056010144757564,-0.485787421465,2.61621308327,0.0431618206203,0.970016044866,0.241808835055,0.024435815823,0.000500895535759,0.0,0.0,0.0,0.0,0.0,0.0
1609056010350798396,141,1609056010350798396,-0.491418153048,2.61432147026,0.0440244488418,0.970078984154,0.241555730805,0.0244398076781,0.00053779072773,0.0,0.0,0.0,0.0,0.0,0.0
1609056010541484440,142,1609056010541484440,-0.485818058252,2.61323881149,0.0432216897607,0.969975423751,0.241973703268,0.0244165873281,0.000484261588383,0.0,0.0,0.0,0.0,0.0,0.0
1609056010744691335,143,1609056010744691335,-0.481998443604,2.61798787117,0.0439513996243,0.970014306915,0.241811574421,0.0244773152195,0.000517586722751,0.0,0.0,0.0,0.0,0.0,0.0
1609056010951144258,144,1609056010951144258,-0.484916329384,2.61728453636,0.0450917817652,0.97002164068,0.241793118321,0.0243684750282,0.00053100788493,0.0,0.0,0.0,0.0,0.0,0.0
1609056011141441273,145,1609056011141441273,-0.48361441493,2.62530088425,0.0439678579569,0.969963060343,0.242023003521,0.0244187036991,0.000504228101483,0.0,0.0,0.0,0.0,0.0,0.0
1609056011344425802,146,1609056011344425802,-0.485864967108,2.61802625656,0.044252499938,0.970013556435,0.241810989388,0.0245118259283,0.000562256740356,0.0,0.0,0.0,0.0,0.0,0.0
1609056011550900125,147,1609056011550900125,-0.490414083004,2.61912608147,0.0449771098793,0.970051804228,0.241671462336,0.0243745293748,0.00053265797155,0.0,0.0,0.0,0.0,0.0,0.0
1609056011741434327,148,1609056011741434327,-0.491305142641,2.61933517456,0.041918002069,0.970010062927,0.241830640063,0.0244579141194,0.000479357321867,0.0,0.0,0.0,0.0,0.0,0.0
1609056011945144262,149,1609056011945144262,-0.49368751049,2.62585616112,0.0448022000492,0.970043734626,0.2417014295,0.024398730769,0.000523285723413,0.0,0.0,0.0,0.0,0.0,0.0
1609056012151570255,150,1609056012151570255,-0.494424790144,2.62877964973,0.0437320582569,0.970044418384,0.241696514822,0.0244206647019,0.000502216235356,0.0,0.0,0.0,0.0,0.0,0.0
1609056012342035398,151,1609056012342035398,-0.486769944429,2.620885849,0.0468664616346,0.970014926806,0.241817647834,0.0243915130197,0.00056662351903,0.0,0.0,0.0,0.0,0.0,0.0
1609056012544895420,152,1609056012544895420,-0.484586507082,2.61764097214,0.0442136153579,0.970028808551,0.241763437994,0.0243786358133,0.000482437247567,0.0,0.0,0.0,0.0,0.0,0.0
1609056012751698202,153,1609056012751698202,-0.489418387413,2.62669825554,0.0454022474587,0.970023373658,0.241786606629,0.0243638672051,0.0005416522063,0.0,0.0,0.0,0.0,0.0,0.0
1609056012942808607,154,1609056012942808607,-0.48728621006,2.62992286682,0.0442252121866,0.970016198554,0.241805192625,0.0244660127598,0.000487424832439,0.0,0.0,0.0,0.0,0.0,0.0
1609056013144576268,155,1609056013144576268,-0.487435102463,2.62658500671,0.0450699478388,0.970013598311,0.241817983056,0.0244426526248,0.000488768013214,0.0,0.0,0.0,0.0,0.0,0.0
1609056013351263455,156,1609056013351263455,-0.491236925125,2.62373209,0.0457045398653,0.970086031726,0.241535433629,0.0243610684104,0.000513515304941,0.0,0.0,0.0,0.0,0.0,0.0
1609056013541677191,157,1609056013541677191,-0.490127593279,2.62560582161,0.0437622256577,0.970049203323,0.241672430541,0.0244690945388,0.000492810405766,0.0,0.0,0.0,0.0,0.0,0.0
1609056013744572201,158,1609056013744572201,-0.492286741734,2.63078761101,0.0436811745167,0.970058266282,0.241638422087,0.024445392947,0.000505720858834,0.0,0.0,0.0,0.0,0.0,0.0
1609056013950938556,159,1609056013950938556,-0.489660263062,2.62413048744,0.0450981222093,0.970031473238,0.241753454043,0.0243709714556,0.000513942569585,0.0,0.0,0.0,0.0,0.0,0.0
1609056014141125859,160,1609056014141125859,-0.491822987795,2.6165099144,0.0461825467646,0.970018089368,0.241803449556,0.0244073742628,0.00052741246834,0.0,0.0,0.0,0.0,0.0,0.0
1609056014344855257,161,1609056014344855257,-0.492916166782,2.61307287216,0.0437124371529,0.970039127284,0.241723313613,0.0243650557466,0.000524644350994,0.0,0.0,0.0,0.0,0.0,0.0
1609056014551293885,162,1609056014551293885,-0.490009725094,2.61739516258,0.0430470816791,0.970012163088,0.241828939959,0.0243898926287,0.00054808563489,0.0,0.0,0.0,0.0,0.0,0.0
1609056014741392994,163,1609056014741392994,-0.491119325161,2.61721777916,0.0449115484953,0.970000852236,0.241872112246,0.02441295526,0.000485381478791,0.0,0.0,0.0,0.0,0.0,0.0
1609056014944341956,164,1609056014944341956,-0.494252532721,2.6190943718,0.0418309532106,0.969979184683,0.241968007014,0.0243221016935,0.000547934339038,0.0,0.0,0.0,0.0,0.0,0.0
1609056015151135191,165,1609056015151135191,-0.494233906269,2.62517857552,0.0416853912175,0.970065151862,0.241612076237,0.0244317398892,0.000543917665228,0.0,0.0,0.0,0.0,0.0,0.0
1609056015341521410,166,1609056015341521410,-0.487584859133,2.6188724041,0.0475856997073,0.970103900321,0.241461157616,0.024386186287,0.000495845523129,0.0,0.0,0.0,0.0,0.0,0.0
1609056015544438951,167,1609056015544438951,-0.489740431309,2.62344288826,0.043431032449,0.969886450794,0.242324727537,0.0244684664718,0.000541422832986,0.0,0.0,0.0,0.0,0.0,0.0
1609056015750290195,168,1609056015750290195,-0.496456563473,2.61751151085,0.0492843464017,0.970050114148,0.241671008848,0.0244459224991,0.000544423604504,0.0,0.0,0.0,0.0,0.0,0.0
1609056015941080243,169,1609056015941080243,-0.495864659548,2.61277866364,0.0428838729858,0.970087547776,0.241528315198,0.0243696858214,0.000583969176839,0.0,0.0,0.0,0.0,0.0,0.0
1609056016144357095,170,1609056016144357095,-0.496363937855,2.60221672058,0.0492159761488,0.969977630105,0.241970148543,0.0243646085709,0.000458431244101,0.0,0.0,0.0,0.0,0.0,0.0
1609056016350660991,171,1609056016350660991,-0.497852772474,2.60309433937,0.0486827865243,0.970044408932,0.241702373583,0.0243612844752,0.00057889767741,0.0,0.0,0.0,0.0,0.0,0.0
1609056016541186265,172,1609056016541186265,-0.507268130779,2.59233117104,0.0511329174042,0.970043784184,0.241715005158,0.0242609387988,0.000565592535389,0.0,0.0,0.0,0.0,0.0,0.0
1609056016744533682,173,1609056016744533682,-0.504999577999,2.60965061188,0.0679449513555,0.97009158263,0.241296289726,0.0264171077331,0.000747190511185,0.0,0.0,0.0,0.0,0.0,0.0
1609056016951237194,174,1609056016951237194,-0.450580924749,2.65401124954,0.0577158145607,0.970034148886,0.241651282976,0.0252666080575,7.71279508358e-05,0.0,0.0,0.0,0.0,0.0,0.0
1609056017141134703,175,1609056017141134703,-0.467364758253,2.62818694115,0.0370488651097,0.969855149985,0.242491471127,0.0240496127825,0.000700430933649,0.0,0.0,0.0,0.0,0.0,0.0
1609056017344448552,176,1609056017344448552,-0.471685439348,2.63710594177,0.0402978211641,0.970012054831,0.241874609401,0.0239405510963,0.000369895630714,0.0,0.0,0.0,0.0,0.0,0.0
1609056017551559278,177,1609056017551559278,-0.506631493568,2.58972644806,0.0350178405643,0.969959315795,0.241987337844,0.0249105786866,0.00071909330262,0.0,0.0,0.0,0.0,0.0,0.0
1609056017742115198,178,1609056017742115198,-0.519622564316,2.6003575325,0.0523303858936,0.969980531082,0.241861173956,0.0253162873535,0.000165678269091,0.0,0.0,0.0,0.0,0.0,0.0
1609056017944707660,179,1609056017944707660,-0.49307975173,2.6205868721,0.0447036474943,0.96997594581,0.242015622932,0.0239734379487,0.000614068174278,0.0,0.0,0.0,0.0,0.0,0.0
1609056018150662185,180,1609056018150662185,-0.513918638229,2.60104465485,0.0464847236872,0.970007275024,0.241793615681,0.0249260447419,0.000652770330125,0.0,0.0,0.0,0.0,0.0,0.0
1609056018341184343,181,1609056018341184343,-0.502649307251,2.6041162014,0.0448131598532,0.970034650164,0.241718705806,0.0245871817118,0.000561463192613,0.0,0.0,0.0,0.0,0.0,0.0
1609056018544160153,182,1609056018544160153,-0.502812683582,2.59167766571,0.0489773079753,0.970062119417,0.241649525862,0.024184388246,0.000326326562875,0.0,0.0,0.0,0.0,0.0,0.0
1609056018750577762,183,1609056018750577762,-0.491115063429,2.61849975586,0.0575944408774,0.970085226957,0.241407940148,0.0256288797805,0.000139261496145,0.0,0.0,0.0,0.0,0.0,0.0
1609056018940934121,184,1609056018940934121,-0.463378340006,2.61947202682,0.0396175533533,0.970048727239,0.241667691946,0.0245383416572,0.000251473918035,0.0,0.0,0.0,0.0,0.0,0.0
1609056019144423984,185,1609056019144423984,-0.472512871027,2.60908222198,0.0502769090235,0.9699850799,0.242026889992,0.0234763248949,0.000889641906558,0.0,0.0,0.0,0.0,0.0,0.0
1609056019350721006,186,1609056019350721006,-0.475884646177,2.61987686157,0.0462768599391,0.969935744291,0.242200397854,0.0237358121549,0.000480048630141,0.0,0.0,0.0,0.0,0.0,0.0
1609056019541318976,187,1609056019541318976,-0.482801407576,2.60330414772,0.0261840447783,0.970169591198,0.241114049115,0.0251552057274,0.00148164061298,0.0,0.0,0.0,0.0,0.0,0.0
1609056019744178864,188,1609056019744178864,-0.486627429724,2.5734474659,0.0343093201518,0.969811079616,0.24245602612,0.0260542166375,0.00165016568711,0.0,0.0,0.0,0.0,0.0,0.0
1609056019950395665,189,1609056019950395665,-0.500677466393,2.56073236465,0.0964431911707,0.969775160835,0.242723117599,0.024925013985,-0.000607691141469,0.0,0.0,0.0,0.0,0.0,0.0
1609056020140692871,190,1609056020140692871,-0.56138664484,2.61752772331,0.136252209544,0.969804996694,0.243835454202,0.00474726743173,5.57992124658e-05,0.0,0.0,0.0,0.0,0.0,0.0
1609056020344329961,191,1609056020344329961,-0.583824872971,2.53522706032,0.208500906825,0.970000689169,0.243027986006,-0.00176137796329,0.00574095614569,0.0,0.0,0.0,0.0,0.0,0.0
1609056020550590887,192,1609056020550590887,-0.604734539986,2.50917601585,0.267225414515,0.970061044433,0.242768915652,-0.00469126613475,0.00477657716707,0.0,0.0,0.0,0.0,0.0,0.0
1609056020741155832,193,1609056020741155832,-0.61631000042,2.53423666954,0.299672871828,0.97014285569,0.242474348252,-0.00484091834853,0.00236548148702,0.0,0.0,0.0,0.0,0.0,0.0
1609056020944408590,194,1609056020944408590,-0.625401377678,2.52518296242,0.327047407627,0.969998246344,0.243062715187,-0.00280669580162,0.00400512597617,0.0,0.0,0.0,0.0,0.0,0.0
1609056021150533351,195,1609056021150533351,-0.636121094227,2.53276658058,0.365538030863,-0.970033007969,-0.24285306072,0.00647553428197,0.00405238273511,0.0,0.0,0.0,0.0,0.0,0.0
1609056021340780574,196,1609056021340780574,-0.611354708672,2.46717381477,0.402570575476,-0.96971184623,-0.244105629015,0.00301505859537,0.00789218505671,0.0,0.0,0.0,0.0,0.0,0.0
1609056021544099308,197,1609056021544099308,-0.586544513702,2.42133402824,0.471090376377,-0.96976664187,-0.243821971865,0.0019221486723,0.00999058039889,0.0,0.0,0.0,0.0,0.0,0.0
1609056021750436197,198,1609056021750436197,-0.601470172405,2.40372610092,0.549740850925,-0.970191680773,-0.242229432506,0.00500577452074,0.00528647403934,0.0,0.0,0.0,0.0,0.0,0.0
1609056021940918014,199,1609056021940918014,-0.550508260727,2.37682747841,0.660266339779,-0.969756279751,-0.244042336751,0.00395972985971,-0.000645209746327,0.0,0.0,0.0,0.0,0.0,0.0
1609056022144190198,200,1609056022144190198,-0.511535406113,2.35500860214,0.725993692875,0.969498548413,0.245063106529,-0.00329567660576,0.00240353049887,0.0,0.0,0.0,0.0,0.0,0.0
1609056022350301682,201,1609056022350301682,-0.503297686577,2.3597035408,0.776815474033,-0.969492912202,-0.245047079804,0.00582095329586,-0.00124031119623,0.0,0.0,0.0,0.0,0.0,0.0
1609056022540832089,202,1609056022540832089,-0.461317867041,2.38270139694,0.84744310379,-0.969302541153,-0.245834322787,0.00419562506995,-0.0006827771667,0.0,0.0,0.0,0.0,0.0,0.0
1609056022744024726,203,1609056022744024726,-0.42032161355,2.3833501339,0.90494197607,0.969127864129,0.246471506809,-0.00631119861117,0.00177428064533,0.0,0.0,0.0,0.0,0.0,0.0
1609056022950338086,204,1609056022950338086,-0.389580011368,2.40859532356,0.978864312172,0.96939298269,0.245470978908,-0.00441800267208,0.00131334561994,0.0,0.0,0.0,0.0,0.0,0.0
1609056023140997097,205,1609056023140997097,-0.355797916651,2.32988333702,1.07354438305,0.969958139461,0.243185265333,0.00648456615671,-0.000291237277223,0.0,0.0,0.0,0.0,0.0,0.0
1609056023344106928,206,1609056023344106928,-0.315774261951,2.34453392029,1.12169253826,0.96967038831,0.244325113867,0.00667491252477,-0.000149368673576,0.0,0.0,0.0,0.0,0.0,0.0
1609056023550481571,207,1609056023550481571,-0.305548191071,2.34584140778,1.17068743706,0.969555930115,0.244784218065,0.00633751389618,-0.00134940099945,0.0,0.0,0.0,0.0,0.0,0.0
1609056023740906030,208,1609056023740906030,-0.258689045906,2.33933830261,1.18970656395,0.96945050556,0.24520341619,0.00631376506656,-0.00106692521154,0.0,0.0,0.0,0.0,0.0,0.0
1609056023944252678,209,1609056023944252678,-0.207379758358,2.30837225914,1.25122177601,-0.969576821571,-0.24475476144,-0.00346659456831,0.00196889477924,0.0,0.0,0.0,0.0,0.0,0.0
1609056024150345705,210,1609056024150345705,-0.18756096065,2.31903219223,1.29337751865,-0.96947955507,-0.245146778836,-0.00291701222911,0.00198498557359,0.0,0.0,0.0,0.0,0.0,0.0
1609056024341439296,211,1609056024341439296,-0.167226061225,2.34263348579,1.32526946068,-0.969311825127,-0.245796334963,-0.00416604563474,0.00117959797936,0.0,0.0,0.0,0.0,0.0,0.0
1609056024544201226,212,1609056024544201226,-0.118426732719,2.35759091377,1.36848735809,0.969351540191,0.245628683836,0.0048006188954,-0.00104654924284,0.0,0.0,0.0,0.0,0.0,0.0
1609056024750316039,213,1609056024750316039,-0.0882714614272,2.36028957367,1.39615774155,-0.969288100805,-0.245895495585,-0.00380887601121,0.00121464075488,0.0,0.0,0.0,0.0,0.0,0.0
1609056024940833120,214,1609056024940833120,-0.036287933588,2.39988899231,1.59030079842,-0.969273307626,-0.245174699859,-0.0193343664111,0.00498035619619,0.0,0.0,0.0,0.0,0.0,0.0
1609056025144202559,215,1609056025144202559,-0.0105306673795,2.42478132248,1.6475571394,0.969229304998,0.245143683563,0.0219042483977,-0.00439689022631,0.0,0.0,0.0,0.0,0.0,0.0
1609056025350941995,216,1609056025350941995,-0.0247451420873,2.42179894447,1.85478925705,-0.969511888351,-0.244474001214,-0.0125385093066,0.0110429552373,0.0,0.0,0.0,0.0,0.0,0.0
1609056025541014555,217,1609056025541014555,-0.029984947294,2.38652181625,1.93269586563,-0.969676222864,-0.243863197221,-0.0106743731791,0.012034185114,0.0,0.0,0.0,0.0,0.0,0.0
1609056025744194946,218,1609056025744194946,-0.014089602977,2.38240242004,1.97809576988,-0.969666718025,-0.24392506376,-0.0101281979315,0.0120182706987,0.0,0.0,0.0,0.0,0.0,0.0
1609056025950804552,219,1609056025950804552,-0.0301328357309,2.37446045876,2.03346514702,-0.969648789434,-0.244052783172,-0.00917754370938,0.0116291386925,0.0,0.0,0.0,0.0,0.0,0.0
1609056026141725970,220,1609056026141725970,-0.0612248331308,2.36518144608,2.06858158112,-0.969559210626,-0.244411177991,-0.0106526212583,0.0102291164714,0.0,0.0,0.0,0.0,0.0,0.0
1609056026344090759,221,1609056026344090759,-0.0678782388568,2.33166360855,2.13823914528,-0.969436977117,-0.244848899578,-0.0103749730079,0.0115465885978,0.0,0.0,0.0,0.0,0.0,0.0
1609056026550229663,222,1609056026550229663,-0.0664760097861,2.29913687706,2.22234153748,-0.96945508617,-0.24481063499,-0.0117770950045,0.00926762793338,0.0,0.0,0.0,0.0,0.0,0.0
1609056026740857439,223,1609056026740857439,-0.113605938852,2.25610303879,2.47879362106,-0.969332646631,-0.245519904011,-0.0101833935905,0.00323966115857,0.0,0.0,0.0,0.0,0.0,0.0
1609056026944203321,224,1609056026944203321,-0.151691317558,2.23134374619,2.52930235863,-0.969282252404,-0.245697191032,-0.0105705844084,0.00361500198048,0.0,0.0,0.0,0.0,0.0,0.0
1609056027150270558,225,1609056027150270558,-0.167858883739,2.16743588448,2.61130547523,-0.969254719177,-0.245900718928,-0.00723795057427,0.0050732490213,0.0,0.0,0.0,0.0,0.0,0.0
1609056027340800237,226,1609056027340800237,-0.195672392845,2.13042807579,2.67549133301,-0.969362114574,-0.245481119763,-0.00750638919391,0.00444576095053,0.0,0.0,0.0,0.0,0.0,0.0
1609056027544155264,227,1609056027544155264,-0.240669026971,2.08781385422,2.71421265602,-0.969515168174,-0.244982813863,-0.00286534079401,0.00394327465559,0.0,0.0,0.0,0.0,0.0,0.0
1609056027750590798,228,1609056027750590798,-0.249177530408,2.06048417091,2.74765944481,-0.969335208566,-0.245708964971,-0.0018730961443,0.00358461674427,0.0,0.0,0.0,0.0,0.0,0.0
1609056027940952537,229,1609056027940952537,-0.290186941624,2.02906727791,2.79810571671,-0.969302963579,-0.245836466189,-0.0035967252636,0.00180561793838,0.0,0.0,0.0,0.0,0.0,0.0
1609056028144194654,230,1609056028144194654,-0.292996048927,1.99730169773,2.85792565346,-0.969387140977,-0.245479915441,-0.00449706293043,0.00282107215231,0.0,0.0,0.0,0.0,0.0,0.0
1609056028351086232,231,1609056028351086232,-0.292787402868,1.9494099617,2.98165869713,-0.969399531424,-0.245422003058,-0.00257889421115,0.00509295529698,0.0,0.0,0.0,0.0,0.0,0.0
1609056028540937644,232,1609056028540937644,-0.305752813816,1.98017978668,2.99149465561,-0.969413184016,-0.245400537168,-0.00296080731122,0.00280867117608,0.0,0.0,0.0,0.0,0.0,0.0
1609056028743934047,233,1609056028743934047,-0.312725841999,1.91837477684,3.04765820503,-0.969490883792,-0.245114142759,-0.00183475929922,0.00176548085797,0.0,0.0,0.0,0.0,0.0,0.0
1609056028950031572,234,1609056028950031572,-0.312108397484,1.92074370384,3.09601044655,-0.969403054325,-0.245439615587,-0.00293072888179,0.00291962238442,0.0,0.0,0.0,0.0,0.0,0.0
1609056029140815464,235,1609056029140815464,-0.334573745728,1.94905149937,3.30336546898,-0.969230209697,-0.246024847047,-0.00135891025993,0.00792013948334,0.0,0.0,0.0,0.0,0.0,0.0
1609056029344106962,236,1609056029344106962,-0.325125128031,1.96228575706,3.3390173912,-0.969270581559,-0.245817873994,0.00221631943247,0.0091214295464,0.0,0.0,0.0,0.0,0.0,0.0
1609056029550357551,237,1609056029550357551,-0.315289318562,1.95010983944,3.36831688881,-0.969177451916,-0.246193732757,0.00379650709994,0.00832461305673,0.0,0.0,0.0,0.0,0.0,0.0
1609056029741077674,238,1609056029741077674,-0.297660171986,1.94889605045,3.45971488953,-0.969112158006,-0.246355948174,0.00720907464636,0.00885444786496,0.0,0.0,0.0,0.0,0.0,0.0
1609056029944076048,239,1609056029944076048,-0.288697004318,1.95945525169,3.54147934914,-0.969012724335,-0.246882522238,0.00250346923183,0.00755598656131,0.0,0.0,0.0,0.0,0.0,0.0
1609056030150526000,240,1609056030150526000,-0.254604130983,1.99357962608,3.69702100754,-0.968896952169,-0.247028119976,-0.00902462788988,0.0115913808673,0.0,0.0,0.0,0.0,0.0,0.0
1609056030340935190,241,1609056030340935190,-0.236788466573,1.99842989445,3.73451280594,-0.968673521787,-0.247928856477,-0.00671118420681,0.0125638497928,0.0,0.0,0.0,0.0,0.0,0.0
1609056030544251393,242,1609056030544251393,-0.21053481102,2.01317000389,3.88436579704,-0.96840050085,-0.248897036134,-0.00321931046623,0.0155039155483,0.0,0.0,0.0,0.0,0.0,0.0
1609056030751002306,243,1609056030751002306,-0.173386991024,2.03116941452,3.89496898651,-0.968248562862,-0.249521954154,-0.00781449084136,0.0131319702787,0.0,0.0,0.0,0.0,0.0,0.0
1609056030941127246,244,1609056030941127246,-0.160540923476,2.04366374016,3.99674725533,-0.967305383013,-0.253056995832,-0.00636006752228,0.0155564261654,0.0,0.0,0.0,0.0,0.0,0.0
1609056031144479657,245,1609056031144479657,-0.127983748913,2.05901932716,4.00733995438,-0.967286381507,-0.253108055556,-0.00674425340207,0.0157443135707,0.0,0.0,0.0,0.0,0.0,0.0
1609056031350443228,246,1609056031350443228,-0.0935559049249,2.06355404854,4.05737686157,-0.967363832205,-0.252855309026,-0.00780976837557,0.0145057353283,0.0,0.0,0.0,0.0,0.0,0.0
1609056031541004711,247,1609056031541004711,-0.051027096808,2.04163217545,4.29772901535,-0.966469630253,-0.256435877403,-0.00115668564507,0.0132573246958,0.0,0.0,0.0,0.0,0.0,0.0
1609056031744122782,248,1609056031744122782,-0.0173777379096,2.02003121376,4.40876483917,-0.965853368384,-0.258924454807,-0.00300882960203,0.00873752983976,0.0,0.0,0.0,0.0,0.0,0.0
1609056031950731719,249,1609056031950731719,0.0248418860137,2.02233123779,4.43262958527,-0.964709191821,-0.263074207256,-0.0094550694464,0.00622401432447,0.0,0.0,0.0,0.0,0.0,0.0
1609056032141377457,250,1609056032141377457,0.068575784564,2.0400826931,4.50094032288,-0.964015985921,-0.265460039241,-0.0135775259829,0.00444940931145,0.0,0.0,0.0,0.0,0.0,0.0
1609056032344202730,251,1609056032344202730,0.107711687684,2.02257990837,4.50673103333,-0.963709316974,-0.266531311397,-0.0137216019578,0.00609344424995,0.0,0.0,0.0,0.0,0.0,0.0
1609056032550263128,252,1609056032550263128,0.138355135918,2.01771521568,4.53110456467,-0.963620699378,-0.266978114542,-0.0114473539153,0.00517611577486,0.0,0.0,0.0,0.0,0.0,0.0
1609056032740926293,253,1609056032740926293,0.180581510067,2.01838994026,4.57887506485,-0.963640189564,-0.267034459355,-0.00765044647339,0.005626121523,0.0,0.0,0.0,0.0,0.0,0.0
1609056032944082900,254,1609056032944082900,0.21754963696,1.99368774891,4.54810905457,-0.963699793684,-0.266756933632,-0.0102811441516,0.00421237328113,0.0,0.0,0.0,0.0,0.0,0.0
1609056033150807060,255,1609056033150807060,0.252899110317,1.99246621132,4.56515216827,-0.963737520301,-0.266524758399,-0.0125596195682,0.00409891215242,0.0,0.0,0.0,0.0,0.0,0.0
1609056033340883789,256,1609056033340883789,0.27077049017,1.97133910656,4.65197229385,0.963734251773,0.26650557358,0.0138228377597,1.91533970643e-05,0.0,0.0,0.0,0.0,0.0,0.0
1609056033544200838,257,1609056033544200838,0.294961094856,1.94943118095,4.66735267639,0.963591760391,0.26686557258,0.0155119625829,0.00575017346297,0.0,0.0,0.0,0.0,0.0,0.0
1609056033751190655,258,1609056033751190655,0.297222018242,1.94854927063,4.79803133011,0.963304526308,0.268037636354,0.0117337664284,0.00790783262015,0.0,0.0,0.0,0.0,0.0,0.0
1609056033940524234,259,1609056033940524234,0.321683585644,1.97470068932,4.66831731796,0.963880956309,0.265663056558,0.0123617816382,0.0142768623793,0.0,0.0,0.0,0.0,0.0,0.0
1609056034144165414,260,1609056034144165414,0.299899220467,1.98129081726,4.69649124146,0.960802457353,0.276139777608,0.0146905095808,0.0197395565912,0.0,0.0,0.0,0.0,0.0,0.0
1609056034350387659,261,1609056034350387659,0.279572248459,2.01503944397,4.74386787415,0.957531623175,0.286897655946,0.0155306808077,0.0241189466219,0.0,0.0,0.0,0.0,0.0,0.0
1609056034541394992,262,1609056034541394992,0.236719638109,2.05630326271,4.74299573898,0.954275059319,0.298050131673,0.0110085611927,0.0201007898482,0.0,0.0,0.0,0.0,0.0,0.0
1609056034743864005,263,1609056034743864005,0.198914304376,2.12731647491,4.78484630585,0.95159989845,0.306255427214,0.0152567669263,0.0207960966213,0.0,0.0,0.0,0.0,0.0,0.0
1609056034949663538,264,1609056034949663538,0.132356330752,2.19782137871,4.82936763763,0.947422807864,0.318518545506,0.0227322823187,0.0204744388972,0.0,0.0,0.0,0.0,0.0,0.0
1609056035140628237,265,1609056035140628237,0.0574707575142,2.26971173286,4.84232139587,0.944033175895,0.329236470664,0.0137524843924,0.014682587222,0.0,0.0,0.0,0.0,0.0,0.0
1609056035343822907,266,1609056035343822907,-0.0206698141992,2.35713076591,4.83322525024,0.94161835371,0.336601017576,0.00146037988597,0.00724556510821,0.0,0.0,0.0,0.0,0.0,0.0
1609056035550161374,267,1609056035550161374,-0.0979974344373,2.45335698128,4.78474235535,0.940109435621,0.340752710403,-0.00501634972555,0.00752832288528,0.0,0.0,0.0,0.0,0.0,0.0
1609056035740508444,268,1609056035740508444,-0.167788058519,2.55622196198,4.77027750015,0.936193093831,0.351282545723,-0.0099244468664,0.0066760383886,0.0,0.0,0.0,0.0,0.0,0.0
1609056035944036090,269,1609056035944036090,-0.246920898557,2.62741708755,4.83818626404,0.932348863325,0.361447141474,-0.00716957340678,0.0054916476062,0.0,0.0,0.0,0.0,0.0,0.0
1609056036150187064,270,1609056036150187064,-0.301352143288,2.74091911316,4.83156776428,0.929539028993,0.368626128067,-0.0073098076491,0.00430557739236,0.0,0.0,0.0,0.0,0.0,0.0
1609056036340683355,271,1609056036340683355,-0.370644539595,2.84455013275,4.81790542603,0.925102473873,0.379624028923,-0.00608031833652,0.00583431467153,0.0,0.0,0.0,0.0,0.0,0.0
1609056036543869964,272,1609056036543869964,-0.423807680607,3.00062179565,4.78531646729,0.921142886236,0.389015273763,-0.0103725640593,0.0074370579301,0.0,0.0,0.0,0.0,0.0,0.0
1609056036749922016,273,1609056036749922016,-0.465297371149,3.11433959007,4.84347343445,-0.917792361116,-0.39674775222,0.0152140877544,-0.00411515723122,0.0,0.0,0.0,0.0,0.0,0.0
1609056036940381733,274,1609056036940381733,-0.512575209141,3.2344930172,4.90098762512,-0.913524104321,-0.406451470222,0.0164388763466,0.000822510898486,0.0,0.0,0.0,0.0,0.0,0.0
1609056037143695596,275,1609056037143695596,-0.519563436508,3.38940787315,4.84007453918,-0.910571819093,-0.413084412747,0.0143702493231,-0.00370488236254,0.0,0.0,0.0,0.0,0.0,0.0
1609056037349887530,276,1609056037349887530,-0.537266850471,3.5205206871,4.9200668335,-0.905921350978,-0.423223485856,0.0135501133726,-0.00218661627135,0.0,0.0,0.0,0.0,0.0,0.0
1609056037540296540,277,1609056037540296540,-0.536337196827,3.67044210434,4.85688972473,-0.902634040492,-0.430266943666,0.0102692149523,-0.00408526113267,0.0,0.0,0.0,0.0,0.0,0.0
1609056037743535447,278,1609056037743535447,-0.54992210865,3.83441185951,4.96408033371,0.897645534725,0.440529155196,0.00576178564466,0.0115481270035,0.0,0.0,0.0,0.0,0.0,0.0
1609056037950436736,279,1609056037950436736,-0.559533655643,4.01331615448,4.93480300903,0.895962735176,0.44378462921,0.00566254073953,0.0165503983333,0.0,0.0,0.0,0.0,0.0,0.0
1609056038140599579,280,1609056038140599579,-0.580210804939,4.17168855667,4.96819877625,0.894270268446,0.447247395644,0.0078198622823,0.013758772377,0.0,0.0,0.0,0.0,0.0,0.0
1609056038343632618,281,1609056038343632618,-0.615806519985,4.3394947052,4.9972038269,0.89300890104,0.449812298053,0.0100153530974,0.0101829212983,0.0,0.0,0.0,0.0,0.0,0.0
1609056038549910451,282,1609056038549910451,-0.656590759754,4.54507112503,4.95052814484,0.893188947703,0.449427947091,0.0125122184463,0.00845390228194,0.0,0.0,0.0,0.0,0.0,0.0
1609056038740564552,283,1609056038740564552,-0.722225725651,4.70713329315,4.97203445435,0.892167615973,0.451553884723,0.0112513914409,0.00307252203554,0.0,0.0,0.0,0.0,0.0,0.0
1609056038944022365,284,1609056038944022365,-0.786256670952,4.89655542374,4.97738552094,0.890678680557,0.454429612905,0.013468679934,-0.00195181394373,0.0,0.0,0.0,0.0,0.0,0.0
1609056039150627038,285,1609056039150627038,-0.88305413723,5.07854890823,4.85252475739,0.886009793634,0.463305012336,0.0183060247006,-2.42521863912e-05,0.0,0.0,0.0,0.0,0.0,0.0
1609056039340610441,286,1609056039340610441,-0.979709506035,5.22384929657,5.05769872665,-0.880200669094,-0.474002493146,-0.0109150101648,0.021196253727,0.0,0.0,0.0,0.0,0.0,0.0
1609056039543744313,287,1609056039543744313,-1.07763516903,5.37072372437,5.08720207214,-0.873892303199,-0.484330852335,-0.00179713079677,0.0416249709577,0.0,0.0,0.0,0.0,0.0,0.0
1609056039749859726,288,1609056039749859726,-1.15492522717,5.50052881241,4.94836997986,-0.868431169486,-0.494629422585,-0.00213989789556,0.034124170551,0.0,0.0,0.0,0.0,0.0,0.0
1609056039940391415,289,1609056039940391415,-1.22497475147,5.5954284668,4.92368125916,-0.865522461965,-0.500481025458,0.00672672010406,0.0185569994341,0.0,0.0,0.0,0.0,0.0,0.0
1609056040143720153,290,1609056040143720153,-1.28537392616,5.70389509201,4.84968090057,-0.859391454747,-0.511123605584,0.0046869672232,0.0133048735849,0.0,0.0,0.0,0.0,0.0,0.0
1609056040350388689,291,1609056040350388689,-1.34538733959,5.80016851425,4.90383815765,-0.855067997897,-0.518308228856,0.00665073702645,0.0130792419393,0.0,0.0,0.0,0.0,0.0,0.0
1609056040540026796,292,1609056040540026796,-1.40952527523,5.8895316124,4.87977027893,-0.847773051955,-0.530182028616,0.00462749110709,0.0129017532292,0.0,0.0,0.0,0.0,0.0,0.0
1609056040743539340,293,1609056040743539340,-1.45499420166,5.96867036819,4.89216089249,-0.841959322498,-0.539274572238,0.00438746277371,0.0163763600096,0.0,0.0,0.0,0.0,0.0,0.0
1609056040950622420,294,1609056040950622420,-1.49885487556,6.05222558975,4.92308759689,-0.836663085097,-0.547416889731,0.0012453313991,0.0181129793898,0.0,0.0,0.0,0.0,0.0,0.0
1609056041140515388,295,1609056041140515388,-1.53100001812,6.11216115952,4.93116950989,-0.831318070241,-0.555482343944,0.00654593332713,0.0175152052038,0.0,0.0,0.0,0.0,0.0,0.0
1609056041343734922,296,1609056041343734922,-1.54875588417,6.18999242783,4.92844438553,-0.829832568831,-0.557655472928,0.0105614084807,0.0169333361236,0.0,0.0,0.0,0.0,0.0,0.0
1609056041550619424,297,1609056041550619424,-1.56552195549,6.2559876442,4.9577703476,-0.827490919628,-0.561133598505,0.0104448107507,0.0166963615939,0.0,0.0,0.0,0.0,0.0,0.0
1609056041740362057,298,1609056041740362057,-1.56093215942,6.33374500275,4.97081422806,-0.82715541252,-0.561429249678,0.0226918145443,0.00980829739641,0.0,0.0,0.0,0.0,0.0,0.0
1609056041943772270,299,1609056041943772270,-1.55763924122,6.40508127213,4.88369512558,-0.827573796424,-0.560522395097,0.0301172984544,0.00540410954436,0.0,0.0,0.0,0.0,0.0,0.0
1609056042149828922,300,1609056042149828922,-1.51102924347,6.49417209625,4.88522768021,-0.827230519183,-0.560094531078,0.0443688648815,-0.00389720641624,0.0,0.0,0.0,0.0,0.0,0.0
1609056042341091671,301,1609056042341091671,-1.45630705357,6.60357522964,4.87049627304,-0.827499281587,-0.559678236541,0.0444560489285,-0.00537310235231,0.0,0.0,0.0,0.0,0.0,0.0
1609056042543672427,302,1609056042543672427,-1.35167920589,6.74395132065,4.96304416656,-0.828417776606,-0.559227561434,0.0313157352476,0.00280118937893,0.0,0.0,0.0,0.0,0.0,0.0
1609056042750074929,303,1609056042750074929,-1.25755894184,6.89326858521,4.92964744568,-0.828542400279,-0.559130616715,0.0298401133372,-0.000109673645362,0.0,0.0,0.0,0.0,0.0,0.0
1609056042940467896,304,1609056042940467896,-1.14311373234,7.0460319519,4.89979410172,-0.826093018008,-0.563259085681,0.0175820256929,0.000632746979487,0.0,0.0,0.0,0.0,0.0,0.0
1609056043143510060,305,1609056043143510060,-1.0262182951,7.23194789886,4.94139003754,-0.821677747755,-0.569845569865,0.00913102882802,0.0061910953944,0.0,0.0,0.0,0.0,0.0,0.0
1609056043349533147,306,1609056043349533147,-0.907740056515,7.39338684082,4.97019672394,-0.816661019149,-0.576964390984,0.00832461445106,0.0103716986432,0.0,0.0,0.0,0.0,0.0,0.0
1609056043540219760,307,1609056043540219760,-0.784828782082,7.55595731735,4.96012639999,-0.813578648681,-0.581338793103,0.00667118646072,0.00951237700222,0.0,0.0,0.0,0.0,0.0,0.0
1609056043743502467,308,1609056043743502467,-0.650751233101,7.71761798859,4.94011259079,-0.809131102137,-0.587546716526,0.00538445380494,0.00816842156371,0.0,0.0,0.0,0.0,0.0,0.0
1609056043949907870,309,1609056043949907870,-0.525579988956,7.86422538757,4.99215364456,-0.802796657552,-0.59616371073,-0.000755318140602,0.0102852382876,0.0,0.0,0.0,0.0,0.0,0.0
1609056044140459023,310,1609056044140459023,-0.391502976418,8.02584171295,4.96476411819,-0.795724347426,-0.605569331212,0.00141624745802,0.0103219306786,0.0,0.0,0.0,0.0,0.0,0.0
1609056044343498938,311,1609056044343498938,-0.277324020863,8.16455841064,4.97755336761,-0.782064950924,-0.623074360897,0.00258002744998,0.0120870504105,0.0,0.0,0.0,0.0,0.0,0.0
1609056044549337781,312,1609056044549337781,-0.165357530117,8.30309295654,4.95071601868,-0.769814716831,-0.638201387396,0.00511813762925,0.00762204324015,0.0,0.0,0.0,0.0,0.0,0.0
1609056044739538548,313,1609056044739538548,-0.0355304740369,8.46023082733,4.96528434753,-0.765602494846,-0.643294513829,0.00298799295542,0.00400752561003,0.0,0.0,0.0,0.0,0.0,0.0
1609056044942847884,314,1609056044942847884,0.0898322835565,8.59250640869,4.93609189987,-0.765335869873,-0.643598202189,0.00640620793626,-0.0011493152123,0.0,0.0,0.0,0.0,0.0,0.0
1609056045149776044,315,1609056045149776044,0.199394002557,8.73865127563,4.91550254822,-0.766036743804,-0.642764787273,-0.00482825460154,0.00422177003334,0.0,0.0,0.0,0.0,0.0,0.0
1609056045339818337,316,1609056045339818337,0.301149666309,8.86480236053,4.89936828613,0.766051810423,0.642669352858,0.00992533215711,-0.00649726308071,0.0,0.0,0.0,0.0,0.0,0.0
1609056045543419278,317,1609056045543419278,0.407900780439,8.99345207214,4.79798030853,0.765895716786,0.642869428175,0.0101438515154,0.00444427763483,0.0,0.0,0.0,0.0,0.0,0.0
1609056045749683380,318,1609056045749683380,0.48134675622,9.11507511139,4.86773347855,0.766497622711,0.642120959251,0.0108387533464,0.00667753649187,0.0,0.0,0.0,0.0,0.0,0.0
1609056045940115750,319,1609056045940115750,0.547449290752,9.24427032471,4.82612657547,0.766730263821,0.641728628386,0.0156295267964,0.00804909579957,0.0,0.0,0.0,0.0,0.0,0.0
1609056046143279009,320,1609056046143279009,0.596775650978,9.35916996002,4.83122491837,0.766888169757,0.641090237416,0.0258903262671,0.0146810620317,0.0,0.0,0.0,0.0,0.0,0.0
1609056046349707527,321,1609056046349707527,0.612073779106,9.47361564636,4.81766796112,0.766640202909,0.641277701381,0.0284634352242,0.0146813436247,0.0,0.0,0.0,0.0,0.0,0.0
1609056046540401843,322,1609056046540401843,0.603830099106,9.57875537872,4.81433105469,0.766194904117,0.642212933262,0.0210683606525,0.00800258926897,0.0,0.0,0.0,0.0,0.0,0.0
1609056046743239920,323,1609056046743239920,0.583444416523,9.69370174408,4.83059930801,0.766477897535,0.642194969623,0.00554948295439,0.00815210525354,0.0,0.0,0.0,0.0,0.0,0.0
1609056046950260948,324,1609056046950260948,0.550687968731,9.796459198,4.78059196472,0.766240168916,0.642458113555,-0.0037900805421,0.0104504141471,0.0,0.0,0.0,0.0,0.0,0.0
1609056047140063491,325,1609056047140063491,0.5124168396,9.92123794556,4.77733039856,0.766053848557,0.642689450368,-0.00592734039617,0.00875432080203,0.0,0.0,0.0,0.0,0.0,0.0
1609056047343178097,326,1609056047343178097,0.47514346242,10.0521421432,4.77803134918,0.766210789094,0.642466040428,-0.00802584307991,0.00969532959557,0.0,0.0,0.0,0.0,0.0,0.0
1609056047549202323,327,1609056047549202323,0.431268215179,10.1901283264,4.77031993866,0.76639676967,0.642283467728,-0.00790371425731,0.00674313159312,0.0,0.0,0.0,0.0,0.0,0.0
1609056047739967324,328,1609056047739967324,0.389185130596,10.3305215836,4.78962659836,-0.766296367733,-0.642432960325,0.00760641961792,-0.00345118365376,0.0,0.0,0.0,0.0,0.0,0.0
1609056047943167552,329,1609056047943167552,0.344901829958,10.4863319397,4.73976421356,-0.765916123562,-0.642914320869,0.0052435270025,-0.00248457511315,0.0,0.0,0.0,0.0,0.0,0.0
1609056048149238700,330,1609056048149238700,0.301145255566,10.657743454,4.74652004242,-0.7656670041,-0.643231213831,0.00239224616815,0.0013861973751,0.0,0.0,0.0,0.0,0.0,0.0
1609056048340101873,331,1609056048340101873,0.263077199459,10.7986164093,4.7851099968,-0.765082118284,-0.643857883259,0.00286647105192,0.00938945104193,0.0,0.0,0.0,0.0,0.0,0.0
1609056048542930418,332,1609056048542930418,0.225311279297,10.9422998428,4.75428819656,-0.764656178043,-0.644404820158,0.0048696734081,0.00443208960843,0.0,0.0,0.0,0.0,0.0,0.0
1609056048749987577,333,1609056048749987577,0.19570286572,11.0870513916,4.7452545166,-0.764644373291,-0.644396226871,0.00721822671543,-0.0045146863084,0.0,0.0,0.0,0.0,0.0,0.0
1609056048939643569,334,1609056048939643569,0.160917252302,11.2498035431,4.75736188889,-0.764554307871,-0.644368124886,0.0128643139505,-0.00899663121411,0.0,0.0,0.0,0.0,0.0,0.0
1609056049143018453,335,1609056049143018453,0.128015235066,11.4177904129,4.79605007172,-0.764705631816,-0.644157617089,0.0162566527507,-0.00468852396423,0.0,0.0,0.0,0.0,0.0,0.0
1609056049350087677,336,1609056049350087677,0.0995548218489,11.5884656906,4.80447101593,-0.764425355578,-0.644500001344,0.0162360991554,-0.00316434848948,0.0,0.0,0.0,0.0,0.0,0.0
1609056049539807084,337,1609056049539807084,0.0763890519738,11.7883224487,4.77016496658,-0.764404927976,-0.644542670063,0.0154679125459,-0.00325518597241,0.0,0.0,0.0,0.0,0.0,0.0
1609056049742932282,338,1609056049742932282,0.0605986230075,11.9740285873,4.81666231155,-0.764613959668,-0.64439463713,0.0109733473447,0.000793705082628,0.0,0.0,0.0,0.0,0.0,0.0
1609056049949179111,339,1609056049949179111,0.0467123910785,12.1799297333,4.74710464478,-0.76451499464,-0.644325177322,0.0176208497769,-0.00716899520564,0.0,0.0,0.0,0.0,0.0,0.0
1609056050139802178,340,1609056050139802178,0.0400782488286,12.3968305588,4.68940114975,-0.764122627998,-0.644611576773,0.0209823896428,-0.0123395217661,0.0,0.0,0.0,0.0,0.0,0.0
1609056050343180635,341,1609056050343180635,0.0218548160046,12.6216888428,4.78284072876,-0.764400030302,-0.644374972612,0.0217313944153,-0.00111123446122,0.0,0.0,0.0,0.0,0.0,0.0
1609056050549423874,342,1609056050549423874,0.0298326145858,12.8660964966,4.69169473648,-0.764267190728,-0.644623153485,0.0186587288253,0.00291599135488,0.0,0.0,0.0,0.0,0.0,0.0
1609056050739743371,343,1609056050739743371,0.0537818260491,13.111533165,4.68418169022,-0.764661727885,-0.644333822169,0.00980380535546,0.00550026532314,0.0,0.0,0.0,0.0,0.0,0.0
1609056050942946103,344,1609056050942946103,0.0656914040446,13.3524875641,4.70024633408,-0.764842831649,-0.644116710399,0.00179639231259,0.0112195915879,0.0,0.0,0.0,0.0,0.0,0.0
1609056051150356417,345,1609056051150356417,0.083639845252,13.580080986,4.68601083755,-0.764932454549,-0.643801889054,-0.00131227466982,0.0198933547633,0.0,0.0,0.0,0.0,0.0,0.0
1609056051340141166,346,1609056051340141166,0.108493998647,13.7897863388,4.67231225967,-0.764906624093,-0.643807894919,-0.00191430582134,0.0206297429003,0.0,0.0,0.0,0.0,0.0,0.0
1609056051543158569,347,1609056051543158569,0.143470257521,13.9962949753,4.6646065712,-0.764236168561,-0.644636587074,-0.00411968069034,0.019229599601,0.0,0.0,0.0,0.0,0.0,0.0
1609056051749401412,348,1609056051749401412,0.176936671138,14.1759653091,4.66790723801,-0.763483254483,-0.645579699077,-0.0066542034918,0.0166100523889,0.0,0.0,0.0,0.0,0.0,0.0
1609056051939578220,349,1609056051939578220,0.213578253984,14.3510942459,4.63979148865,-0.763067607677,-0.646170678619,-0.00509841358075,0.0128563753174,0.0,0.0,0.0,0.0,0.0,0.0
1609056052142972946,350,1609056052142972946,0.255627989769,14.4953012466,4.67757749557,-0.762822388469,-0.646106394206,-0.0160001052766,0.0198123105151,0.0,0.0,0.0,0.0,0.0,0.0
1609056052349010678,351,1609056052349010678,0.28344592452,14.6431074142,4.63470125198,-0.763258857959,-0.645579903444,-0.0186741910005,0.0177137970518,0.0,0.0,0.0,0.0,0.0,0.0
1609056052539656012,352,1609056052539656012,0.307884305716,14.7562093735,4.6471862793,-0.763795790386,-0.645052561164,-0.0154000256455,0.0169122184749,0.0,0.0,0.0,0.0,0.0,0.0
1609056052742908619,353,1609056052742908619,0.325551599264,14.8381109238,4.65271282196,-0.763685820175,-0.645174453854,-0.0150619377188,0.0175222769775,0.0,0.0,0.0,0.0,0.0,0.0
1609056052949326561,354,1609056052949326561,0.33781015873,14.9163122177,4.62584018707,-0.763471647902,-0.645313494078,-0.0179573592584,0.0189491545789,0.0,0.0,0.0,0.0,0.0,0.0
1609056053139793408,355,1609056053139793408,0.339312046766,14.9683389664,4.61862564087,-0.763462518289,-0.645398854663,-0.012088875818,0.0209561601618,0.0,0.0,0.0,0.0,0.0,0.0
1609056053342903512,356,1609056053342903512,0.339076548815,15.0124282837,4.6097741127,-0.763250736839,-0.645498140871,-0.0117475213804,0.0253467667979,0.0,0.0,0.0,0.0,0.0,0.0
1609056053548913917,357,1609056053548913917,0.34336784482,15.0309858322,4.57530021667,-0.763462363566,-0.64520841509,-0.0142982682247,0.0250375725912,0.0,0.0,0.0,0.0,0.0,0.0
