%time,field.header.seq,field.header.stamp,field.pose.pose.position.x,field.pose.pose.position.y,field.pose.pose.position.z,field.pose.pose.orientation.x,field.pose.pose.orientation.y,field.pose.pose.orientation.z,field.pose.pose.orientation.w,field.twist.twist.linear.x,field.twist.twist.linear.y,field.twist.twist.linear.z,field.twist.twist.angular.x,field.twist.twist.angular.y,field.twist.twist.angular.z
1609059612350527106,25,1609059612350527106,-0.00260006403551,0.0104821557179,0.000955140159931,0.925586818013,0.377794688742,0.0236629371396,-0.000529985000211,0.0,0.0,0.0,0.0,0.0,0.0
1609059612539931419,26,1609059612539931419,0.0029435493052,0.00620443979278,-9.3023525551e-05,0.925596809587,0.377767036783,0.0237147653422,-0.000471070933995,0.0,0.0,0.0,0.0,0.0,0.0
1609059612745012447,27,1609059612745012447,-0.00579215493053,0.00650741858408,4.94607375003e-05,0.925669623954,0.377591249295,0.0236715560582,-0.000503168292668,0.0,0.0,0.0,0.0,0.0,0.0
1609059612950987671,28,1609059612950987671,0.00786727294326,0.0120657114312,0.00136170175392,0.925609148364,0.377739276415,0.0236741650501,-0.000526713227864,0.0,0.0,0.0,0.0,0.0,0.0
1609059613140023112,29,1609059613140023112,0.00836807396263,0.0128879696131,-0.000225039446377,0.925576017284,0.377816730555,0.0237346729414,-0.000468659125447,0.0,0.0,0.0,0.0,0.0,0.0
1609059613345152223,30,1609059613345152223,0.00626962073147,0.0195303559303,0.000684326922055,0.925602319993,0.377755087156,0.023689364404,-0.000503354127545,0.0,0.0,0.0,0.0,0.0,0.0
1609059613550514742,31,1609059613550514742,0.00174542772584,0.00838685315102,0.000781870330684,0.925527999851,0.377938486235,0.0236676720361,-0.000513239669384,0.0,0.0,0.0,0.0,0.0,0.0
1609059613739439519,32,1609059613739439519,-0.00187981408089,0.012924073264,4.44047618657e-05,0.925630538956,0.377684690377,0.0237094140944,-0.000493650338447,0.0,0.0,0.0,0.0,0.0,0.0
1609059613944536923,33,1609059613944536923,0.00629775272682,0.0172132700682,0.00054944108706,0.925567848743,0.377838578132,0.0237049731695,-0.000490404046165,0.0,0.0,0.0,0.0,0.0,0.0
1609059614150661522,34,1609059614150661522,0.00590994674712,0.0131459245458,0.0008146300097,0.925625417621,0.377699941315,0.0236656505479,-0.000526848714363,0.0,0.0,0.0,0.0,0.0,0.0
1609059614341736788,35,1609059614341736788,0.000258301763097,0.0144539857283,0.000628660200164,0.925653702849,0.377629814481,0.0236789823851,-0.000501408783601,0.0,0.0,0.0,0.0,0.0,0.0
1609059614545197261,36,1609059614545197261,0.00399676337838,0.0142581444234,0.000502821581904,0.925594869412,0.377773074899,0.023693878763,-0.000491638137819,0.0,0.0,0.0,0.0,0.0,0.0
1609059614750735408,37,1609059614750735408,-0.00719575956464,0.0109444968402,-0.000381627876777,0.925628315437,0.377693096703,0.0236617254325,-0.000518761594405,0.0,0.0,0.0,0.0,0.0,0.0
1609059614939806649,38,1609059614939806649,-0.00194256287068,0.0202495157719,-0.00100705982186,0.925550309634,0.377880851752,0.0237162566048,-0.000474749713842,0.0,0.0,0.0,0.0,0.0,0.0
1609059615144959361,39,1609059615144959361,0.00563930720091,0.0229842718691,0.000615583790932,0.925647780388,0.377642153246,0.0237133450629,-0.000517707101709,0.0,0.0,0.0,0.0,0.0,0.0
1609059615350768917,40,1609059615350768917,-0.0093337027356,0.00960442889482,0.000581878121011,0.92565020724,0.377638987217,0.0236686302924,-0.000533957843651,0.0,0.0,0.0,0.0,0.0,0.0
1609059615539756764,41,1609059615539756764,-0.00304431794211,0.0243882127106,0.00033239973709,0.925682496643,0.377556726784,0.0237189119903,-0.000496672109862,0.0,0.0,0.0,0.0,0.0,0.0
1609059615744613626,42,1609059615744613626,0.000621179875452,0.0193807072937,0.00027018901892,0.9256818443,0.377559808083,0.0236953040543,-0.000497009612414,0.0,0.0,0.0,0.0,0.0,0.0
1609059615950735764,43,1609059615950735764,0.0017659998266,0.0160919558257,0.00192185305059,0.925651150587,0.377637242786,0.023659147197,-0.000552297114776,0.0,0.0,0.0,0.0,0.0,0.0
1609059616139887961,44,1609059616139887961,0.0223663840443,0.0205787532032,0.000982892815955,0.925732024848,0.377433152953,0.0237529491745,-0.000480237851627,0.0,0.0,0.0,0.0,0.0,0.0
1609059616344603881,45,1609059616344603881,0.0257565360516,0.0250497572124,0.000908780435566,0.925695721684,0.377522252309,0.0237515504205,-0.000493680482611,0.0,0.0,0.0,0.0,0.0,0.0
1609059616550727710,46,1609059616550727710,0.0162483807653,0.0167250540107,0.00146533246152,0.925680368445,0.377564170008,0.0236825353951,-0.000538997878698,0.0,0.0,0.0,0.0,0.0,0.0
1609059616740008188,47,1609059616740008188,0.00479049421847,0.0151288239285,-9.78920070338e-05,0.925616247295,0.377718414941,0.0237301762542,-0.000490401550029,0.0,0.0,0.0,0.0,0.0,0.0
1609059616944585751,48,1609059616944585751,0.0110721969977,0.0222967453301,0.00159367581364,0.925761403521,0.377363983392,0.0237059068885,-0.000527036457258,0.0,0.0,0.0,0.0,0.0,0.0
1609059617152528983,49,1609059617152528983,0.0146124372259,0.0250503625721,0.000992090208456,0.925620981734,0.37770825533,0.0237060824837,-0.000541924895448,0.0,0.0,0.0,0.0,0.0,0.0
1609059617340040517,50,1609059617340040517,0.0140278311446,0.0207120999694,0.000623205676675,0.925623198892,0.377700609613,0.0237424253122,-0.000490317834592,0.0,0.0,0.0,0.0,0.0,0.0
1609059617544720906,51,1609059617544720906,0.0221591759473,0.0242141671479,0.000371535803424,0.925595317882,0.377768054521,0.0237564822727,-0.000483785393465,0.0,0.0,0.0,0.0,0.0,0.0
1609059617751121278,52,1609059617751121278,0.0178780183196,0.0207552816719,0.00225180387497,0.92576338931,0.37735909429,0.0237055331834,-0.00055557801931,0.0,0.0,0.0,0.0,0.0,0.0
1609059617940230044,53,1609059617940230044,0.0170663483441,0.0209845397621,0.000301746214973,0.925599486043,0.377758540203,0.0237452942855,-0.000487585010814,0.0,0.0,0.0,0.0,0.0,0.0
1609059618145310321,54,1609059618145310321,0.0140536641702,0.0182116460055,0.000679189513903,0.925676889338,0.377571115721,0.0237085963067,-0.000501577047179,0.0,0.0,0.0,0.0,0.0,0.0
1609059618351482191,55,1609059618351482191,0.010984136723,0.0117556583136,0.000407284416724,0.925673281348,0.377581501663,0.0236835268541,-0.000525696355704,0.0,0.0,0.0,0.0,0.0,0.0
1609059618540445464,56,1609059618540445464,0.0220703389496,0.0195447634906,0.000114860762551,0.925724413638,0.377451571857,0.0237567845816,-0.00048588435025,0.0,0.0,0.0,0.0,0.0,0.0
1609059618745106944,57,1609059618745106944,0.0147522035986,0.0220522396266,0.0017458347138,0.925683352466,0.377555051238,0.0237114746312,-0.00052936020993,0.0,0.0,0.0,0.0,0.0,0.0
1609059618951279808,58,1609059618951279808,0.0172777343541,0.0207061879337,0.000732156739105,0.925670014933,0.377587144704,0.0237208810347,-0.000539825543579,0.0,0.0,0.0,0.0,0.0,0.0
1609059619140285193,59,1609059619140285193,0.0211604181677,0.0229923035949,-7.35087232897e-05,0.925725369651,0.377448135828,0.0237740301031,-0.000490140423119,0.0,0.0,0.0,0.0,0.0,0.0
1609059619347090529,60,1609059619347090529,0.0210814289749,0.0254378225654,0.00191296229605,0.925707585643,0.377494916127,0.0237229985316,-0.00052299378938,0.0,0.0,0.0,0.0,0.0,0.0
1609059619554473569,61,1609059619554473569,0.0232279114425,0.0180852320045,0.0013260388514,0.925628675681,0.377689934219,0.0236973660379,-0.000550626432622,0.0,0.0,0.0,0.0,0.0,0.0
1609059619743403939,62,1609059619743403939,0.0223743654788,0.0191231667995,0.00116048427299,0.92564775467,0.377642546619,0.023708773506,-0.000485093715078,0.0,0.0,0.0,0.0,0.0,0.0
1609059619948391819,63,1609059619948391819,0.0182821433991,0.0238897334784,0.00261010904796,0.925635293693,0.377673335101,0.0237035585912,-0.000544365330642,0.0,0.0,0.0,0.0,0.0,0.0
1609059620154183215,64,1609059620154183215,0.0231786277145,0.022684186697,0.00110506371129,0.925746407161,0.377399917467,0.0237189225798,-0.000551939185828,0.0,0.0,0.0,0.0,0.0,0.0
1609059620341902416,65,1609059620341902416,0.0219421554357,0.0198555923998,1.00075812952e-05,0.92571118118,0.377484225962,0.0237536629323,-0.000481336181102,0.0,0.0,0.0,0.0,0.0,0.0
1609059620548113594,66,1609059620548113594,0.0169655047357,0.0117847304791,0.000362007762305,0.925645452138,0.377648382682,0.0237056063062,-0.000490126084213,0.0,0.0,0.0,0.0,0.0,0.0
1609059620755493445,67,1609059620755493445,0.0171328000724,0.009725487791,0.00140684808139,0.925687750485,0.377546345963,0.0236778448646,-0.000552189961798,0.0,0.0,0.0,0.0,0.0,0.0
1609059620942099093,68,1609059620942099093,0.0277074743062,0.0149643570185,0.0002445114078,0.925660625006,0.37760737109,0.0237668565993,-0.000465982416222,0.0,0.0,0.0,0.0,0.0,0.0
1609059621148100478,69,1609059621148100478,0.0192600060254,0.0147242601961,0.000272291130386,0.925694773253,0.377526758536,0.0237168222013,-0.000495686884548,0.0,0.0,0.0,0.0,0.0,0.0
1609059621354220458,70,1609059621354220458,0.019810475409,0.0182616133243,0.00239455420524,0.925656559042,0.377622478429,0.0236828538631,-0.000566498086258,0.0,0.0,0.0,0.0,0.0,0.0
1609059621543064741,71,1609059621543064741,0.0190107300878,0.00975716859102,-0.000596445228439,0.925684339043,0.377550593687,0.023745530606,-0.000451034840514,0.0,0.0,0.0,0.0,0.0,0.0
1609059621749258353,72,1609059621749258353,0.0109279192984,0.0116825522855,0.000382084952435,0.925719362362,0.377467221078,0.0237045183146,-0.000504946903289,0.0,0.0,0.0,0.0,0.0,0.0
1609059621939890043,73,1609059621939890043,0.0233700517565,0.0191659070551,-0.000418237992562,0.925732168839,0.377432595121,0.0237564500675,-0.000467757841693,0.0,0.0,0.0,0.0,0.0,0.0
1609059622143744174,74,1609059622143744174,0.0203924924135,0.0162804424763,0.000384453858715,0.925697236388,0.377519297617,0.0237398105218,-0.000477353893623,0.0,0.0,0.0,0.0,0.0,0.0
1609059622349622792,75,1609059622349622792,0.021345263347,0.0177690107375,-4.46335579909e-05,0.925800073645,0.377266028458,0.0237554449285,-0.000496232518673,0.0,0.0,0.0,0.0,0.0,0.0
1609059622540438792,76,1609059622540438792,0.0170142091811,0.0113614080474,1.8929829821e-05,0.92565200246,0.377630969103,0.0237275248969,-0.000475475714894,0.0,0.0,0.0,0.0,0.0,0.0
1609059622743291491,77,1609059622743291491,0.0125865684822,0.0109484046698,-0.00088110746583,0.92569781284,0.377518320296,0.023733385844,-0.00045115570939,0.0,0.0,0.0,0.0,0.0,0.0
1609059622949543238,78,1609059622949543238,0.0112355081365,0.0101492591202,-0.000881020794623,0.925633453466,0.377677371317,0.0237123235123,-0.000488602941522,0.0,0.0,0.0,0.0,0.0,0.0
1609059623141092444,79,1609059623141092444,0.013774770312,0.0108129847795,0.000843080400955,0.925717730859,0.377470859383,0.0237106506833,-0.0004879890892,0.0,0.0,0.0,0.0,0.0,0.0
1609059623343284105,80,1609059623343284105,0.0076066814363,0.0148756559938,0.000220571455429,0.925691666151,0.377534158512,0.0237204974113,-0.000486185702583,0.0,0.0,0.0,0.0,0.0,0.0
1609059623549568749,81,1609059623549568749,0.0100288921967,0.0242075286806,0.000970799475908,0.925726646413,0.377450065065,0.0236926443974,-0.000532076268442,0.0,0.0,0.0,0.0,0.0,0.0
1609059623741259743,82,1609059623741259743,0.0121164927259,0.0208144821227,0.00042918897816,0.925714456419,0.377476765501,0.023744175524,-0.000500812585974,0.0,0.0,0.0,0.0,0.0,0.0
1609059623944103265,83,1609059623944103265,0.0144311543554,0.0237286183983,-0.000281500688288,0.925657184603,0.377617827742,0.0237342462726,-0.000488178311385,0.0,0.0,0.0,0.0,0.0,0.0
1609059624150387054,84,1609059624150387054,0.000935393443797,0.0203004647046,0.000230568577535,0.92568747826,0.377547059066,0.0236774952884,-0.000535723887972,0.0,0.0,0.0,0.0,0.0,0.0
1609059624342013157,85,1609059624342013157,0.0158104039729,0.0230285320431,0.000780787668191,0.925572700094,0.377825084227,0.023730546401,-0.000493696991304,0.0,0.0,0.0,0.0,0.0,0.0
1609059624541338657,86,1609059624541338657,0.00714436732233,0.0217384491116,0.000534560822416,0.925647037196,0.377643955753,0.0237139538998,-0.000503590525213,0.0,0.0,0.0,0.0,0.0,0.0
1609059624749919549,87,1609059624749919549,0.00522727100179,0.019367525354,0.000987296225503,0.925664377983,0.377603665993,0.0236779497543,-0.000534282761992,0.0,0.0,0.0,0.0,0.0,0.0
1609059624955962208,88,1609059624955962208,0.0145935229957,0.0260039754212,0.00207070051692,0.925741873355,0.377414177311,0.023668047588,-0.000588392244789,0.0,0.0,0.0,0.0,0.0,0.0
1609059625162179133,89,1609059625162179133,0.00224833004177,0.0169860031456,0.00145575089846,0.925631633207,0.377686620076,0.0236324120905,-0.000636962753188,0.0,0.0,0.0,0.0,0.0,0.0
1609059625368346954,90,1609059625368346954,0.00715125305578,0.021162269637,0.00145082990639,0.925743753915,0.377410902835,0.0236443798538,-0.000675137424076,0.0,0.0,0.0,0.0,0.0,0.0
1609059625542162966,91,1609059625542162966,0.0152193196118,0.0237420964986,0.00146058143582,0.925749920029,0.37739079735,0.0237278216229,-0.000511978919665,0.0,0.0,0.0,0.0,0.0,0.0
1609059625749497057,92,1609059625749497057,0.00194288475905,0.015657607466,0.00181662361138,0.92556606001,0.377845549991,0.0236625887489,-0.000539262236198,0.0,0.0,0.0,0.0,0.0,0.0
1609059625954215990,93,1609059625954215990,0.0094323977828,0.0191418025643,0.002978437813,0.925589898352,0.377787465949,0.0236565531257,-0.000581493544787,0.0,0.0,0.0,0.0,0.0,0.0
1609059626158308481,94,1609059626158308481,0.00865803472698,0.0184815283865,0.00127432355657,0.925595301285,0.37777401287,0.0236597403043,-0.0005917153462,0.0,0.0,0.0,0.0,0.0,0.0
1609059626366475762,95,1609059626366475762,0.0221424102783,0.0182970725,0.00208948086947,0.92554043502,0.377908258601,0.0236603644588,-0.000662101289881,0.0,0.0,0.0,0.0,0.0,0.0
1609059626571579672,96,1609059626571579672,0.0172944366932,0.0166191998869,0.0015492583625,0.925617473164,0.377719226469,0.0236644502779,-0.000687838671747,0.0,0.0,0.0,0.0,0.0,0.0
1609059626743574482,97,1609059626743574482,0.0230125356466,0.0228812601417,0.000282414170215,0.925587731518,0.377786907114,0.0237522963954,-0.000482174980818,0.0,0.0,0.0,0.0,0.0,0.0
1609059626949452840,98,1609059626949452840,0.0189412068576,0.0159160699695,0.000966239895206,0.925523928183,0.377946489379,0.0236989421726,-0.000519293808501,0.0,0.0,0.0,0.0,0.0,0.0
1609059627154437965,99,1609059627154437965,0.0187351536006,0.0172137841582,0.00201320275664,0.925656530696,0.377623275846,0.0236715687415,-0.000552768734283,0.0,0.0,0.0,0.0,0.0,0.0
1609059627361147859,100,1609059627361147859,0.014611822553,0.0121457008645,0.00232469523326,0.925628973265,0.377692039179,0.0236506152106,-0.000613019103304,0.0,0.0,0.0,0.0,0.0,0.0
1609059627567514493,101,1609059627567514493,0.0159135106951,0.012644671835,0.000605371606071,0.925640959848,0.377662317751,0.0236556268223,-0.000631286633666,0.0,0.0,0.0,0.0,0.0,0.0
1609059627740649868,102,1609059627740649868,0.0113017251715,0.0159799661487,0.000641222170088,0.925638156252,0.377665055132,0.0237246825949,-0.000499257698753,0.0,0.0,0.0,0.0,0.0,0.0
1609059627946083156,103,1609059627946083156,0.0205534417182,0.02589206025,0.000602766987868,0.925671273142,0.377583278185,0.0237340808879,-0.000505489388717,0.0,0.0,0.0,0.0,0.0,0.0
1609059628151597686,104,1609059628151597686,0.0154572818428,0.018736673519,0.00100115290843,0.925676673624,0.377572064412,0.0237013757397,-0.000526186479528,0.0,0.0,0.0,0.0,0.0,0.0
1609059628358010436,105,1609059628358010436,0.00157974136528,0.00869530625641,0.00203041615896,0.925576098453,0.377823176251,0.0236257037664,-0.000599651407301,0.0,0.0,0.0,0.0,0.0,0.0
1609059628564255112,106,1609059628564255112,0.00364440795965,0.0128988530487,0.000614985416178,0.925678469034,0.377572542441,0.0236211434417,-0.00062349296125,0.0,0.0,0.0,0.0,0.0,0.0
1609059628770237208,107,1609059628770237208,0.000437317910837,0.00812212284654,0.00171746476553,0.92559135499,0.377786644538,0.023609738821,-0.000689209485469,0.0,0.0,0.0,0.0,0.0,0.0
1609059628942599350,108,1609059628942599350,0.00587906548753,0.0132323205471,0.000154385197675,0.925587519278,0.377789868726,0.0237135149044,-0.000477969630795,0.0,0.0,0.0,0.0,0.0,0.0
1609059629148391017,109,1609059629148391017,0.0143362982199,0.021914254874,0.000940181722399,0.925697940277,0.377519526287,0.0237078488555,-0.000518210325389,0.0,0.0,0.0,0.0,0.0,0.0
1609059629354388122,110,1609059629354388122,0.0169674754143,0.0201264489442,0.00114827870857,0.925657589126,0.377620165976,0.0236798139109,-0.000551684303097,0.0,0.0,0.0,0.0,0.0,0.0
1609059629561185918,111,1609059629561185918,0.00849153473973,0.0130821065977,0.00231128721498,0.925540213568,0.377910863956,0.0236282178261,-0.000631898058109,0.0,0.0,0.0,0.0,0.0,0.0
1609059629766873149,112,1609059629766873149,0.00423899199814,0.0168598890305,0.00269741564989,0.92561379372,0.377731401112,0.023613744206,-0.000696113198396,0.0,0.0,0.0,0.0,0.0,0.0
1609059629940274992,113,1609059629940274992,0.0133360214531,0.0229043420404,0.00204835389741,0.925477538646,0.378059814672,0.0237033338195,-0.000503941999996,0.0,0.0,0.0,0.0,0.0,0.0
1609059630145982381,114,1609059630145982381,0.0120641784742,0.0220648217946,0.00148344098125,0.925556249858,0.377867067004,0.0237030529302,-0.000522784644094,0.0,0.0,0.0,0.0,0.0,0.0
1609059630351599957,115,1609059630351599957,0.00162838469259,0.0150380562991,0.00151886430103,0.92555669132,0.377869469473,0.0236471162491,-0.00053766706557,0.0,0.0,0.0,0.0,0.0,0.0
1609059630557589590,116,1609059630557589590,0.00255703367293,0.0178174283355,0.00158451718744,0.925596366899,0.37777269547,0.0236388950517,-0.000598983618196,0.0,0.0,0.0,0.0,0.0,0.0
1609059630764342547,117,1609059630764342547,-0.00543980486691,0.00935396365821,0.00220120348968,0.925606418989,0.377750120048,0.0236043893822,-0.000660856517933,0.0,0.0,0.0,0.0,0.0,0.0
1609059630969963841,118,1609059630969963841,0.00229888875037,0.0140840150416,0.00213503022678,0.925584468547,0.377804856516,0.0235881332287,-0.000694225335162,0.0,0.0,0.0,0.0,0.0,0.0
1609059631142629914,119,1609059631142629914,-0.00328564876691,0.012019854039,0.000164400989888,0.925648491389,0.377640959282,0.023705244857,-0.00048747035148,0.0,0.0,0.0,0.0,0.0,0.0
1609059631348634303,120,1609059631348634303,0.00654787896201,0.0160235464573,0.00136938854121,0.925613873763,0.377728712061,0.0236581228122,-0.000519622360592,0.0,0.0,0.0,0.0,0.0,0.0
1609059631554595774,121,1609059631554595774,0.00494081387296,0.0153667349368,0.00162066763733,0.925635101406,0.377676974275,0.0236527113696,-0.000558025545557,0.0,0.0,0.0,0.0,0.0,0.0
1609059631761119658,122,1609059631761119658,0.00487541267648,0.0223541744053,0.00283577013761,0.925605825289,0.377750807184,0.0236176065777,-0.000626516083853,0.0,0.0,0.0,0.0,0.0,0.0
1609059631967845462,123,1609059631967845462,0.0124553572387,0.0229816250503,0.00170393136796,0.925739409375,0.377421885275,0.0236388030081,-0.000688067965065,0.0,0.0,0.0,0.0,0.0,0.0
1609059632140625936,124,1609059632140625936,0.0212783124298,0.0277319010347,0.00146373989992,0.925567998815,0.37783553251,0.0237475245933,-0.000494993442355,0.0,0.0,0.0,0.0,0.0,0.0
1609059632344876543,125,1609059632344876543,0.00666586915031,0.0203150492162,0.000383797014365,0.925583672344,0.377799986774,0.023702250451,-0.000488679613321,0.0,0.0,0.0,0.0,0.0,0.0
1609059632550857346,126,1609059632550857346,0.00789523124695,0.0220898911357,0.000133001216454,0.92549459873,0.378018365647,0.0236979922626,-0.000517801878233,0.0,0.0,0.0,0.0,0.0,0.0
1609059632757835281,127,1609059632757835281,0.00503439316526,0.0178432594985,0.000852519297041,0.925585237127,0.37780026049,0.0236344238401,-0.000588214294084,0.0,0.0,0.0,0.0,0.0,0.0
1609059632964036623,128,1609059632964036623,0.00321512320079,0.017776157707,0.00167803722434,0.925534697454,0.377924535605,0.0236246702348,-0.000666447821145,0.0,0.0,0.0,0.0,0.0,0.0
1609059633171382890,129,1609059633171382890,-0.00380707508884,0.0159212686121,0.000411484157667,0.925545855402,0.377898911718,0.0235962395286,-0.000706788902958,0.0,0.0,0.0,0.0,0.0,0.0
1609059633342577028,130,1609059633342577028,-0.00477085402235,0.00900083035231,0.000863527646288,0.925481695527,0.37805039179,0.0236917152451,-0.000484913507252,0.0,0.0,0.0,0.0,0.0,0.0
1609059633548509634,131,1609059633548509634,-0.00599320232868,0.00802188552916,0.000864453846589,0.925575943532,0.377821537522,0.0236599618802,-0.000514532528914,0.0,0.0,0.0,0.0,0.0,0.0
1609059633756008343,132,1609059633756008343,-0.00128991901875,0.0130113679916,0.00122696883045,0.925546637173,0.377895383667,0.0236257656945,-0.00056975165632,0.0,0.0,0.0,0.0,0.0,0.0
1609059633961118622,133,1609059633961118622,7.1631904575e-05,0.0156203396618,0.000495825719554,0.925476536954,0.378065771709,0.0236449739564,-0.000605818176824,0.0,0.0,0.0,0.0,0.0,0.0
1609059634167503504,134,1609059634167503504,-0.00233235349879,0.0159951616079,0.00068031612318,0.925420849242,0.37820449827,0.0236043867413,-0.000664983934157,0.0,0.0,0.0,0.0,0.0,0.0
1609059634340927881,135,1609059634340927881,-0.00262801069766,0.0151695162058,-0.000249500881182,0.925515715944,0.377966161766,0.0237065767777,-0.000488178292948,0.0,0.0,0.0,0.0,0.0,0.0
1609059634546288693,136,1609059634546288693,0.00235676113516,0.0139045119286,0.000586723326705,0.925592526724,0.37777944751,0.0236836700292,-0.000497278422157,0.0,0.0,0.0,0.0,0.0,0.0
1609059634751736089,137,1609059634751736089,-0.00355395977385,0.0155364675447,0.000992855522782,0.92554076674,0.377908345737,0.0236493863282,-0.000527115091852,0.0,0.0,0.0,0.0,0.0,0.0
1609059634956871737,138,1609059634956871737,-0.00128347729333,0.0075600030832,0.000528067990672,0.9256079431,0.377744433622,0.0236380174319,-0.000568040435054,0.0,0.0,0.0,0.0,0.0,0.0
1609059635163705967,139,1609059635163705967,-0.00320624304004,0.0149129386991,0.000621866318397,0.925631861755,0.377686800017,0.0236207032208,-0.000632436882041,0.0,0.0,0.0,0.0,0.0,0.0
1609059635370737186,140,1609059635370737186,0.00385089404881,0.0241109523922,0.00134630012326,0.925588337845,0.377792535056,0.0236329921796,-0.000714830365554,0.0,0.0,0.0,0.0,0.0,0.0
1609059635542498266,141,1609059635542498266,-0.00212717032991,0.0147267272696,0.000404577236623,0.925520323969,0.377955873811,0.0236909360285,-0.00047636344891,0.0,0.0,0.0,0.0,0.0,0.0
1609059635748491655,142,1609059635748491655,-0.00135960499756,0.0189125649631,0.00156541483011,0.925577867661,0.377816815055,0.0236597339583,-0.000531175830127,0.0,0.0,0.0,0.0,0.0,0.0
1609059635954748477,143,1609059635954748477,0.00866946671158,0.0194589328021,0.00113516533747,0.925602466896,0.377756225045,0.0236643952339,-0.000551465664386,0.0,0.0,0.0,0.0,0.0,0.0
1609059636160921884,144,1609059636160921884,0.0120500195771,0.0230472534895,8.90208903002e-05,0.92558397006,0.377800471109,0.0236806463413,-0.000587695520238,0.0,0.0,0.0,0.0,0.0,0.0
1609059636367682986,145,1609059636367682986,0.00726117752492,0.0176923386753,0.00141252030153,0.925708095561,0.377499527249,0.0236256093228,-0.000677734081938,0.0,0.0,0.0,0.0,0.0,0.0
1609059636540706135,146,1609059636540706135,0.00720822345465,0.0212424658239,0.000549309595954,0.925504273104,0.377993509407,0.0237171942628,-0.000491943580376,0.0,0.0,0.0,0.0,0.0,0.0
1609059636745905735,147,1609059636745905735,0.0132731962949,0.023523312062,-8.40556367621e-06,0.925684164338,0.377552041165,0.0237284676071,-0.000493894552272,0.0,0.0,0.0,0.0,0.0,0.0
1609059636951866470,148,1609059636951866470,0.00971826631576,0.0227225832641,0.00161073391791,0.92561634138,0.377721644303,0.0236740079812,-0.000537904164879,0.0,0.0,0.0,0.0,0.0,0.0
1609059637157818075,149,1609059637157818075,0.00984410848469,0.0191362071782,0.000612672884017,0.925562439063,0.377854647984,0.0236582804428,-0.000567590794536,0.0,0.0,0.0,0.0,0.0,0.0
1609059637363964439,150,1609059637363964439,0.00651318673044,0.0172135010362,0.00195022509433,0.925666446349,0.377601722886,0.0236249178839,-0.000657443180942,0.0,0.0,0.0,0.0,0.0,0.0
1609059637570128567,151,1609059637570128567,0.00674272980541,0.00972359906882,0.00162277417257,0.925654451032,0.377631803068,0.0236127880763,-0.000703445182136,0.0,0.0,0.0,0.0,0.0,0.0
1609059637742368695,152,1609059637742368695,0.00766633497551,0.0156302675605,0.00152169726789,0.925532366171,0.377925240483,0.023708761726,-0.000496380654414,0.0,0.0,0.0,0.0,0.0,0.0
1609059637948607284,153,1609059637948607284,0.0048688701354,0.00934332143515,0.000591858290136,0.925542102637,0.377903507335,0.0236748043522,-0.000508949738791,0.0,0.0,0.0,0.0,0.0,0.0
1609059638155035349,154,1609059638155035349,0.00687439925969,0.0102094067261,0.000883993809111,0.925523648148,0.377948810219,0.0236723413939,-0.000542057238179,0.0,0.0,0.0,0.0,0.0,0.0
1609059638361246254,155,1609059638361246254,0.00520352739841,0.00809538643807,0.000617298472207,0.925486908563,0.378040361092,0.023645912884,-0.000581607927146,0.0,0.0,0.0,0.0,0.0,0.0
1609059638567869365,156,1609059638567869365,0.00264317775145,0.00134877220262,0.000456878828118,0.925667984559,0.377599206452,0.0236053468275,-0.000639726844216,0.0,0.0,0.0,0.0,0.0,0.0
1609059638742183536,157,1609059638742183536,0.0138861024752,0.00572336837649,0.000213895415072,0.925654454747,0.377625896735,0.0237129450311,-0.000456901819738,0.0,0.0,0.0,0.0,0.0,0.0
1609059638945852038,158,1609059638945852038,0.0104830060154,0.00420919666067,-0.00203551561572,0.925572023882,0.377827009772,0.0237275727721,-0.000426126209343,0.0,0.0,0.0,0.0,0.0,0.0
1609059639151747607,159,1609059639151747607,0.00419924920425,0.00374600244686,0.000344897591276,0.925505003243,0.377995327357,0.0236593427489,-0.000506921100163,0.0,0.0,0.0,0.0,0.0,0.0
1609059639357740707,160,1609059639357740707,0.0144163146615,0.00668812170625,0.00153922417667,0.925604085257,0.37775387317,0.0236384515507,-0.000558809980539,0.0,0.0,0.0,0.0,0.0,0.0
1609059639564024580,161,1609059639564024580,0.0125319799408,0.00291978218593,0.00106297631282,0.925630126339,0.377690039922,0.023637232171,-0.000619848405009,0.0,0.0,0.0,0.0,0.0,0.0
1609059639770946284,162,1609059639770946284,0.0160515997559,0.0119439186528,0.00142650026828,0.925642635929,0.377659107633,0.0236395445825,-0.000693471926783,0.0,0.0,0.0,0.0,0.0,0.0
1609059639942510827,163,1609059639942510827,0.0120101859793,0.00421301973984,-0.000599424703978,0.925631749642,0.377680773084,0.0237252529685,-0.000458333100773,0.0,0.0,0.0,0.0,0.0,0.0
1609059640148955703,164,1609059640148955703,0.01608091034,0.00893686525524,0.000564814370591,0.92569085436,0.377537550232,0.0236981297773,-0.000488840154671,0.0,0.0,0.0,0.0,0.0,0.0
1609059640355035396,165,1609059640355035396,0.0130438823253,0.00434109475464,0.000428909203038,0.925653893656,0.377630762865,0.023655732462,-0.000531431970781,0.0,0.0,0.0,0.0,0.0,0.0
1609059640561670778,166,1609059640561670778,0.00777542497963,0.00603296142071,0.000749494007323,0.925689061608,0.377545882273,0.0236328281229,-0.00059785756001,0.0,0.0,0.0,0.0,0.0,0.0
1609059640767337437,167,1609059640767337437,0.0104203522205,0.00141743186396,0.000285176851321,0.925649577566,0.377642406754,0.0236362696838,-0.000631608145894,0.0,0.0,0.0,0.0,0.0,0.0
1609059640940513125,168,1609059640940513125,0.00734697515145,0.00433628587052,-0.000209869394894,0.925703389563,0.377504446493,0.023736334862,-0.000462424908236,0.0,0.0,0.0,0.0,0.0,0.0
1609059641145589556,169,1609059641145589556,0.00867069885135,0.00394423119724,0.000425638718298,0.925628402558,0.377691181993,0.0236897135931,-0.00047842701065,0.0,0.0,0.0,0.0,0.0,0.0
1609059641351305891,170,1609059641351305891,0.011603881605,0.00584605662152,0.000957885175012,0.925550794141,0.377882050416,0.0236774306483,-0.000512559294992,0.0,0.0,0.0,0.0,0.0,0.0
1609059641557387786,171,1609059641557387786,0.0249323043972,0.0123349810019,0.000245997449383,0.925622463115,0.377705108109,0.0236980654314,-0.000555679829737,0.0,0.0,0.0,0.0,0.0,0.0
1609059641763750742,172,1609059641763750742,0.0225548837334,0.0114263975993,0.00096592749469,0.925674981445,0.377579506015,0.0236466931855,-0.000615844739078,0.0,0.0,0.0,0.0,0.0,0.0
1609059641970882007,173,1609059641970882007,0.0260424055159,0.0142915258184,0.0011717651505,0.92561836866,0.377716884545,0.0236673255,-0.000669651418701,0.0,0.0,0.0,0.0,0.0,0.0
1609059642142550529,174,1609059642142550529,0.0324979797006,0.0159064345062,0.00143085070886,0.925657492879,0.377615071453,0.0237664694305,-0.000467567554918,0.0,0.0,0.0,0.0,0.0,0.0
1609059642348171476,175,1609059642348171476,0.038688827306,0.0164230018854,0.00170404999517,0.925710936142,0.377485955493,0.0237355103658,-0.000491590274932,0.0,0.0,0.0,0.0,0.0,0.0
1609059642554716810,176,1609059642554716810,0.0200827494264,0.0120814424008,0.00316511420533,0.925655872274,0.377625641898,0.0236591524714,-0.000570272281605,0.0,0.0,0.0,0.0,0.0,0.0
1609059642761380864,177,1609059642761380864,0.0107183624059,0.00769194588065,0.00048442138359,0.925506074051,0.377993211332,0.0236492915732,-0.000591683922541,0.0,0.0,0.0,0.0,0.0,0.0
1609059642967548807,178,1609059642967548807,0.0113914059475,0.00934041198343,0.000905059860088,0.92559537431,0.37777562274,0.0236294021948,-0.000658232956905,0.0,0.0,0.0,0.0,0.0,0.0
1609059643139916344,179,1609059643139916344,0.00520227942616,0.0065647191368,-0.000786787888501,0.925596196193,0.37776722172,0.0237361773753,-0.000449077770937,0.0,0.0,0.0,0.0,0.0,0.0
1609059643345610807,180,1609059643345610807,0.0066159395501,0.00524694472551,-0.000438814138761,0.925590842174,0.377781874022,0.023711349042,-0.000469541994497,0.0,0.0,0.0,0.0,0.0,0.0
1609059643550931370,181,1609059643550931370,0.0110321342945,0.00777965504676,0.0011252888944,0.925704772307,0.377505467119,0.0236648471801,-0.000521374731233,0.0,0.0,0.0,0.0,0.0,0.0
1609059643757308306,182,1609059643757308306,0.00518372096121,0.00202539097518,0.00176148442551,0.9254902497,0.378033569429,0.0236244642355,-0.00055025846078,0.0,0.0,0.0,0.0,0.0,0.0
1609059643964254896,183,1609059643964254896,0.00874041207135,0.00118226185441,0.0012954196427,0.925676508621,0.377577193775,0.0236238036584,-0.000616465108735,0.0,0.0,0.0,0.0,0.0,0.0
1609059644170776237,184,1609059644170776237,0.00995872728527,0.00429858639836,0.00119737023488,0.925686096965,0.377553710826,0.0236214127534,-0.000688612532259,0.0,0.0,0.0,0.0,0.0,0.0
1609059644341949160,185,1609059644341949160,0.0159225594252,0.0103254057467,-0.000807656557299,0.925704172655,0.377501094584,0.0237594059646,-0.000446033070764,0.0,0.0,0.0,0.0,0.0,0.0
1609059644547915649,186,1609059644547915649,0.0075795352459,0.00340337562375,0.000231774611166,0.925598664914,0.377763446886,0.0236994119544,-0.00047705222348,0.0,0.0,0.0,0.0,0.0,0.0
1609059644754060904,187,1609059644754060904,0.00736423488706,0.00881135929376,0.00125994824339,0.925531922908,0.377929679089,0.0236540383839,-0.000551189835729,0.0,0.0,0.0,0.0,0.0,0.0
1609059644960304576,188,1609059644960304576,0.011197861284,0.0022762324661,0.000727442733478,0.925637616462,0.377671549617,0.0236407395849,-0.000564829038914,0.0,0.0,0.0,0.0,0.0,0.0
1609059645166181185,189,1609059645166181185,0.0118486937135,0.0052362899296,0.0008895774954,0.925647485608,0.377648149986,0.0236262162727,-0.00063961315322,0.0,0.0,0.0,0.0,0.0,0.0
1609059645340284530,190,1609059645340284530,0.0133446482942,0.00654814532027,-0.000271357042948,0.925624785837,0.377695203613,0.023767441261,-0.000444688598673,0.0,0.0,0.0,0.0,0.0,0.0
1609059645545550884,191,1609059645545550884,0.00814374536276,0.0048512252979,0.000526722869836,0.925601608218,0.377756541602,0.0236946508627,-0.000470808657916,0.0,0.0,0.0,0.0,0.0,0.0
1609059645751046149,192,1609059645751046149,0.0127841020003,0.0082724513486,0.00144919822924,0.925591812023,0.377781443749,0.0236796161566,-0.000504036424081,0.0,0.0,0.0,0.0,0.0,0.0
1609059645957182166,193,1609059645957182166,0.0121402153745,0.00719286734238,0.00121888902504,0.925587367085,0.377794457969,0.0236443095297,-0.000565727289913,0.0,0.0,0.0,0.0,0.0,0.0
1609059646163420836,194,1609059646163420836,0.0115084368736,0.0138851869851,0.00191248941701,0.925619336074,0.377716618597,0.0236345318761,-0.000640019503234,0.0,0.0,0.0,0.0,0.0,0.0
1609059646369530105,195,1609059646369530105,0.00963799376041,0.0069601549767,0.000847784685902,0.925606857906,0.37774885931,0.0236072675906,-0.000663931426712,0.0,0.0,0.0,0.0,0.0,0.0
1609059646541944042,196,1609059646541944042,0.0105505557731,0.0088442126289,0.000638656667434,0.925533732598,0.377921749913,0.0237117971991,-0.000459824895389,0.0,0.0,0.0,0.0,0.0,0.0
1609059646748074934,197,1609059646748074934,0.0107618356124,0.00921955425292,0.00182626326568,0.925586629649,0.377793957584,0.0236825595892,-0.000502989626404,0.0,0.0,0.0,0.0,0.0,0.0
1609059646954247985,198,1609059646954247985,8.0684418208e-05,0.00207052612677,0.00156100431923,0.925583555082,0.37780487128,0.0236277411611,-0.000540043724951,0.0,0.0,0.0,0.0,0.0,0.0
1609059647160229735,199,1609059647160229735,0.00496920524165,0.00320689077489,0.00140878011007,0.925644433633,0.377656853864,0.0236083502366,-0.000573597220793,0.0,0.0,0.0,0.0,0.0,0.0
1609059647365572924,200,1609059647365572924,0.0119752194732,0.00757142435759,0.00240329909138,0.925552589765,0.377882418234,0.0235976424568,-0.000657905226304,0.0,0.0,0.0,0.0,0.0,0.0
1609059647540041690,201,1609059647540041690,0.00931588094682,0.00605277204886,0.000711704662535,0.925608015811,0.377739408522,0.0237178210915,-0.000453076458429,0.0,0.0,0.0,0.0,0.0,0.0
1609059647744976205,202,1609059647744976205,0.00962525606155,0.00658275885507,-0.00129234301858,0.925593385827,0.37777496423,0.0237227010462,-0.000440419625651,0.0,0.0,0.0,0.0,0.0,0.0
1609059647950885705,203,1609059647950885705,0.00974187813699,0.00428977236152,0.00084687868366,0.925641437035,0.377659211568,0.0236897244446,-0.000496908562495,0.0,0.0,0.0,0.0,0.0,0.0
1609059648156804535,204,1609059648156804535,0.0138531196862,0.00474019348621,0.00182808982208,0.925620423215,0.377712954477,0.0236527137427,-0.000552520623482,0.0,0.0,0.0,0.0,0.0,0.0
1609059648363202108,205,1609059648363202108,0.0085464483127,0.0018872594228,0.00158317654859,0.925639250628,0.377669548657,0.0236071851194,-0.000624920276787,0.0,0.0,0.0,0.0,0.0,0.0
1609059648570408074,206,1609059648570408074,0.00495922751725,0.00502541474998,0.00155570951756,0.925548711624,0.377892100084,0.0235933241109,-0.000705806315118,0.0,0.0,0.0,0.0,0.0,0.0
1609059648743319658,207,1609059648743319658,0.00396499875933,0.00823789928108,0.00129606726114,0.925620308095,0.377711081881,0.0236885439928,-0.000486569270185,0.0,0.0,0.0,0.0,0.0,0.0
1609059648947506729,208,1609059648947506729,0.0118817966431,0.006599847693,0.00255778920837,0.925647164756,0.377645864592,0.0236783532206,-0.000512760810352,0.0,0.0,0.0,0.0,0.0,0.0
1609059649153702264,209,1609059649153702264,0.0115341311321,0.0111559303477,0.00224369904026,0.925608185862,0.377742512517,0.0236595732391,-0.000552356734659,0.0,0.0,0.0,0.0,0.0,0.0
1609059649359821185,210,1609059649359821185,0.0149833308533,0.00984934810549,0.00272069545463,0.925603289323,0.377755319607,0.0236450178726,-0.000618412078081,0.0,0.0,0.0,0.0,0.0,0.0
1609059649566027972,211,1609059649566027972,0.00452172802761,0.000930740614422,0.000417508068494,0.925685670846,0.377556077977,0.0236016058188,-0.000641074667802,0.0,0.0,0.0,0.0,0.0,0.0
1609059649739475608,212,1609059649739475608,0.0173045378178,0.0194384697825,0.00125336379278,0.925638463242,0.377662578471,0.0237529285473,-0.000458885135922,0.0,0.0,0.0,0.0,0.0,0.0
1609059649944867054,213,1609059649944867054,0.0130167147145,0.017983013764,0.000894789060112,0.925613523867,0.37772592693,0.0237172819277,-0.000468078603928,0.0,0.0,0.0,0.0,0.0,0.0
1609059650151033432,214,1609059650151033432,0.0108775161207,0.00729462783784,0.00197450979613,0.925684262896,0.377556354179,0.0236553689443,-0.000518041037448,0.0,0.0,0.0,0.0,0.0,0.0
1609059650357369610,215,1609059650357369610,0.00808813236654,0.00559832016006,0.00131095061079,0.925624762846,0.37770358175,0.0236323676868,-0.000560301323055,0.0,0.0,0.0,0.0,0.0,0.0
1609059650563354928,216,1609059650563354928,0.00823651067913,0.00880560558289,0.00227665132843,0.925622526231,0.377710861622,0.0236017219778,-0.000634560647057,0.0,0.0,0.0,0.0,0.0,0.0
1609059650769712491,217,1609059650769712491,0.00197368767112,0.00665999250486,0.00113353203051,0.92554441419,0.377902659636,0.0235931954934,-0.000691612414951,0.0,0.0,0.0,0.0,0.0,0.0
1609059650941692994,218,1609059650941692994,0.0093903709203,0.0101620871574,0.00127260165755,0.925660293581,0.377612105282,0.0237045562319,-0.000461351506195,0.0,0.0,0.0,0.0,0.0,0.0
1609059651148409867,219,1609059651148409867,0.0139465266839,0.0107679339126,0.00157110439613,0.925596371423,0.377769357145,0.0236943124231,-0.000499569433388,0.0,0.0,0.0,0.0,0.0,0.0
1609059651354878727,220,1609059651354878727,0.0136653743684,0.0157188195735,0.0023442779202,0.92557435626,0.377825911853,0.0236510086733,-0.000566705425177,0.0,0.0,0.0,0.0,0.0,0.0
1609059651562028520,221,1609059651562028520,0.0188272930682,0.0113831115887,0.00145165761933,0.925601434869,0.377759110483,0.0236574396384,-0.000603129449106,0.0,0.0,0.0,0.0,0.0,0.0
1609059651766377222,222,1609059651766377222,0.0105490330607,0.0144693171605,0.00298038055189,0.925641314474,0.377664733016,0.0236018199943,-0.00067857854821,0.0,0.0,0.0,0.0,0.0,0.0
1609059651939689633,223,1609059651939689633,0.0133444434032,0.00692199729383,0.000756080611609,0.92563716608,0.377667133381,0.0237311411545,-0.000453954392724,0.0,0.0,0.0,0.0,0.0,0.0
1609059652144631852,224,1609059652144631852,0.0178283639252,0.010528838262,-2.56936618825e-05,0.925524936071,0.377941305041,0.0237435476065,-0.00045453403523,0.0,0.0,0.0,0.0,0.0,0.0
1609059652350997024,225,1609059652350997024,0.0148650212213,0.0136301163584,0.00215852889232,0.925644973479,0.377651168241,0.0236791208116,-0.000526722934,0.0,0.0,0.0,0.0,0.0,0.0
1609059652557234382,226,1609059652557234382,0.00665880925953,0.00738293258473,0.00145062827505,0.92564313199,0.377658612239,0.023631506116,-0.000562778905487,0.0,0.0,0.0,0.0,0.0,0.0
1609059652763771364,227,1609059652763771364,0.00814120192081,0.00856030359864,0.000881503103301,0.925626580753,0.377699052068,0.0236319236738,-0.000625502495951,0.0,0.0,0.0,0.0,0.0,0.0
1609059652970367154,228,1609059652970367154,0.00765990838408,0.00455267215148,0.0013598887017,0.925534933471,0.377925877221,0.0235936976531,-0.000675042954797,0.0,0.0,0.0,0.0,0.0,0.0
1609059653143343453,229,1609059653143343453,0.00515784695745,0.0118376566097,0.000607711903285,0.925609655275,0.377735743545,0.0237119725684,-0.000465259906867,0.0,0.0,0.0,0.0,0.0,0.0
1609059653351058319,230,1609059653351058319,0.00768553838134,0.00862194690853,0.000200362221221,0.925493730334,0.378021029489,0.0236899477446,-0.000492698527883,0.0,0.0,0.0,0.0,0.0,0.0
1609059653554515988,231,1609059653554515988,0.0137798609212,0.0114585375413,0.00160330045037,0.925620632493,0.377712381273,0.0236537932208,-0.000547542579657,0.0,0.0,0.0,0.0,0.0,0.0
1609059653760266404,232,1609059653760266404,0.0105541320518,0.0110221644863,0.00129903608467,0.925703120205,0.377509852528,0.0236577066569,-0.000597831473051,0.0,0.0,0.0,0.0,0.0,0.0
1609059653967174596,233,1609059653967174596,0.00466738222167,0.00180313002784,0.00246916525066,0.925502293233,0.378007227457,0.0235719871065,-0.000634535253384,0.0,0.0,0.0,0.0,0.0,0.0
1609059654139784428,234,1609059654139784428,0.00960546825081,0.00652094744146,-0.000754351494834,0.925680395051,0.377558452967,0.0237747648503,-0.000425872463021,0.0,0.0,0.0,0.0,0.0,0.0
1609059654344720709,235,1609059654344720709,0.00875733233988,0.00717066833749,0.00103872944601,0.925540793373,0.377905171365,0.0237006201945,-0.00044928926336,0.0,0.0,0.0,0.0,0.0,0.0
1609059654550745779,236,1609059654550745779,0.00707094324753,0.00560132414103,0.00191987410653,0.925492722672,0.37802274845,0.0237028920152,-0.000441413063493,0.0,0.0,0.0,0.0,0.0,0.0
1609059654757110702,237,1609059654757110702,0.00882966723293,0.00346395256929,0.00165122223552,0.925588515349,0.377791947409,0.0236392387755,-0.000575427648929,0.0,0.0,0.0,0.0,0.0,0.0
1609059654963532595,238,1609059654963532595,0.00414640083909,0.0023113579955,0.00145935022738,0.925504258166,0.377999106111,0.0236261366434,-0.000591238875747,0.0,0.0,0.0,0.0,0.0,0.0
1609059655170319470,239,1609059655170319470,0.0123967407271,0.0108968308195,0.00198225071654,0.925522718523,0.377950150842,0.0236837028023,-0.000680586094174,0.0,0.0,0.0,0.0,0.0,0.0
1609059655342427580,240,1609059655342427580,0.0243682842702,0.0129718016833,-0.000275282160146,0.925600793415,0.377749256436,0.0238446499404,-0.000321185431128,0.0,0.0,0.0,0.0,0.0,0.0
1609059655548117242,241,1609059655548117242,0.00450790952891,0.00198336085305,-0.00500947516412,0.92571848819,0.377454745658,0.0239405754293,-0.000210837066406,0.0,0.0,0.0,0.0,0.0,0.0
1609059655754453793,242,1609059655754453793,0.0147756580263,0.0138139268383,-0.00201327959076,0.925495617391,0.378024191393,0.0235649510476,-0.000515745676427,0.0,0.0,0.0,0.0,0.0,0.0
1609059655961506263,243,1609059655961506263,0.0079519758001,0.00167210632935,-0.00170708936639,0.925630712421,0.377680743185,0.0237635302997,-0.000578859988221,0.0,0.0,0.0,0.0,0.0,0.0
1609059656166845562,244,1609059656166845562,0.0130629679188,0.00193892908283,0.00265913223848,0.925458845836,0.378074566893,0.02419143174,-0.000566712491412,0.0,0.0,0.0,0.0,0.0,0.0
1609059656340432597,245,1609059656340432597,0.0299267116934,0.0157030951232,-0.00131259334739,0.925610130538,0.377728502277,0.023805245042,-0.000612472140191,0.0,0.0,0.0,0.0,0.0,0.0
1609059656545598837,246,1609059656545598837,0.0330153293908,0.00866764318198,-0.0100794201717,0.925939408696,0.376916517996,0.0238753162671,-0.000345193975869,0.0,0.0,0.0,0.0,0.0,0.0
1609059656751286717,247,1609059656751286717,0.0237392112613,0.0157259106636,0.00246694614179,0.925883017709,0.377038522835,0.0241286026051,-0.000632734544056,0.0,0.0,0.0,0.0,0.0,0.0
1609059656957521603,248,1609059656957521603,0.00451483670622,0.0140625089407,0.0246657375246,0.924984388942,0.379171866609,0.0251361436541,0.000866064687571,0.0,0.0,0.0,0.0,0.0,0.0
1609059657164030469,249,1609059657164030469,0.00331834563985,0.0322798788548,0.159281849861,0.924800374802,0.379808949283,0.0220208003848,-0.00212441995275,0.0,0.0,0.0,0.0,0.0,0.0
1609059657370581882,250,1609059657370581882,-0.00630694255233,0.0522452406585,0.27747553587,0.924549502152,0.380492834864,0.0203464855195,-0.00440921923967,0.0,0.0,0.0,0.0,0.0,0.0
1609059657542479343,251,1609059657542479343,0.0190383307636,0.0562333837152,0.46222025156,-0.925204577461,-0.379004415902,-0.0168824534174,0.00819300552475,0.0,0.0,0.0,0.0,0.0,0.0
1609059657748474252,252,1609059657748474252,-0.0391359366477,0.0263673905283,0.756483495235,-0.925057071167,-0.379247116016,-0.0149173855233,0.0147821407796,0.0,0.0,0.0,0.0,0.0,0.0
1609059657954676760,253,1609059657954676760,-0.0338261798024,0.0690863505006,1.03199231625,-0.925275134488,-0.378606733294,-0.0129487317634,0.0188466800472,0.0,0.0,0.0,0.0,0.0,0.0
1609059658160746877,254,1609059658160746877,-0.0404306277633,0.086686141789,1.23799312115,-0.925569118952,-0.377877382536,-0.0107914185019,0.0203478523985,0.0,0.0,0.0,0.0,0.0,0.0
1609059658367272817,255,1609059658367272817,-0.0222848206758,0.0377364605665,1.6118543148,-0.925599145429,-0.378253070993,-0.00815407220778,0.0111511152354,0.0,0.0,0.0,0.0,0.0,0.0
1609059658540530646,256,1609059658540530646,-0.0395823344588,0.0658280849457,1.64513146877,-0.925654241609,-0.378158237945,-0.00798096161632,0.00984257677082,0.0,0.0,0.0,0.0,0.0,0.0
1609059658745952073,257,1609059658745952073,-0.00996281858534,0.0813887417316,1.67015516758,-0.92541955117,-0.378688200566,-0.00921431279817,0.0104401869214,0.0,0.0,0.0,0.0,0.0,0.0
1609059658951852342,258,1609059658951852342,-0.028517017141,0.0548505820334,1.77789866924,-0.925072762563,-0.379481562383,-0.00507324781576,0.0144357172613,0.0,0.0,0.0,0.0,0.0,0.0
1609059659158007064,259,1609059659158007064,0.00270656845532,0.0805419012904,1.84337091446,-0.925063712773,-0.379426733236,-0.00413542943388,0.0165945665648,0.0,0.0,0.0,0.0,0.0,0.0
1609059659364105796,260,1609059659364105796,-0.00639892276376,0.0648368000984,1.94059765339,-0.924981459469,-0.37952828225,-0.00178707623232,0.0190889750991,0.0,0.0,0.0,0.0,0.0,0.0
1609059659569497246,261,1609059659569497246,-0.00875032879412,0.037155546248,2.00043678284,-0.925014162745,-0.379411578963,-0.00163071549722,0.0198240570157,0.0,0.0,0.0,0.0,0.0,0.0
1609059659743117243,262,1609059659743117243,0.0200125798583,0.0295069534332,2.1266014576,-0.924912613052,-0.379536777203,-0.000921471465098,0.0220826596806,0.0,0.0,0.0,0.0,0.0,0.0
1609059659948829721,263,1609059659948829721,0.0618010908365,0.0360968746245,2.18779659271,-0.925210529943,-0.378826156662,0.0019914170704,0.0217313729394,0.0,0.0,0.0,0.0,0.0,0.0
1609059660155388063,264,1609059660155388063,0.0684116780758,-0.0324674583972,2.35543823242,-0.925102866335,-0.379562641401,0.00388081413453,0.0100909480845,0.0,0.0,0.0,0.0,0.0,0.0
1609059660361230825,265,1609059660361230825,0.0785718932748,-0.0611094720662,2.20086812973,-0.925202996754,-0.379466182575,-0.00019739110296,0.00218909038066,0.0,0.0,0.0,0.0,0.0,0.0
1609059660567140117,266,1609059660567140117,0.109518416226,-0.081069521606,2.2266099453,-0.925111945674,-0.379678589396,-0.000215127276859,0.00346560903302,0.0,0.0,0.0,0.0,0.0,0.0
1609059660740016948,267,1609059660740016948,0.158691987395,-0.0814499557018,2.28097677231,-0.924983934452,-0.379946686995,0.0021851163247,0.00636092076006,0.0,0.0,0.0,0.0,0.0,0.0
1609059660945974501,268,1609059660945974501,0.231502816081,-0.0593851469457,2.20744347572,0.924981977954,0.379921276252,0.00784580018244,-0.00257055068776,0.0,0.0,0.0,0.0,0.0,0.0
1609059661152023919,269,1609059661152023919,0.234196946025,-0.101263403893,2.30929970741,-0.924863450158,-0.380216589889,0.000894062425789,0.00788314581835,0.0,0.0,0.0,0.0,0.0,0.0
1609059661357699881,270,1609059661357699881,0.281097650528,-0.100469559431,2.31115412712,-0.924707985121,-0.380533674288,0.00309530459249,0.00998419125952,0.0,0.0,0.0,0.0,0.0,0.0
1609059661563701426,271,1609059661563701426,0.313200950623,-0.0957898870111,2.29656887054,-0.924531951443,-0.380981162875,0.00274778523452,0.00929913818263,0.0,0.0,0.0,0.0,0.0,0.0
1609059661769754481,272,1609059661769754481,0.354581296444,-0.100855231285,2.28590917587,-0.924448787557,-0.381195430858,0.00313372655496,0.00864074269607,0.0,0.0,0.0,0.0,0.0,0.0
1609059661942249143,273,1609059661942249143,0.408851623535,-0.0848939716816,2.2352399826,-0.924503314343,-0.381129480306,-0.00113096200079,0.00571506221414,0.0,0.0,0.0,0.0,0.0,0.0
1609059662148359630,274,1609059662148359630,0.484649658203,-0.0510197505355,2.18004894257,-0.924685147456,-0.380684842168,-0.00491858762513,0.00349807275462,0.0,0.0,0.0,0.0,0.0,0.0
1609059662354545060,275,1609059662354545060,0.541615307331,-0.0247365888208,2.20107245445,0.924150176584,0.381846257409,0.0113651052747,-0.00327432502343,0.0,0.0,0.0,0.0,0.0,0.0
1609059662560893768,276,1609059662560893768,0.5364818573,-0.0300375949591,2.24920320511,-0.92420165204,-0.381126639114,-0.0170811270009,0.0173789074377,0.0,0.0,0.0,0.0,0.0,0.0
1609059662766892223,277,1609059662766892223,0.564930737019,-0.0088727446273,2.30635118484,-0.924393447006,-0.380714993956,-0.0145505089287,0.0184697373619,0.0,0.0,0.0,0.0,0.0,0.0
1609059662940280950,278,1609059662940280950,0.596563398838,-0.0318585149944,2.453810215,-0.924271603969,-0.380750341436,-0.0155806129389,0.022548261412,0.0,0.0,0.0,0.0,0.0,0.0
1609059663145142387,279,1609059663145142387,0.61077028513,-0.0413112789392,2.53454995155,-0.924508739708,-0.380294564934,-0.0143817885751,0.0212790564232,0.0,0.0,0.0,0.0,0.0,0.0
1609059663351659029,280,1609059663351659029,0.626545727253,-0.0615146495402,2.59440994263,-0.924411095389,-0.380640288734,-0.0115402190147,0.021069424752,0.0,0.0,0.0,0.0,0.0,0.0
1609059663557642044,281,1609059663557642044,0.651436269283,-0.088380984962,2.66367173195,-0.924432253913,-0.380522637761,-0.0114645172438,0.0222731883934,0.0,0.0,0.0,0.0,0.0,0.0
1609059663763628479,282,1609059663763628479,0.663640677929,-0.154677212238,2.96862244606,-0.924465592221,-0.380836686855,-0.00713867944116,0.0166080101572,0.0,0.0,0.0,0.0,0.0,0.0
1609059663970886944,283,1609059663970886944,0.686190664768,-0.166957393289,3.00937056541,-0.924635127568,-0.380538305583,-0.00580947558153,0.0143780681657,0.0,0.0,0.0,0.0,0.0,0.0
1609059664141969919,284,1609059664141969919,0.706826865673,-0.214960440993,3.1982550621,-0.924574350825,-0.380969130532,-0.0014577173789,0.00476092822904,0.0,0.0,0.0,0.0,0.0,0.0
1609059664348113760,285,1609059664348113760,0.719602406025,-0.249069571495,3.28816962242,-0.924603925723,-0.380899086406,-0.00226959791172,0.00427965406552,0.0,0.0,0.0,0.0,0.0,0.0
1609059664554401228,286,1609059664554401228,0.752973735332,-0.262338787317,3.32140350342,-0.924424169619,-0.381300206961,0.00191026881088,0.00681598628256,0.0,0.0,0.0,0.0,0.0,0.0
1609059664760611782,287,1609059664760611782,0.773182332516,-0.284110873938,3.34541654587,-0.924293833419,-0.38160353312,0.00165455540233,0.00754423362242,0.0,0.0,0.0,0.0,0.0,0.0
1609059664967118570,288,1609059664967118570,0.800220251083,-0.304829269648,3.37125015259,-0.924155726696,-0.381911744223,0.00181356105276,0.00873632855179,0.0,0.0,0.0,0.0,0.0,0.0
1609059665141064772,289,1609059665141064772,0.819808900356,-0.321916699409,3.32919001579,-0.924055367848,-0.38216972583,-0.00141486127469,0.00812255982801,0.0,0.0,0.0,0.0,0.0,0.0
1609059665345838974,290,1609059665345838974,0.853891968727,-0.329459190369,3.29916000366,-0.924034740187,-0.382244103906,-0.002509951345,0.00655317491295,0.0,0.0,0.0,0.0,0.0,0.0
1609059665551315039,291,1609059665551315039,0.888376355171,-0.330479383469,3.28806424141,-0.923938736389,-0.382476936415,-0.00304477317024,0.00627167176249,0.0,0.0,0.0,0.0,0.0,0.0
1609059665758379962,292,1609059665758379962,0.938362836838,-0.320790022612,3.27988266945,-0.924020319324,-0.382282811638,-0.0035778577943,0.00578794750945,0.0,0.0,0.0,0.0,0.0,0.0
1609059665964428379,293,1609059665964428379,0.976385653019,-0.313146859407,3.27635598183,-0.924084470647,-0.382131022177,-0.00215236743844,0.00625622195735,0.0,0.0,0.0,0.0,0.0,0.0
1609059666169154446,294,1609059666169154446,1.0258923769,-0.294727325439,3.20980381966,-0.924155127237,-0.381991585566,-0.00303689873735,0.00324138926691,0.0,0.0,0.0,0.0,0.0,0.0
1609059666342264961,295,1609059666342264961,1.06280863285,-0.262718856335,3.16416716576,-0.924065587509,-0.382218062052,-0.00312509949253,0.00154167988136,0.0,0.0,0.0,0.0,0.0,0.0
1609059666549449367,296,1609059666549449367,1.10547471046,-0.226534515619,3.16779518127,-0.924070088276,-0.382214047729,-0.00100715546945,0.00242472863405,0.0,0.0,0.0,0.0,0.0,0.0
1609059666755330277,297,1609059666755330277,1.12594902515,-0.201474100351,3.05643439293,-0.924108443454,-0.381830447844,-0.00638224610416,0.0137244588535,0.0,0.0,0.0,0.0,0.0,0.0
1609059666961242875,298,1609059666961242875,1.14580690861,-0.160947263241,3.0496969223,-0.923983520823,-0.382018923203,-0.00760929806705,0.0160653087571,0.0,0.0,0.0,0.0,0.0,0.0
1609059667167625430,299,1609059667167625430,1.19894659519,-0.104317165911,3.00515437126,-0.924327431091,-0.381247903252,-0.00705208279347,0.014802179832,0.0,0.0,0.0,0.0,0.0,0.0
1609059667341351517,300,1609059667341351517,1.21656286716,-0.100817419589,3.08003425598,-0.924291065643,-0.381455293869,0.0113763596562,0.00696155105489,0.0,0.0,0.0,0.0,0.0,0.0
1609059667545009700,301,1609059667545009700,1.25670993328,-0.0627947747707,3.06945133209,-0.924412011524,-0.381051693908,0.0144080894095,0.00737878580338,0.0,0.0,0.0,0.0,0.0,0.0
1609059667750231570,302,1609059667750231570,1.31764900684,0.0073830569163,2.99059438705,-0.924808404447,-0.380270419226,0.00667639486182,0.00890219512543,0.0,0.0,0.0,0.0,0.0,0.0
1609059667958161293,303,1609059667958161293,1.37978935242,0.060235902667,2.96868085861,-0.924804769978,-0.380013232012,0.00848111426633,0.0159421335758,0.0,0.0,0.0,0.0,0.0,0.0
1609059668164176487,304,1609059668164176487,1.42322301865,0.104348391294,3.01603722572,-0.924669462161,-0.380404972809,-0.00408749542926,0.0161782196182,0.0,0.0,0.0,0.0,0.0,0.0
1609059668370395456,305,1609059668370395456,1.47901928425,0.147377207875,3.05608844757,-0.924489208138,-0.380732642653,-0.00290415537444,0.0188128875218,0.0,0.0,0.0,0.0,0.0,0.0
1609059668542451918,306,1609059668542451918,1.54590666294,0.19288225472,3.02369761467,-0.924627303222,-0.380501610025,-0.00443424395551,0.0162238215513,0.0,0.0,0.0,0.0,0.0,0.0
1609059668748321908,307,1609059668748321908,1.61827230453,0.22754150629,2.98827624321,-0.924613644419,-0.380489763562,0.00662751586145,0.0165295012407,0.0,0.0,0.0,0.0,0.0,0.0
1609059668954518905,308,1609059668954518905,1.70927929878,0.263488203287,3.01249313354,-0.924698621034,-0.380186607907,0.00845968403421,0.0178616117013,0.0,0.0,0.0,0.0,0.0,0.0
1609059669160857946,309,1609059669160857946,1.77504742146,0.304197221994,2.99990129471,-0.92457507103,-0.380505594824,0.00850427235147,0.0174386836965,0.0,0.0,0.0,0.0,0.0,0.0
1609059669366821169,310,1609059669366821169,1.84973227978,0.328827857971,3.06960368156,-0.923947631875,-0.380489083223,0.0155510152171,0.0361524138402,0.0,0.0,0.0,0.0,0.0,0.0
1609059669540034744,311,1609059669540034744,1.95338010788,0.344055593014,3.1734585762,-0.92355731196,-0.379731963449,0.0218462938124,0.0486648426222,0.0,0.0,0.0,0.0,0.0,0.0
1609059669745280397,312,1609059669745280397,2.08457112312,0.344272524118,3.09580373764,-0.924097728354,-0.379754455147,0.0135883366199,0.0405622898128,0.0,0.0,0.0,0.0,0.0,0.0
1609059669950994451,313,1609059669950994451,2.23044514656,0.31174993515,3.17590212822,-0.924500703536,-0.380169266651,0.0103244934324,0.0257523337067,0.0,0.0,0.0,0.0,0.0,0.0
1609059670157230194,314,1609059670157230194,2.38897585869,0.294480115175,3.20336937904,-0.924668570943,-0.38020955114,-0.00166075390665,0.0206391140196,0.0,0.0,0.0,0.0,0.0,0.0
1609059670363241283,315,1609059670363241283,2.52811837196,0.228184297681,3.27083230019,-0.924354044845,-0.380611312887,-0.00715546990655,0.0255622286121,0.0,0.0,0.0,0.0,0.0,0.0
1609059670569581766,316,1609059670569581766,2.68366622925,0.196358114481,3.24747228622,-0.9240514846,-0.381502504395,-0.00377046441508,0.0238846508523,0.0,0.0,0.0,0.0,0.0,0.0
1609059670745327821,317,1609059670745327821,2.82860064507,0.121461629868,3.29687976837,-0.923849406494,-0.381882443259,-0.0021787828262,0.0257551267917,0.0,0.0,0.0,0.0,0.0,0.0
1609059670946857568,318,1609059670946857568,2.97668337822,0.0491036809981,3.27750897408,-0.924146489394,-0.3813213265,-0.00323109330054,0.0231705013398,0.0,0.0,0.0,0.0,0.0,0.0
1609059671154085007,319,1609059671154085007,3.12909555435,-0.051079697907,3.31775975227,-0.923969168097,-0.381595576228,-0.0160533981755,0.0202010152372,0.0,0.0,0.0,0.0,0.0,0.0
1609059671360285558,320,1609059671360285558,3.26302957535,-0.14360126853,3.38570189476,-0.923013429611,-0.382324031569,-0.0359577031033,0.0241161197258,0.0,0.0,0.0,0.0,0.0,0.0
1609059671565845225,321,1609059671565845225,3.36496376991,-0.276843756437,3.41684293747,-0.92231122906,-0.383158678497,-0.0376875838219,0.0333327146933,0.0,0.0,0.0,0.0,0.0,0.0
1609059671740185266,322,1609059671740185266,3.46602201462,-0.421464413404,3.37745499611,-0.92253331331,-0.383674997579,-0.0328854720965,0.0253836126285,0.0,0.0,0.0,0.0,0.0,0.0
1609059671945217647,323,1609059671945217647,3.53831315041,-0.593888163567,3.43754577637,-0.922970438876,-0.383895930997,-0.0208778767826,0.0177086810955,0.0,0.0,0.0,0.0,0.0,0.0
1609059672150693754,324,1609059672150693754,3.61067438126,-0.766142368317,3.44007515907,-0.923012229067,-0.38419162233,-0.0169142053935,0.0126147525037,0.0,0.0,0.0,0.0,0.0,0.0
1609059672357290336,325,1609059672357290336,3.65548825264,-0.957977712154,3.46764945984,-0.923015173463,-0.384177130262,-0.0178987259464,0.0114261870586,0.0,0.0,0.0,0.0,0.0,0.0
1609059672563441154,326,1609059672563441154,3.70563435555,-1.13926434517,3.50139212608,-0.923299826921,-0.383459584829,-0.00959406033732,0.0195992453218,0.0,0.0,0.0,0.0,0.0,0.0
1609059672770110505,327,1609059672770110505,3.75346302986,-1.33196377754,3.50014472008,-0.923454204984,-0.383199717091,-0.00667681681708,0.0185937687309,0.0,0.0,0.0,0.0,0.0,0.0
1609059672941733575,328,1609059672941733575,3.78537607193,-1.53017342091,3.47582101822,-0.923496589998,-0.383324734619,-0.00334629775215,0.0143177645891,0.0,0.0,0.0,0.0,0.0,0.0
1609059673147588269,329,1609059673147588269,3.8075158596,-1.75098502636,3.48503422737,-0.923501056452,-0.383220702845,-0.0114671390158,0.0124978544558,0.0,0.0,0.0,0.0,0.0,0.0
1609059673353911803,330,1609059673353911803,3.83360385895,-1.95283663273,3.53718018532,-0.923295033098,-0.382757476962,-0.0258189236239,0.0188779995964,0.0,0.0,0.0,0.0,0.0,0.0
1609059673560837131,331,1609059673560837131,3.83749437332,-2.18628549576,3.51984500885,-0.922987467137,-0.382507897417,-0.0370668714203,0.0201963106448,0.0,0.0,0.0,0.0,0.0,0.0
1609059673766906132,332,1609059673766906132,3.82497620583,-2.42163252831,3.56691455841,-0.923466842887,-0.383321667376,-0.000635166891011,0.0165253130695,0.0,0.0,0.0,0.0,0.0,0.0
1609059673939545546,333,1609059673939545546,3.82655358315,-2.65302753448,3.55101966858,-0.923027001381,-0.384584602482,0.0107538218632,0.000439967742174,0.0,0.0,0.0,0.0,0.0,0.0
1609059674145173895,334,1609059674145173895,3.81660079956,-2.87955522537,3.53414654732,0.922978545141,0.384418164881,-0.00254487753756,0.0180777021932,0.0,0.0,0.0,0.0,0.0,0.0
1609059674350628321,335,1609059674350628321,3.8040792942,-3.067527771,3.51783323288,0.923460295415,0.383021229633,0.00343689376189,0.0224501270309,0.0,0.0,0.0,0.0,0.0,0.0
1609059674556968027,336,1609059674556968027,3.77738046646,-3.23793363571,3.54959440231,0.923469068594,0.382795710756,0.00977274664152,0.0240170064731,0.0,0.0,0.0,0.0,0.0,0.0
1609059674763004075,337,1609059674763004075,3.72862815857,-3.39823246002,3.51326727867,0.923351995377,0.383581663816,0.0107331540481,0.0130766670462,0.0,0.0,0.0,0.0,0.0,0.0
1609059674969293544,338,1609059674969293544,3.67160797119,-3.52497315407,3.48329973221,0.923220486167,0.383614683899,0.0150912666901,0.0166121006501,0.0,0.0,0.0,0.0,0.0,0.0
1609059675141960741,339,1609059675141960741,3.59801054001,-3.65156531334,3.47716879845,0.923449296219,0.383526350079,0.00607051745024,0.010587016873,0.0,0.0,0.0,0.0,0.0,0.0
1609059675346737883,340,1609059675346737883,3.51606965065,-3.75880885124,3.43922924995,0.92331986361,0.383882237836,0.0102985497721,0.00296594176533,0.0,0.0,0.0,0.0,0.0,0.0
1609059675553574692,341,1609059675553574692,3.42786574364,-3.85717177391,3.45601630211,-0.923078273084,-0.384458791125,-0.00370850657114,0.0102071870001,0.0,0.0,0.0,0.0,0.0,0.0
1609059675759707998,342,1609059675759707998,3.33550405502,-3.97254562378,3.43600702286,-0.922635965939,-0.385350799449,-0.00516854356908,0.0148634409463,0.0,0.0,0.0,0.0,0.0,0.0
1609059675965922169,343,1609059675965922169,3.24218416214,-4.08386182785,3.4265062809,-0.922424091825,-0.38571537108,-0.0118226462006,0.0147537239518,0.0,0.0,0.0,0.0,0.0,0.0
1609059676139164249,344,1609059676139164249,3.1573035717,-4.19311571121,3.42688918114,-0.922477276569,-0.385719002725,-0.00956195028835,0.0128489010078,0.0,0.0,0.0,0.0,0.0,0.0
1609059676344445610,345,1609059676344445610,3.06437444687,-4.31223583221,3.33512544632,-0.922449658969,-0.385944264732,-0.00991415143653,0.00594649383126,0.0,0.0,0.0,0.0,0.0,0.0
1609059676550139622,346,1609059676550139622,2.96527338028,-4.43029022217,3.36769652367,0.922342543287,0.386308809035,0.007051894866,8.76569902514e-05,0.0,0.0,0.0,0.0,0.0,0.0
1609059676756336422,347,1609059676756336422,2.84772467613,-4.53950166702,3.34531545639,0.922260796306,0.386406927471,0.0104016577439,0.00406392862106,0.0,0.0,0.0,0.0,0.0,0.0
1609059676962715448,348,1609059676962715448,2.73142576218,-4.64553451538,3.34602975845,0.922057556057,0.386680852581,0.0162985388217,0.00470523094317,0.0,0.0,0.0,0.0,0.0,0.0
1609059677169239020,349,1609059677169239020,2.59808897972,-4.74451398849,3.3237285614,0.922165280599,0.386583222164,0.0123560625186,0.00345475282265,0.0,0.0,0.0,0.0,0.0,0.0
1609059677341375875,350,1609059677341375875,2.46555113792,-4.84090614319,3.33172154427,0.922195366035,0.386601525424,0.00919154430676,-0.00323773314937,0.0,0.0,0.0,0.0,0.0,0.0
1609059677547845965,351,1609059677547845965,2.32800674438,-4.9287981987,3.33071541786,-0.922423006408,-0.386005255673,-0.0103734194568,0.00530396189433,0.0,0.0,0.0,0.0,0.0,0.0
1609059677754080105,352,1609059677754080105,2.179646492,-5.02078533173,3.3197581768,0.922310948926,0.386313016744,0.00981335740294,-0.00290939905524,0.0,0.0,0.0,0.0,0.0,0.0
1609059677960255987,353,1609059677960255987,2.02578186989,-5.11257076263,3.27715611458,0.92226416019,0.386553499783,0.0022455839988,0.000409863300471,0.0,0.0,0.0,0.0,0.0,0.0
