%time,field.header.seq,field.header.stamp,field.pose.pose.position.x,field.pose.pose.position.y,field.pose.pose.position.z,field.pose.pose.orientation.x,field.pose.pose.orientation.y,field.pose.pose.orientation.z,field.pose.pose.orientation.w,field.twist.twist.linear.x,field.twist.twist.linear.y,field.twist.twist.linear.z,field.twist.twist.angular.x,field.twist.twist.angular.y,field.twist.twist.angular.z
1609055138775399533,23,1609055138775399533,0.931761264801,-0.860192835331,-4.62424516678,0.953705800671,0.288469089064,0.0705544179335,0.047464771468,0.0,0.0,0.0,0.0,0.0,0.0
1609055138981231636,24,1609055138981231636,0.929070413113,-0.862426877022,-4.62411117554,0.953709131488,0.288462845516,0.0705260748491,0.0474779110661,0.0,0.0,0.0,0.0,0.0,0.0
1609055139188335490,25,1609055139188335490,0.930292010307,-0.861439585686,-4.62109565735,0.95365542638,0.28864085799,0.0705657189584,0.0474158427449,0.0,0.0,0.0,0.0,0.0,0.0
1609055139392522274,26,1609055139392522274,0.929529964924,-0.863111495972,-4.62356233597,0.953722937194,0.288422427986,0.0705997988048,0.0473363550969,0.0,0.0,0.0,0.0,0.0,0.0
1609055139599014553,27,1609055139599014553,0.926509916782,-0.862083554268,-4.62203359604,0.953706875091,0.288501829626,0.0704785520412,0.0473567778516,0.0,0.0,0.0,0.0,0.0,0.0
1609055139771072899,28,1609055139771072899,0.93315243721,-0.855761170387,-4.62587928772,0.953672504275,0.28859032505,0.0705277246609,0.0474364725894,0.0,0.0,0.0,0.0,0.0,0.0
1609055139977259383,29,1609055139977259383,0.934326887131,-0.86195230484,-4.62186384201,0.953692802188,0.288517537066,0.0705330601893,0.0474632203006,0.0,0.0,0.0,0.0,0.0,0.0
1609055140183890363,30,1609055140183890363,0.935715973377,-0.862920939922,-4.62167644501,0.953671162356,0.288573532233,0.0706163999271,0.0474336868222,0.0,0.0,0.0,0.0,0.0,0.0
1609055140389881870,31,1609055140389881870,0.930829048157,-0.861714959145,-4.62011957169,0.953651621748,0.288674366213,0.0705375287583,0.0473302404996,0.0,0.0,0.0,0.0,0.0,0.0
1609055140596115224,32,1609055140596115224,0.929801464081,-0.860788166523,-4.6183757782,0.953721992059,0.288446555088,0.0704862837882,0.0473775317854,0.0,0.0,0.0,0.0,0.0,0.0
1609055140769939871,33,1609055140769939871,0.928111195564,-0.868518412113,-4.6254658699,0.95369554397,0.288496132441,0.0705962341809,0.0474443115374,0.0,0.0,0.0,0.0,0.0,0.0
1609055140974408591,34,1609055140974408591,0.935144841671,-0.851034343243,-4.62233686447,0.953664753385,0.288632426623,0.0704857624924,0.0473984993277,0.0,0.0,0.0,0.0,0.0,0.0
1609055141181153171,35,1609055141181153171,0.933184623718,-0.863315224648,-4.62192440033,0.953674597225,0.288590288494,0.0704685479671,0.0474825414507,0.0,0.0,0.0,0.0,0.0,0.0
1609055141386656267,36,1609055141386656267,0.930807232857,-0.86873281002,-4.62002182007,0.953699772059,0.288499657621,0.0705608355321,0.0473905139865,0.0,0.0,0.0,0.0,0.0,0.0
1609055141592767456,37,1609055141592767456,0.929685473442,-0.863885641098,-4.62160110474,0.953677473622,0.288577289955,0.0705280130868,0.047415434168,0.0,0.0,0.0,0.0,0.0,0.0
1609055141799069088,38,1609055141799069088,0.931282758713,-0.859328329563,-4.62050199509,0.953659159446,0.28861925307,0.0706351117941,0.0473689280363,0.0,0.0,0.0,0.0,0.0,0.0
1609055141971397378,39,1609055141971397378,0.935104489326,-0.859072089195,-4.62420558929,0.953681978412,0.288523128572,0.0706499913269,0.0474728033265,0.0,0.0,0.0,0.0,0.0,0.0
1609055142177167456,40,1609055142177167456,0.932285606861,-0.865184009075,-4.62268638611,0.953662453159,0.288635642104,0.070476511933,0.0474389376716,0.0,0.0,0.0,0.0,0.0,0.0
1609055142383740616,41,1609055142383740616,0.927481889725,-0.862834334373,-4.62087440491,0.953736130578,0.288401752052,0.0704801824055,0.0473747457229,0.0,0.0,0.0,0.0,0.0,0.0
1609055142590128095,42,1609055142590128095,0.932045459747,-0.862665355206,-4.61911869049,0.953679001065,0.288540691486,0.0706215278915,0.047468221827,0.0,0.0,0.0,0.0,0.0,0.0
1609055142795998047,43,1609055142795998047,0.933516085148,-0.858763873577,-4.61917924881,0.95367896195,0.288587444389,0.0705227852151,0.0473313980468,0.0,0.0,0.0,0.0,0.0,0.0
1609055142969356361,44,1609055142969356361,0.93554353714,-0.861436903477,-4.62398576736,0.953694272918,0.288510467658,0.0705653364925,0.0474286531577,0.0,0.0,0.0,0.0,0.0,0.0
1609055143173997951,45,1609055143173997951,0.932852447033,-0.857101261616,-4.62481784821,0.953683168304,0.288543535714,0.0705639468063,0.0474528387097,0.0,0.0,0.0,0.0,0.0,0.0
1609055143381267489,46,1609055143381267489,0.935329437256,-0.845322787762,-4.62332248688,0.953658943722,0.288621881367,0.0705707846413,0.047453061128,0.0,0.0,0.0,0.0,0.0,0.0
1609055143586969977,47,1609055143586969977,0.934669792652,-0.85396951437,-4.6230006218,0.953717149508,0.288433106467,0.0706358023935,0.0473341868949,0.0,0.0,0.0,0.0,0.0,0.0
1609055143793278389,48,1609055143793278389,0.928324878216,-0.852021634579,-4.62115526199,0.953716531529,0.288458109538,0.0705659711697,0.0472984169082,0.0,0.0,0.0,0.0,0.0,0.0
1609055143999362058,49,1609055143999362058,0.927838921547,-0.853680789471,-4.62082958221,0.953719933812,0.288428655836,0.0706262387815,0.0473194752415,0.0,0.0,0.0,0.0,0.0,0.0
1609055144171433397,50,1609055144171433397,0.937399923801,-0.847427248955,-4.62577533722,0.953734165863,0.288379595793,0.0705970233576,0.0473752033052,0.0,0.0,0.0,0.0,0.0,0.0
1609055144377553834,51,1609055144377553834,0.934161663055,-0.850654244423,-4.62388467789,0.953733844293,0.288360063715,0.0707112490322,0.0473301929545,0.0,0.0,0.0,0.0,0.0,0.0
1609055144584256518,52,1609055144584256518,0.93466001749,-0.859947144985,-4.62444543839,0.953721175244,0.2884323766,0.0705607818077,0.0473694003725,0.0,0.0,0.0,0.0,0.0,0.0
1609055144794765775,53,1609055144794765775,0.933771133423,-0.861242651939,-4.62105083466,0.953687031166,0.288562528039,0.0705115106784,0.0473375206287,0.0,0.0,0.0,0.0,0.0,0.0
1609055144969637237,54,1609055144969637237,0.938374638557,-0.861563444138,-4.6244931221,0.953693167124,0.288505766104,0.0706052638845,0.047420065563,0.0,0.0,0.0,0.0,0.0,0.0
1609055145172804296,55,1609055145172804296,0.932436227798,-0.851715624332,-4.62405633926,0.953662178207,0.288604695543,0.070604384037,0.0474426023952,0.0,0.0,0.0,0.0,0.0,0.0
1609055145383765150,56,1609055145383765150,0.934958815575,-0.849301934242,-4.62366342545,0.953661821506,0.288600083951,0.0706636325463,0.0473895851529,0.0,0.0,0.0,0.0,0.0,0.0
1609055145589866698,57,1609055145589866698,0.927303850651,-0.859874546528,-4.62316608429,0.953699243016,0.288517382913,0.0705335567694,0.0473338250758,0.0,0.0,0.0,0.0,0.0,0.0
1609055145795924656,58,1609055145795924656,0.929324865341,-0.861980021,-4.62072277069,0.95366093352,0.288637567114,0.0705727126517,0.0473145956026,0.0,0.0,0.0,0.0,0.0,0.0
1609055145969695956,59,1609055145969695956,0.932936668396,-0.854020893574,-4.62637805939,0.95365742789,0.288633188878,0.0705632035327,0.0474260141301,0.0,0.0,0.0,0.0,0.0,0.0
1609055146174312946,60,1609055146174312946,0.936412632465,-0.859225332737,-4.62514019012,0.953595187716,0.288794423617,0.0706914584046,0.047504910926,0.0,0.0,0.0,0.0,0.0,0.0
1609055146381156899,61,1609055146381156899,0.929532110691,-0.862083375454,-4.62156820297,0.953654404056,0.288620512139,0.0705959356959,0.0475151708454,0.0,0.0,0.0,0.0,0.0,0.0
1609055146587285655,62,1609055146587285655,0.929089605808,-0.859365522861,-4.62246990204,0.953677214573,0.28857428234,0.0705437943937,0.0474154726681,0.0,0.0,0.0,0.0,0.0,0.0
1609055146792874236,63,1609055146792874236,0.931082248688,-0.857883214951,-4.62192726135,0.953705592209,0.288481807572,0.0705763964901,0.0473588676864,0.0,0.0,0.0,0.0,0.0,0.0
1609055146999186069,64,1609055146999186069,0.929502129555,-0.860344052315,-4.62140464783,0.953684329549,0.288567142191,0.070547214803,0.0473106172454,0.0,0.0,0.0,0.0,0.0,0.0
1609055147171777378,65,1609055147171777378,0.930714845657,-0.858826935291,-4.62436723709,0.953720011945,0.288442606463,0.0704970845441,0.0474253377822,0.0,0.0,0.0,0.0,0.0,0.0
1609055147377136021,66,1609055147377136021,0.93099629879,-0.865797042847,-4.62238883972,0.953713127798,0.288471884685,0.0704704115637,0.0474253382203,0.0,0.0,0.0,0.0,0.0,0.0
1609055147583860343,67,1609055147583860343,0.931351006031,-0.85923820734,-4.62179756165,0.953675783168,0.288541916526,0.0706460347634,0.0474889542831,0.0,0.0,0.0,0.0,0.0,0.0
1609055147789752099,68,1609055147789752099,0.928366482258,-0.857133686543,-4.62303352356,0.953706440561,0.288477206645,0.0705663677229,0.0473847467526,0.0,0.0,0.0,0.0,0.0,0.0
1609055147997189161,69,1609055147997189161,0.931063890457,-0.859312832355,-4.6198091507,0.953697754104,0.288524698687,0.0705468229743,0.0472994485467,0.0,0.0,0.0,0.0,0.0,0.0
1609055148169565402,70,1609055148169565402,0.931197464466,-0.86756426096,-4.62590742111,0.953714069882,0.288444906948,0.0705475242188,0.0474558256827,0.0,0.0,0.0,0.0,0.0,0.0
1609055148374405440,71,1609055148374405440,0.935341715813,-0.863994777203,-4.62475538254,0.953678043838,0.288550236583,0.0706033036391,0.0474565399546,0.0,0.0,0.0,0.0,0.0,0.0
1609055148583073585,72,1609055148583073585,0.927613317966,-0.857083797455,-4.62378978729,0.953680620927,0.288545366464,0.0706222043147,0.0474062128723,0.0,0.0,0.0,0.0,0.0,0.0
1609055148788128784,73,1609055148788128784,0.932667791843,-0.858826696873,-4.62005567551,0.953669132507,0.288569308012,0.0706040951299,0.0475184377646,0.0,0.0,0.0,0.0,0.0,0.0
1609055148993099726,74,1609055148993099726,0.932884991169,-0.854080677032,-4.62012052536,0.953675727993,0.2885770643,0.0705900660843,0.0473595435724,0.0,0.0,0.0,0.0,0.0,0.0
1609055149199381234,75,1609055149199381234,0.926733136177,-0.849432647228,-4.62023162842,0.953707719313,0.288479616184,0.0706034976205,0.0472889341445,0.0,0.0,0.0,0.0,0.0,0.0
1609055149371571078,76,1609055149371571078,0.932980597019,-0.851304769516,-4.6243224144,0.953699584447,0.288457305674,0.0706873427873,0.0474635122918,0.0,0.0,0.0,0.0,0.0,0.0
1609055149578661905,77,1609055149578661905,0.929580450058,-0.856196641922,-4.62295341492,0.953727808561,0.288392407105,0.0705614658403,0.0474780606116,0.0,0.0,0.0,0.0,0.0,0.0
1609055149785044251,78,1609055149785044251,0.933166503906,-0.850117504597,-4.62015104294,0.953645517869,0.288671409078,0.0705843866744,0.0474013521588,0.0,0.0,0.0,0.0,0.0,0.0
1609055149991185645,79,1609055149991185645,0.930090904236,-0.845080733299,-4.62248754501,0.953655550517,0.288623835743,0.0706622999091,0.0473731124157,0.0,0.0,0.0,0.0,0.0,0.0
1609055150198007232,80,1609055150198007232,0.928827047348,-0.858271837234,-4.6203546524,0.953719519867,0.288425750078,0.0706406355891,0.0473240395634,0.0,0.0,0.0,0.0,0.0,0.0
1609055150370502967,81,1609055150370502967,0.932936489582,-0.858720242977,-4.62354373932,0.953670465151,0.288582682906,0.0705579510517,0.0474789908236,0.0,0.0,0.0,0.0,0.0,0.0
1609055150575227288,82,1609055150575227288,0.933068692684,-0.86092287302,-4.62265014648,0.953714396014,0.288430305048,0.0706152207443,0.0474373330341,0.0,0.0,0.0,0.0,0.0,0.0
1609055150781237336,83,1609055150781237336,0.932354152203,-0.866037368774,-4.62093496323,0.953699317051,0.288505910488,0.0704804849934,0.0474810857618,0.0,0.0,0.0,0.0,0.0,0.0
1609055150987571411,84,1609055150987571411,0.930752694607,-0.85850250721,-4.62094306946,0.953693166349,0.288518779923,0.0705487952455,0.047424946803,0.0,0.0,0.0,0.0,0.0,0.0
1609055151193549840,85,1609055151193549840,0.924758672714,-0.868977725506,-4.62207078934,0.953709130648,0.288471588869,0.0705784574871,0.0473467831357,0.0,0.0,0.0,0.0,0.0,0.0
1609055151399702416,86,1609055151399702416,0.925092101097,-0.857651472092,-4.62126398087,0.953678025686,0.288592738917,0.0704953527487,0.0473588387664,0.0,0.0,0.0,0.0,0.0,0.0
1609055151572476973,87,1609055151572476973,0.937830448151,-0.850126743317,-4.6215262413,0.953737882983,0.288386193588,0.0705419958338,0.0473421665719,0.0,0.0,0.0,0.0,0.0,0.0
1609055151777958687,88,1609055151777958687,0.936451196671,-0.848802864552,-4.62314319611,0.953679515982,0.288518165241,0.0707752275311,0.0473657712948,0.0,0.0,0.0,0.0,0.0,0.0
1609055151984843581,89,1609055151984843581,0.93095344305,-0.853865742683,-4.6243853569,0.953733143721,0.288384672015,0.0705864848739,0.0473805832328,0.0,0.0,0.0,0.0,0.0,0.0
1609055152190477933,90,1609055152190477933,0.938802301884,-0.844351410866,-4.61800050735,0.953726758645,0.28835449585,0.0708157225484,0.0473506917337,0.0,0.0,0.0,0.0,0.0,0.0
1609055152396141901,91,1609055152396141901,0.932389676571,-0.851623237133,-4.61976099014,0.953713240768,0.288430817585,0.0707677073654,0.0472297516972,0.0,0.0,0.0,0.0,0.0,0.0
1609055152569576510,92,1609055152569576510,0.932625114918,-0.852670252323,-4.62592029572,0.953717110422,0.288426591734,0.0706188331957,0.0473999458598,0.0,0.0,0.0,0.0,0.0,0.0
1609055152774578506,93,1609055152774578506,0.931124091148,-0.852023005486,-4.62616682053,0.953748176004,0.288347908018,0.0705318834513,0.0473830574011,0.0,0.0,0.0,0.0,0.0,0.0
1609055152980268898,94,1609055152980268898,0.932549893856,-0.846582829952,-4.62173223495,0.953778472028,0.288218041909,0.0706272742686,0.0474212478009,0.0,0.0,0.0,0.0,0.0,0.0
1609055153186610047,95,1609055153186610047,0.92936694622,-0.863820075989,-4.62225914001,0.953691024562,0.288516211581,0.0706216177445,0.0473752301587,0.0,0.0,0.0,0.0,0.0,0.0
1609055153392790900,96,1609055153392790900,0.931783676147,-0.857128560543,-4.62048149109,0.953648580097,0.288657707579,0.0706556698748,0.0473169086923,0.0,0.0,0.0,0.0,0.0,0.0
1609055153598738564,97,1609055153598738564,0.931070387363,-0.85769867897,-4.62081241608,0.95367017326,0.288594486778,0.0706491906692,0.0472769996338,0.0,0.0,0.0,0.0,0.0,0.0
1609055153771234277,98,1609055153771234277,0.934786975384,-0.86864054203,-4.62266874313,0.953688156875,0.288496959053,0.0706891199109,0.0474494718561,0.0,0.0,0.0,0.0,0.0,0.0
1609055153976832187,99,1609055153976832187,0.931717634201,-0.862900853157,-4.62255954742,0.953662096779,0.288614021955,0.0705647324911,0.0474464964641,0.0,0.0,0.0,0.0,0.0,0.0
1609055154183711220,100,1609055154183711220,0.92761939764,-0.857428848743,-4.62220001221,0.95366583993,0.288628737772,0.070475080273,0.047414982262,0.0,0.0,0.0,0.0,0.0,0.0
1609055154389663075,101,1609055154389663075,0.929609537125,-0.856783628464,-4.62053966522,0.953691542602,0.288508812634,0.0706830401507,0.0473182252023,0.0,0.0,0.0,0.0,0.0,0.0
1609055154596606703,102,1609055154596606703,0.927556335926,-0.856519401073,-4.62059307098,0.953698398504,0.288522255462,0.0705715068168,0.0472645239082,0.0,0.0,0.0,0.0,0.0,0.0
1609055154769126068,103,1609055154769126068,0.939734578133,-0.859816849232,-4.62438249588,0.953652335328,0.288640337302,0.0706078458706,0.0474184679921,0.0,0.0,0.0,0.0,0.0,0.0
1609055154974017899,104,1609055154974017899,0.933024942875,-0.853113889694,-4.62552833557,0.953694226538,0.288510860656,0.0706217703518,0.0473431209718,0.0,0.0,0.0,0.0,0.0,0.0
1609055155180445786,105,1609055155180445786,0.931483924389,-0.857714653015,-4.62471723557,0.953740868655,0.288343307936,0.0706194527505,0.0474276830381,0.0,0.0,0.0,0.0,0.0,0.0
1609055155386423058,106,1609055155386423058,0.928836107254,-0.864377319813,-4.62208080292,0.953697805568,0.288487880196,0.0706488432955,0.0473706615482,0.0,0.0,0.0,0.0,0.0,0.0
1609055155592817032,107,1609055155592817032,0.928909003735,-0.858347594738,-4.62146902084,0.953692112272,0.288493347339,0.0707432398394,0.0473110721642,0.0,0.0,0.0,0.0,0.0,0.0
1609055155798721833,108,1609055155798721833,0.935351848602,-0.862249076366,-4.61839199066,0.95364795414,0.28869988087,0.0704730014986,0.0473446344365,0.0,0.0,0.0,0.0,0.0,0.0
1609055155971297269,109,1609055155971297269,0.935628890991,-0.853146493435,-4.62312316895,0.953692656297,0.288492901544,0.0706173462589,0.0474905621294,0.0,0.0,0.0,0.0,0.0,0.0
1609055156177234433,110,1609055156177234433,0.93508118391,-0.848408162594,-4.62247085571,0.953718769303,0.288407624625,0.0706874600942,0.0473796804892,0.0,0.0,0.0,0.0,0.0,0.0
1609055156383428911,111,1609055156383428911,0.936328649521,-0.861354410648,-4.61968421936,0.953654732362,0.288650842725,0.0704892939467,0.0474826481598,0.0,0.0,0.0,0.0,0.0,0.0
1609055156589553300,112,1609055156589553300,0.930748999119,-0.856783092022,-4.61845254898,0.953710517256,0.288450103856,0.0705822804096,0.0474439516929,0.0,0.0,0.0,0.0,0.0,0.0
1609055156796438766,113,1609055156796438766,0.93409883976,-0.866976857185,-4.61827325821,0.953677026978,0.288578312259,0.0705846142864,0.0473339004783,0.0,0.0,0.0,0.0,0.0,0.0
1609055156969201342,114,1609055156969201342,0.932618558407,-0.856616079807,-4.62539768219,0.953750573343,0.288360762004,0.0704496329043,0.047378940558,0.0,0.0,0.0,0.0,0.0,0.0
1609055157173789159,115,1609055157173789159,0.934977591038,-0.859206676483,-4.62304735184,0.953694977391,0.288521237887,0.0705293196491,0.0474025364072,0.0,0.0,0.0,0.0,0.0,0.0
1609055157379994227,116,1609055157379994227,0.937855839729,-0.863400518894,-4.62046766281,0.953709219626,0.288476256614,0.0704881235941,0.0474510084417,0.0,0.0,0.0,0.0,0.0,0.0
1609055157586686659,117,1609055157586686659,0.931497275829,-0.866340994835,-4.62023735046,0.953736528075,0.28836988339,0.070498098377,0.0475338142157,0.0,0.0,0.0,0.0,0.0,0.0
1609055157792306668,118,1609055157792306668,0.930999040604,-0.856199800968,-4.62023019791,0.953692938633,0.288507140865,0.0706276773213,0.0473829048067,0.0,0.0,0.0,0.0,0.0,0.0
1609055157998662346,119,1609055157998662346,0.928810596466,-0.862085342407,-4.62016677856,0.953678329849,0.288599731052,0.0704981187679,0.0473059580136,0.0,0.0,0.0,0.0,0.0,0.0
1609055158170943894,120,1609055158170943894,0.938237547874,-0.859194278717,-4.62269830704,0.953651450334,0.28864521977,0.0705627993723,0.0474735687043,0.0,0.0,0.0,0.0,0.0,0.0
1609055158377055463,121,1609055158377055463,0.938942551613,-0.855378746986,-4.62125968933,0.95369736905,0.288472605886,0.0706483902923,0.0474730330859,0.0,0.0,0.0,0.0,0.0,0.0
1609055158583273537,122,1609055158583273537,0.933515787125,-0.860769212246,-4.62099027634,0.95369478297,0.288541566729,0.0703993946475,0.0474757879211,0.0,0.0,0.0,0.0,0.0,0.0
1609055158789316986,123,1609055158789316986,0.927002072334,-0.858472704887,-4.62085103989,0.953714393415,0.288437887452,0.0706105867988,0.0473981635398,0.0,0.0,0.0,0.0,0.0,0.0
1609055158995902544,124,1609055158995902544,0.932462513447,-0.857442259789,-4.62153339386,0.953658516339,0.288634886345,0.0706288189721,0.0472959462231,0.0,0.0,0.0,0.0,0.0,0.0
1609055159169206013,125,1609055159169206013,0.938538789749,-0.860089480877,-4.62203454971,0.953680263118,0.288560949573,0.0704877718553,0.0475185031262,0.0,0.0,0.0,0.0,0.0,0.0
1609055159373700363,126,1609055159373700363,0.937845110893,-0.858523488045,-4.62206172943,0.953685900443,0.288516782825,0.0706181255281,0.0474799923203,0.0,0.0,0.0,0.0,0.0,0.0
1609055159580052742,127,1609055159580052742,0.930228471756,-0.86066198349,-4.62151241302,0.953703457328,0.288466839069,0.0706039292715,0.0474519062857,0.0,0.0,0.0,0.0,0.0,0.0
1609055159786355999,128,1609055159786355999,0.928380906582,-0.867846131325,-4.62228298187,0.953724984498,0.288442644873,0.070421743004,0.047437039075,0.0,0.0,0.0,0.0,0.0,0.0
1609055159992411143,129,1609055159992411143,0.931854486465,-0.851972997189,-4.62106323242,0.953669167979,0.288598156177,0.0706476790347,0.0472771376552,0.0,0.0,0.0,0.0,0.0,0.0
1609055160198526133,130,1609055160198526133,0.930191814899,-0.850975513458,-4.61952161789,0.95366455073,0.28863462679,0.0705267631323,0.047328137303,0.0,0.0,0.0,0.0,0.0,0.0
1609055160370729647,131,1609055160370729647,0.93174046278,-0.865783929825,-4.62459278107,0.953703796654,0.288487718983,0.0704821984448,0.0474990941642,0.0,0.0,0.0,0.0,0.0,0.0
1609055160577017709,132,1609055160577017709,0.928404569626,-0.864878833294,-4.62459278107,0.953733790287,0.288373314256,0.0705919612926,0.0474285134762,0.0,0.0,0.0,0.0,0.0,0.0
1609055160783167761,133,1609055160783167761,0.933583438396,-0.865012943745,-4.62141036987,0.95368797362,0.28854996208,0.0705011694164,0.0474104784504,0.0,0.0,0.0,0.0,0.0,0.0
1609055160989200370,134,1609055160989200370,0.934738457203,-0.863933026791,-4.62281131744,0.953675694883,0.288596162517,0.0705273515443,0.0473372649606,0.0,0.0,0.0,0.0,0.0,0.0
1609055161195332121,135,1609055161195332121,0.931045472622,-0.859984517097,-4.61928129196,0.953677430789,0.288574393861,0.0705911695794,0.0473398773654,0.0,0.0,0.0,0.0,0.0,0.0
1609055161368924091,136,1609055161368924091,0.932866454124,-0.862182319164,-4.6244635582,0.95370714626,0.288478559617,0.070508485433,0.0474484277427,0.0,0.0,0.0,0.0,0.0,0.0
1609055161573607722,137,1609055161573607722,0.936244606972,-0.862906336784,-4.62097167969,0.953638563488,0.288716972883,0.0704443666221,0.0474720023694,0.0,0.0,0.0,0.0,0.0,0.0
1609055161779980657,138,1609055161779980657,0.929087400436,-0.867863416672,-4.61682701111,0.953684907078,0.288560270581,0.0705385277276,0.0473538209654,0.0,0.0,0.0,0.0,0.0,0.0
1609055161986642889,139,1609055161986642889,0.933312416077,-0.865979611874,-4.61710309982,0.953832719022,0.288118942848,0.0704736092826,0.0471602511709,0.0,0.0,0.0,0.0,0.0,0.0
1609055162192154783,140,1609055162192154783,0.936497569084,-0.864375531673,-4.61955785751,0.95388416141,0.287921409184,0.0704584712199,0.0473484168481,0.0,0.0,0.0,0.0,0.0,0.0
1609055162398427216,141,1609055162398427216,0.930712759495,-0.873098015785,-4.61878681183,0.953460825288,0.289243630737,0.0707196766537,0.0474268284147,0.0,0.0,0.0,0.0,0.0,0.0
1609055162571559139,142,1609055162571559139,0.931057989597,-0.867455005646,-4.62236404419,0.953775444247,0.288252397196,0.0704748983024,0.0474999597059,0.0,0.0,0.0,0.0,0.0,0.0
1609055162776581737,143,1609055162776581737,0.937909901142,-0.865674257278,-4.61969900131,0.953860689484,0.287998461968,0.0705003194806,0.0472903363821,0.0,0.0,0.0,0.0,0.0,0.0
1609055162982712070,144,1609055162982712070,0.935412108898,-0.856272935867,-4.62018537521,0.953648120826,0.28864501302,0.070720180162,0.0473072322277,0.0,0.0,0.0,0.0,0.0,0.0
1609055163189177562,145,1609055163189177562,0.925747394562,-0.859824359417,-4.62365531921,0.953689774883,0.288556073726,0.0705484756025,0.0472664594576,0.0,0.0,0.0,0.0,0.0,0.0
1609055163395289661,146,1609055163395289661,0.932573497295,-0.86434841156,-4.61666965485,0.953810992373,0.288129712576,0.0705460680082,0.0474248020292,0.0,0.0,0.0,0.0,0.0,0.0
1609055163568905886,147,1609055163568905886,0.931858778,-0.871809244156,-4.61951780319,0.953588943778,0.288830556207,0.0705040638156,0.0476887103035,0.0,0.0,0.0,0.0,0.0,0.0
1609055163773359240,148,1609055163773359240,0.921855390072,-0.88005065918,-4.61848783493,0.953614681729,0.288705155178,0.070903068085,0.0473405439414,0.0,0.0,0.0,0.0,0.0,0.0
1609055163979641821,149,1609055163979641821,0.941380143166,-0.866980314255,-4.61362600327,0.953699263831,0.288476891783,0.0708487093848,0.0471089954602,0.0,0.0,0.0,0.0,0.0,0.0
1609055164186211230,150,1609055164186211230,0.958197832108,-0.840164542198,-4.61900234222,0.953521023992,0.289230726474,0.0699814342002,0.0473903211171,0.0,0.0,0.0,0.0,0.0,0.0
1609055164392302999,151,1609055164392302999,0.953871130943,-0.858089387417,-4.6077671051,0.953558688341,0.289023873047,0.070317788578,0.0473965959541,0.0,0.0,0.0,0.0,0.0,0.0
1609055164598200266,152,1609055164598200266,0.942860245705,-0.868800759315,-4.61296129227,0.953406604212,0.289590242692,0.0700842327754,0.0473448909445,0.0,0.0,0.0,0.0,0.0,0.0
1609055164770384070,153,1609055164770384070,0.947251796722,-0.851078510284,-4.62896108627,0.953625830536,0.288802870631,0.0694860983404,0.0486041087438,0.0,0.0,0.0,0.0,0.0,0.0
1609055164976708115,154,1609055164976708115,0.905263721943,-0.914185762405,-4.59986162186,0.952747582425,0.291899941904,0.0697724631735,0.0468857279225,0.0,0.0,0.0,0.0,0.0,0.0
1609055165183040451,155,1609055165183040451,0.875618219376,-0.987309873104,-4.61678314209,0.948581877206,0.304750070969,0.0697710150951,0.0495158755655,0.0,0.0,0.0,0.0,0.0,0.0
1609055165388955105,156,1609055165388955105,0.882042646408,-0.977099061012,-4.57620382309,0.944985752404,0.315974280765,0.0701885967426,0.0472836391924,0.0,0.0,0.0,0.0,0.0,0.0
1609055165595335356,157,1609055165595335356,0.930227518082,-0.872889101505,-4.61509943008,0.947218689581,0.309416133155,0.0681300220686,0.0489562125301,0.0,0.0,0.0,0.0,0.0,0.0
1609055165768328680,158,1609055165768328680,0.920578479767,-0.900840699673,-4.61946821213,0.947207595443,0.308943379368,0.0700990144116,0.0493749699518,0.0,0.0,0.0,0.0,0.0,0.0
1609055165973328554,159,1609055165973328554,0.880045413971,-0.858127772808,-4.62795448303,0.946128710416,0.316055566039,0.0617440425743,0.0337196635396,0.0,0.0,0.0,0.0,0.0,0.0
1609055166179520604,160,1609055166179520604,0.884270310402,-0.985969543457,-4.52194023132,0.945945304178,0.317430829913,0.0610979280714,0.0263095592826,0.0,0.0,0.0,0.0,0.0,0.0
1609055166385848766,161,1609055166385848766,0.809879004955,-0.983932852745,-4.47342443466,0.947049469614,0.317226186429,0.0389344254927,0.0308051823452,0.0,0.0,0.0,0.0,0.0,0.0
1609055166592168093,162,1609055166592168093,0.795984268188,-1.01080238819,-4.46965408325,0.947173051171,0.316884447482,0.0336904306239,0.0362272406279,0.0,0.0,0.0,0.0,0.0,0.0
1609055166798337938,163,1609055166798337938,0.784250736237,-1.14097714424,-4.3695602417,0.947712222557,0.315525237225,0.0233223600267,0.0417305093701,0.0,0.0,0.0,0.0,0.0,0.0
1609055166970364325,164,1609055166970364325,0.806838810444,-1.19060480595,-4.34412002563,0.947971766757,0.315246610876,0.00770565513876,0.0437004192279,0.0,0.0,0.0,0.0,0.0,0.0
1609055167176541509,165,1609055167176541509,0.854795157909,-1.28182554245,-4.29896211624,0.946907025957,0.314331955143,0.00727096739729,0.0671538472653,0.0,0.0,0.0,0.0,0.0,0.0
1609055167382636549,166,1609055167382636549,0.901781618595,-1.33291256428,-4.17127370834,0.945376024784,0.316079408785,0.0124411072045,0.0787603831768,0.0,0.0,0.0,0.0,0.0,0.0
1609055167589457965,167,1609055167589457965,0.995836913586,-1.37746357918,-4.06888246536,0.945079428692,0.316363815834,0.0188668522599,0.0798927492307,0.0,0.0,0.0,0.0,0.0,0.0
1609055167795091294,168,1609055167795091294,1.06540811062,-1.39555060863,-3.94853496552,0.945221173349,0.316150129452,0.0221569725544,0.0781990899365,0.0,0.0,0.0,0.0,0.0,0.0
1609055167968556148,169,1609055167968556148,1.14697694778,-1.36572599411,-3.86365461349,0.945506740775,0.315117277603,0.0182953124481,0.0798960953273,0.0,0.0,0.0,0.0,0.0,0.0
1609055168173503638,170,1609055168173503638,1.23878622055,-1.31474888325,-3.69347810745,0.946041803742,0.315438412207,0.0154708721792,0.072554571118,0.0,0.0,0.0,0.0,0.0,0.0
1609055168379848815,171,1609055168379848815,1.33130156994,-1.31079387665,-3.5700032711,0.945876794376,0.316819277831,0.0133121626049,0.0690320315697,0.0,0.0,0.0,0.0,0.0,0.0
1609055168585685849,172,1609055168585685849,1.44314110279,-1.1918463707,-3.41495370865,0.946297233918,0.31679233519,0.0300690396716,0.0570965349003,0.0,0.0,0.0,0.0,0.0,0.0
1609055168792130469,173,1609055168792130469,1.54484164715,-1.14940345287,-3.33767175674,0.946147305922,0.316008700889,0.0356252003954,0.0606186568348,0.0,0.0,0.0,0.0,0.0,0.0
1609055168998229769,174,1609055168998229769,1.67184996605,-1.09216892719,-3.2111017704,0.946426995592,0.315461660319,0.0388442316634,0.0570176161452,0.0,0.0,0.0,0.0,0.0,0.0
1609055169170395544,175,1609055169170395544,1.75342977047,-1.0409296751,-3.14846420288,0.946336055643,0.315918653049,0.0361753623367,0.0577478796661,0.0,0.0,0.0,0.0,0.0,0.0
1609055169376554369,176,1609055169376554369,1.85229039192,-0.986512601376,-3.07370424271,0.946252896378,0.315709484772,0.0316044264496,0.062722703625,0.0,0.0,0.0,0.0,0.0,0.0
1609055169582808934,177,1609055169582808934,1.95302605629,-0.932639479637,-3.03242063522,0.945593322117,0.315978003823,0.0282670333754,0.0721951874532,0.0,0.0,0.0,0.0,0.0,0.0
1609055169788963710,178,1609055169788963710,2.03685498238,-0.852417707443,-2.94666743279,0.945935944461,0.315767770731,0.00424636678975,0.0740126496918,0.0,0.0,0.0,0.0,0.0,0.0
1609055169995791436,179,1609055169995791436,2.15192842484,-0.771867871284,-2.887185812,0.946048074615,0.314352150117,-0.0184005038978,0.0764014901072,0.0,0.0,0.0,0.0,0.0,0.0
1609055170168601560,180,1609055170168601560,2.28989934921,-0.659419953823,-2.79692530632,0.946037732009,0.316692559643,0.00306162973182,0.0686225815967,0.0,0.0,0.0,0.0,0.0,0.0
1609055170373339370,181,1609055170373339370,2.43496322632,-0.543217360973,-2.68450474739,0.945682416337,0.317818908288,0.0314794093954,0.0607038363628,0.0,0.0,0.0,0.0,0.0,0.0
1609055170579489469,182,1609055170579489469,2.58973526955,-0.383627861738,-2.55335950851,0.945693440643,0.318482877763,0.0403770855755,0.0510123892516,0.0,0.0,0.0,0.0,0.0,0.0
1609055170785728045,183,1609055170785728045,2.72958874702,-0.284280925989,-2.52312254906,0.946399621142,0.31647712304,0.0241721150448,0.0598806859396,0.0,0.0,0.0,0.0,0.0,0.0
1609055170992015730,184,1609055170992015730,2.87901234627,-0.183358758688,-2.41266679764,0.946781521509,0.315911031703,0.0238055093732,0.0569057844211,0.0,0.0,0.0,0.0,0.0,0.0
1609055171198335411,185,1609055171198335411,3.04523038864,-0.0352750048041,-2.27565789223,0.947184624178,0.316809166697,0.0272672893905,0.0415900774927,0.0,0.0,0.0,0.0,0.0,0.0
1609055171371071860,186,1609055171371071860,3.22211623192,0.0912156701088,-2.21153879166,0.946544744558,0.316358774288,0.0336459675275,0.0532740213456,0.0,0.0,0.0,0.0,0.0,0.0
1609055171576456550,187,1609055171576456550,3.38537526131,0.207924455404,-2.08764243126,0.945481458867,0.316911528452,0.0453915019595,0.0597620751248,0.0,0.0,0.0,0.0,0.0,0.0
1609055171782621945,188,1609055171782621945,3.56254792213,0.33560359478,-2.0334713459,0.945300395319,0.31578065235,0.0569581799119,0.058698449312,0.0,0.0,0.0,0.0,0.0,0.0
1609055171989297846,189,1609055171989297846,3.71595072746,0.436300903559,-1.9618871212,0.945887820509,0.315246347496,0.0542491126009,0.0545252710661,0.0,0.0,0.0,0.0,0.0,0.0
1609055172195892711,190,1609055172195892711,3.82332086563,0.54778701067,-1.84267234802,0.946708004076,0.316514350571,0.0383490526326,0.0457380701825,0.0,0.0,0.0,0.0,0.0,0.0
1609055172368671701,191,1609055172368671701,3.97570562363,0.658931136131,-1.82556831837,0.946563559776,0.316568746252,0.0344766117503,0.0511177018563,0.0,0.0,0.0,0.0,0.0,0.0
1609055172573397041,192,1609055172573397041,4.12436580658,0.762547433376,-1.74318623543,0.945911213251,0.317986122346,0.044363167262,0.0465694323736,0.0,0.0,0.0,0.0,0.0,0.0
1609055172779771057,193,1609055172779771057,4.2619099617,0.869315505028,-1.65739035606,0.945429718376,0.31893966696,0.0542353485047,0.0387125744972,0.0,0.0,0.0,0.0,0.0,0.0
1609055172986268966,194,1609055172986268966,4.39101362228,0.952869951725,-1.57163250446,0.9454409514,0.317689624873,0.0587487550296,0.0419915877992,0.0,0.0,0.0,0.0,0.0,0.0
1609055173191949662,195,1609055173191949662,4.52323865891,1.02175891399,-1.45991432667,0.946475256213,0.316379963716,0.049908397803,0.0399682344436,0.0,0.0,0.0,0.0,0.0,0.0
1609055173398043911,196,1609055173398043911,4.6427154541,1.08951234818,-1.38087940216,0.946031764259,0.317836713913,0.0503382361224,0.0383377918862,0.0,0.0,0.0,0.0,0.0,0.0
1609055173570307302,197,1609055173570307302,4.76139545441,1.17115855217,-1.30992150307,0.945626388398,0.318110961804,0.0497366897912,0.0460696346183,0.0,0.0,0.0,0.0,0.0,0.0
1609055173776516171,198,1609055173776516171,4.8661904335,1.22869586945,-1.20138502121,0.945421837409,0.318817852142,0.0495415199104,0.0455890810445,0.0,0.0,0.0,0.0,0.0,0.0
1609055173982855419,199,1609055173982855419,4.98365068436,1.27801597118,-1.10574436188,0.945132500327,0.319426177895,0.0519149456802,0.0446801087291,0.0,0.0,0.0,0.0,0.0,0.0
1609055174189383295,200,1609055174189383295,5.10497570038,1.32647609711,-1.05645775795,0.945585672933,0.317779984643,0.0466113385843,0.0520672605437,0.0,0.0,0.0,0.0,0.0,0.0
1609055174395428849,201,1609055174395428849,5.20744085312,1.3837890625,-0.944394469261,0.945971198959,0.317020407944,0.0466076687948,0.0496414836183,0.0,0.0,0.0,0.0,0.0,0.0
1609055174569021274,202,1609055174569021274,5.30590105057,1.4249778986,-0.906217038631,0.946207241693,0.315979946701,0.048623206986,0.0498428810576,0.0,0.0,0.0,0.0,0.0,0.0
1609055174773601803,203,1609055174773601803,5.40610313416,1.47627496719,-0.833130478859,0.946350879864,0.314647330882,0.0432098645594,0.0595816830478,0.0,0.0,0.0,0.0,0.0,0.0
1609055174979653424,204,1609055174979653424,5.50138711929,1.52207672596,-0.799535036087,0.945974548957,0.314812246918,0.0429514190731,0.0646573856244,0.0,0.0,0.0,0.0,0.0,0.0
1609055175186081033,205,1609055175186081033,5.57227420807,1.60379338264,-0.678158640862,0.945895984872,0.315629923179,0.0462008577185,0.0593634411393,0.0,0.0,0.0,0.0,0.0,0.0
1609055175392023614,206,1609055175392023614,5.66014862061,1.67488527298,-0.628785729408,0.945639450364,0.316706016176,0.0529556425987,0.0515657749829,0.0,0.0,0.0,0.0,0.0,0.0
1609055175598165211,207,1609055175598165211,5.73253583908,1.73763549328,-0.572525978088,0.945793910402,0.316023788559,0.0528078644743,0.0530487847322,0.0,0.0,0.0,0.0,0.0,0.0
1609055175771123215,208,1609055175771123215,5.78983259201,1.80434501171,-0.44218814373,0.946432518542,0.315471854692,0.0493990936063,0.0479867303929,0.0,0.0,0.0,0.0,0.0,0.0
1609055175976577938,209,1609055175976577938,5.85344934464,1.8588322401,-0.497671216726,0.946318255106,0.314598632341,0.0482347135928,0.0564169565579,0.0,0.0,0.0,0.0,0.0,0.0
1609055176182868550,210,1609055176182868550,5.91369056702,1.923189044,-0.472376078367,0.946432533017,0.313747267356,0.0464259361881,0.0606031775001,0.0,0.0,0.0,0.0,0.0,0.0
1609055176388926968,211,1609055176388926968,5.9635219574,1.98713159561,-0.441807031631,0.946349960537,0.315098711443,0.0416900994096,0.0582794118945,0.0,0.0,0.0,0.0,0.0,0.0
1609055176595232279,212,1609055176595232279,6.01910352707,2.07452702522,-0.417892426252,0.946935825873,0.315063709127,0.0382003256313,0.0508737259476,0.0,0.0,0.0,0.0,0.0,0.0
1609055176768648758,213,1609055176768648758,6.07572507858,2.1482565403,-0.393838793039,0.94745145877,0.315262393782,0.0354910982135,0.0410577433483,0.0,0.0,0.0,0.0,0.0,0.0
1609055176973699417,214,1609055176973699417,6.12267827988,2.19885873795,-0.348836243153,0.945789289948,0.321798459388,0.0290702231759,0.0329134118456,0.0,0.0,0.0,0.0,0.0,0.0
1609055177179930254,215,1609055177179930254,6.21112918854,2.27578282356,-0.332984507084,0.94275301785,0.330014257425,0.0355943702664,0.0322548916575,0.0,0.0,0.0,0.0,0.0,0.0
1609055177385627340,216,1609055177385627340,6.30660438538,2.33171463013,-0.369492679834,0.939814651386,0.335762833465,0.0426196827858,0.0468540643205,0.0,0.0,0.0,0.0,0.0,0.0
1609055177592128739,217,1609055177592128739,6.38721227646,2.37157773972,-0.388948261738,0.933580075959,0.350029117775,0.0484763699292,0.0596481352601,0.0,0.0,0.0,0.0,0.0,0.0
1609055177798069116,218,1609055177798069116,6.44618988037,2.4427986145,-0.344176203012,0.92787432919,0.363368780497,0.0566232497731,0.0616941340467,0.0,0.0,0.0,0.0,0.0,0.0
1609055177970719449,219,1609055177970719449,6.51795101166,2.51285195351,-0.340957254171,0.925217992735,0.371160126609,0.0596206756989,0.0515480490871,0.0,0.0,0.0,0.0,0.0,0.0
1609055178175993275,220,1609055178175993275,6.57331609726,2.56456398964,-0.363708794117,0.923838875385,0.374853996286,0.0586875189884,0.0506160933927,0.0,0.0,0.0,0.0,0.0,0.0
1609055178382372889,221,1609055178382372889,6.61694574356,2.61766338348,-0.344962507486,0.923917667287,0.374739388516,0.0567772439224,0.0521812163718,0.0,0.0,0.0,0.0,0.0,0.0
1609055178588810467,222,1609055178588810467,6.64334487915,2.66151762009,-0.361197292805,0.923628321156,0.375242336092,0.052709909745,0.0576678331265,0.0,0.0,0.0,0.0,0.0,0.0
1609055178795692541,223,1609055178795692541,6.65983724594,2.70672082901,-0.382125914097,0.920119652666,0.38260709405,0.0521693284015,0.0653452181513,0.0,0.0,0.0,0.0,0.0,0.0
1609055178968734885,224,1609055178968734885,6.66112947464,2.76147317886,-0.397703498602,0.914603352322,0.395971579247,0.0497172770927,0.065080017743,0.0,0.0,0.0,0.0,0.0,0.0
1609055179173195808,225,1609055179173195808,6.65964412689,2.83610391617,-0.419135421515,0.909017641843,0.409080290432,0.049012474811,0.0627536461998,0.0,0.0,0.0,0.0,0.0,0.0
1609055179379166884,226,1609055179379166884,6.61364412308,2.8953795433,-0.344918757677,0.903820091267,0.422181731645,0.0456171009988,0.0528290467782,0.0,0.0,0.0,0.0,0.0,0.0
1609055179585836362,227,1609055179585836362,6.59495687485,2.95379734039,-0.372912377119,0.898552413495,0.434571194076,0.0434392378734,0.0431795101204,0.0,0.0,0.0,0.0,0.0,0.0
1609055179792061813,228,1609055179792061813,6.57262039185,3.00042390823,-0.35886156559,0.891690702113,0.448633482181,0.0427678186024,0.0422682401197,0.0,0.0,0.0,0.0,0.0,0.0
1609055179998415990,229,1609055179998415990,6.54591178894,3.03741335869,-0.371780782938,0.884029685334,0.463404721401,0.0385470289083,0.0475573989312,0.0,0.0,0.0,0.0,0.0,0.0
1609055180170576717,230,1609055180170576717,6.52252674103,3.06697583199,-0.331662744284,0.876675031535,0.477282203043,0.0359949424976,0.0484453491775,0.0,0.0,0.0,0.0,0.0,0.0
1609055180376834506,231,1609055180376834506,6.52521133423,3.10246753693,-0.373423993587,0.871823119318,0.485858331359,0.0370452028795,0.0499377954525,0.0,0.0,0.0,0.0,0.0,0.0
1609055180582981378,232,1609055180582981378,6.51271390915,3.11148762703,-0.323700219393,0.866416908309,0.4959410148,0.0332243428392,0.0475435997694,0.0,0.0,0.0,0.0,0.0,0.0
1609055180789186657,233,1609055180789186657,6.48967981339,3.12111163139,-0.303719639778,0.856862205131,0.512059733814,0.0341913761552,0.0491216878858,0.0,0.0,0.0,0.0,0.0,0.0
1609055180995334002,234,1609055180995334002,6.49863386154,3.12922072411,-0.346040815115,0.84504680698,0.529870317928,0.0426659061508,0.0575583238453,0.0,0.0,0.0,0.0,0.0,0.0
1609055181168437410,235,1609055181168437410,6.48931598663,3.12870311737,-0.390318214893,0.834364484019,0.545446224522,0.0462041302342,0.0647263648927,0.0,0.0,0.0,0.0,0.0,0.0
1609055181373357256,236,1609055181373357256,6.45334672928,3.11400794983,-0.362776398659,0.824276573699,0.560921301983,0.0446644677657,0.0627734685365,0.0,0.0,0.0,0.0,0.0,0.0
1609055181579696414,237,1609055181579696414,6.42230224609,3.10624861717,-0.413903683424,0.814434820251,0.574964858166,0.0416840631238,0.0661345168417,0.0,0.0,0.0,0.0,0.0,0.0
1609055181785948087,238,1609055181785948087,6.37300395966,3.10721540451,-0.42015761137,0.804129700797,0.589554175964,0.0374145558738,0.0663434164673,0.0,0.0,0.0,0.0,0.0,0.0
1609055181992344840,239,1609055181992344840,6.31963586807,3.09320855141,-0.456962198019,0.792358984588,0.605088671115,0.0382979288239,0.067588521789,0.0,0.0,0.0,0.0,0.0,0.0
1609055182198189877,240,1609055182198189877,6.23964595795,3.07610940933,-0.465245425701,0.780118678236,0.620610145452,0.0377850017851,0.0694995602107,0.0,0.0,0.0,0.0,0.0,0.0
1609055182370233649,241,1609055182370233649,6.14074850082,3.07246994972,-0.454314172268,0.769208781441,0.635446278747,0.0295588608281,0.0604330300932,0.0,0.0,0.0,0.0,0.0,0.0
1609055182575896620,242,1609055182575896620,6.06058263779,3.0401494503,-0.474094837904,0.75729488402,0.650165121354,0.0257009705329,0.0559395542104,0.0,0.0,0.0,0.0,0.0,0.0
1609055182782315424,243,1609055182782315424,5.97136735916,3.00917816162,-0.461922973394,0.745468419093,0.663829351896,0.0244152176801,0.0548755395636,0.0,0.0,0.0,0.0,0.0,0.0
1609055182988781366,244,1609055182988781366,5.88388586044,2.97831654549,-0.454539597034,0.734143831588,0.676460435559,0.0234143219845,0.0537204168982,0.0,0.0,0.0,0.0,0.0,0.0
1609055183195009589,245,1609055183195009589,5.80425739288,2.94347143173,-0.477002471685,0.723257419726,0.687086211381,0.022163006877,0.0657270421351,0.0,0.0,0.0,0.0,0.0,0.0
1609055183368609803,246,1609055183368609803,5.71834897995,2.89524388313,-0.478772222996,0.713373923521,0.697069303419,0.0238989723004,0.0679769857706,0.0,0.0,0.0,0.0,0.0,0.0
1609055183573353833,247,1609055183573353833,5.62172365189,2.85547947884,-0.466806292534,0.703691762786,0.706785747866,0.02184311745,0.0692436843381,0.0,0.0,0.0,0.0,0.0,0.0
1609055183779735505,248,1609055183779735505,5.51452445984,2.79758691788,-0.458223849535,0.693978861199,0.716719095498,0.0160399293734,0.0667068139197,0.0,0.0,0.0,0.0,0.0,0.0
1609055183985826832,249,1609055183985826832,5.4118885994,2.75549864769,-0.430167853832,0.683349532782,0.727496826386,0.0171185302701,0.0590655531302,0.0,0.0,0.0,0.0,0.0,0.0
1609055184192144188,250,1609055184192144188,5.30799102783,2.70519852638,-0.405254304409,0.672402704683,0.737729923781,0.0106225673129,0.059298594901,0.0,0.0,0.0,0.0,0.0,0.0
1609055184398211426,251,1609055184398211426,5.20989370346,2.63433408737,-0.412790477276,0.662718154338,0.745939033742,0.00421314485393,0.0660443431355,0.0,0.0,0.0,0.0,0.0,0.0
1609055184570091874,252,1609055184570091874,5.12799406052,2.5878469944,-0.412525594234,0.653117024939,0.753999748241,0.00457861527337,0.0700111967436,0.0,0.0,0.0,0.0,0.0,0.0
1609055184776630183,253,1609055184776630183,5.03564310074,2.55685424805,-0.403250038624,0.643945630856,0.761850639123,0.00233309762797,0.0700869804221,0.0,0.0,0.0,0.0,0.0,0.0
1609055184982887987,254,1609055184982887987,4.9534406662,2.51509523392,-0.410882145166,0.630528292411,0.7727522517,0.00651533226909,0.0724263792218,0.0,0.0,0.0,0.0,0.0,0.0
1609055185188930550,255,1609055185188930550,4.85847139359,2.49009799957,-0.398243367672,0.620371211445,0.780818262867,0.0104224437415,0.0731694816879,0.0,0.0,0.0,0.0,0.0,0.0
1609055185395323277,256,1609055185395323277,4.75890922546,2.46212005615,-0.366143167019,0.611070660173,0.788566042925,0.0149138703956,0.0673336519959,0.0,0.0,0.0,0.0,0.0,0.0
1609055185568645232,257,1609055185568645232,4.66610240936,2.43152189255,-0.373174071312,0.602648161806,0.795267968829,0.0149369410032,0.0643501252532,0.0,0.0,0.0,0.0,0.0,0.0
1609055185773415066,258,1609055185773415066,4.56353235245,2.3871409893,-0.369824945927,0.592925397085,0.802425001023,0.0151261435067,0.0657631432302,0.0,0.0,0.0,0.0,0.0,0.0
1609055185979575652,259,1609055185979575652,4.4508023262,2.35518932343,-0.362257480621,0.582349566852,0.809816942473,0.0167277309544,0.0691786432912,0.0,0.0,0.0,0.0,0.0,0.0
1609055186185659879,260,1609055186185659879,4.34104347229,2.30116724968,-0.352618932724,0.573540332468,0.815888115117,0.0122178653487,0.0723104031931,0.0,0.0,0.0,0.0,0.0,0.0
1609055186391935052,261,1609055186391935052,4.22626018524,2.24683642387,-0.337889462709,0.564377415475,0.822446094666,0.00793198767868,0.0706939731653,0.0,0.0,0.0,0.0,0.0,0.0
1609055186597988270,262,1609055186597988270,4.10397052765,2.1970000267,-0.321880251169,0.554101133342,0.829403667756,0.00517522003503,0.0709556695413,0.0,0.0,0.0,0.0,0.0,0.0
1609055186770470375,263,1609055186770470375,3.97188448906,2.15017414093,-0.32304173708,0.544055799168,0.835915908017,0.00528457418532,0.0722492587674,0.0,0.0,0.0,0.0,0.0,0.0
1609055186976886989,264,1609055186976886989,3.84701728821,2.09482908249,-0.314137578011,0.531049250057,0.844534800095,0.0012039746903,0.0688927854557,0.0,0.0,0.0,0.0,0.0,0.0
1609055187182844682,265,1609055187182844682,3.71263432503,2.03646636009,-0.298004418612,0.513578722902,0.855468393723,-0.00182766965539,0.066388119023,0.0,0.0,0.0,0.0,0.0,0.0
1609055187388853002,266,1609055187388853002,3.57796812057,2.00563907623,-0.336487293243,0.498971665485,0.864064080771,0.00326001334988,0.066407180915,0.0,0.0,0.0,0.0,0.0,0.0
1609055187595822203,267,1609055187595822203,3.4511320591,1.9306293726,-0.303034335375,0.472539841694,0.878902657035,0.000253734406763,0.0650857364367,0.0,0.0,0.0,0.0,0.0,0.0
1609055187768624604,268,1609055187768624604,3.3140668869,1.87583971024,-0.347524732351,0.450054802367,0.890989948765,-0.00964749846986,0.0591143962092,0.0,0.0,0.0,0.0,0.0,0.0
1609055187973275355,269,1609055187973275355,3.19266366959,1.80741930008,-0.334419041872,0.428635143096,0.901421936083,-0.00912265663381,0.0602261105172,0.0,0.0,0.0,0.0,0.0,0.0
1609055188179005760,270,1609055188179005760,3.06913685799,1.73865771294,-0.382658928633,0.411616827799,0.9089626686,0.000977830422145,0.0660113476009,0.0,0.0,0.0,0.0,0.0,0.0
1609055188385860566,271,1609055188385860566,2.9397687912,1.67343711853,-0.343677908182,0.399049126333,0.915225519116,-0.00441339335141,0.0557006812314,0.0,0.0,0.0,0.0,0.0,0.0
1609055188592379341,272,1609055188592379341,2.82274150848,1.56974720955,-0.407550275326,0.386161289427,0.921618884359,-0.00617062971899,0.038210127838,0.0,0.0,0.0,0.0,0.0,0.0
1609055188798209354,273,1609055188798209354,2.73152923584,1.50035083294,-0.411517739296,0.37107847745,0.927638848623,-0.00528331094239,0.0419406333408,0.0,0.0,0.0,0.0,0.0,0.0
1609055188970407769,274,1609055188970407769,2.64901614189,1.39046490192,-0.46195051074,0.355156979258,0.933117457971,-0.00166303681572,0.0561476982815,0.0,0.0,0.0,0.0,0.0,0.0
1609055189176505753,275,1609055189176505753,2.56420373917,1.26857638359,-0.508665323257,0.340139469972,0.938289318341,0.00205545750587,0.0625625379104,0.0,0.0,0.0,0.0,0.0,0.0
1609055189382852898,276,1609055189382852898,2.46971416473,1.13665568829,-0.519266963005,0.325100853161,0.943347942695,0.0056897863992,0.0661189883287,0.0,0.0,0.0,0.0,0.0,0.0
1609055189588892816,277,1609055189588892816,2.37651896477,0.987220466137,-0.533156096935,0.310452233359,0.948186350369,0.00106339937228,0.067534620433,0.0,0.0,0.0,0.0,0.0,0.0
1609055189795141984,278,1609055189795141984,2.26337099075,0.838483810425,-0.555632352829,0.295653178372,0.953109590863,-0.00492353301661,0.064397707613,0.0,0.0,0.0,0.0,0.0,0.0
1609055189968552696,279,1609055189968552696,2.14833545685,0.682048738003,-0.547515869141,0.279613459158,0.958084074492,-0.0151772561231,0.0605051283738,0.0,0.0,0.0,0.0,0.0,0.0
1609055190173375933,280,1609055190173375933,2.04373764992,0.509432435036,-0.587696552277,-0.259522252487,-0.963650092483,0.0232045332111,-0.0590614033057,0.0,0.0,0.0,0.0,0.0,0.0
1609055190379431856,281,1609055190379431856,1.94666039944,0.354403614998,-0.610025525093,-0.238793094743,-0.968939096848,0.0303268214058,-0.0567024550252,0.0,0.0,0.0,0.0,0.0,0.0
1609055190585502226,282,1609055190585502226,1.83609223366,0.198299646378,-0.577282905579,-0.219825752878,-0.973360721863,0.0417282744443,-0.0500429277457,0.0,0.0,0.0,0.0,0.0,0.0
1609055190791344595,283,1609055190791344595,1.75663995743,0.0610833540559,-0.589203774929,-0.202361499532,-0.977305797038,0.0449125364066,-0.0436585232931,0.0,0.0,0.0,0.0,0.0,0.0
1609055190997698317,284,1609055190997698317,1.67113423347,-0.060994759202,-0.614219784737,-0.186486260245,-0.980803916653,0.045149119506,-0.0347578599153,0.0,0.0,0.0,0.0,0.0,0.0
1609055191170615433,285,1609055191170615433,1.62724518776,-0.184058263898,-0.631163597107,-0.168573741817,-0.984355599576,0.0417152581944,-0.0297789252113,0.0,0.0,0.0,0.0,0.0,0.0
1609055191376457927,286,1609055191376457927,1.60049128532,-0.295199871063,-0.661938726902,-0.149477771937,-0.987455477343,0.0376098885126,-0.0342574407838,0.0,0.0,0.0,0.0,0.0,0.0
1609055191582603344,287,1609055191582603344,1.5977678299,-0.402697622776,-0.691579699516,-0.129662479148,-0.99021531661,0.033634246178,-0.039115287746,0.0,0.0,0.0,0.0,0.0,0.0
1609055191788606395,288,1609055191788606395,1.59991288185,-0.496592491865,-0.688149690628,-0.110718548542,-0.992289485336,0.032040630161,-0.045567294406,0.0,0.0,0.0,0.0,0.0,0.0
1609055191994797428,289,1609055191994797428,1.61174416542,-0.601375102997,-0.716304242611,-0.0950713056007,-0.993584606333,0.0360999831663,-0.0494759348114,0.0,0.0,0.0,0.0,0.0,0.0
1609055192168036002,290,1609055192168036002,1.62382733822,-0.693987190723,-0.770312726498,-0.0800850438796,-0.994992891534,0.0287900798672,-0.0524086142267,0.0,0.0,0.0,0.0,0.0,0.0
1609055192372841837,291,1609055192372841837,1.64179730415,-0.79530775547,-0.749423265457,-0.0655237166847,-0.996185299539,0.0262321736745,-0.0513163190237,0.0,0.0,0.0,0.0,0.0,0.0
1609055192579148754,292,1609055192579148754,1.64761710167,-0.900412023067,-0.732388973236,-0.0539706212822,-0.996919945765,0.028407400094,-0.0493032797463,0.0,0.0,0.0,0.0,0.0,0.0
1609055192785484392,293,1609055192785484392,1.67085850239,-1.00850379467,-0.721102535725,-0.041251094163,-0.99735604993,0.0309536630421,-0.051196949536,0.0,0.0,0.0,0.0,0.0,0.0
1609055192991957518,294,1609055192991957518,1.69292223454,-1.11957597733,-0.732462882996,-0.0290706396295,-0.997751379267,0.0279342483386,-0.0535421408974,0.0,0.0,0.0,0.0,0.0,0.0
1609055193197882773,295,1609055193197882773,1.71554338932,-1.23761427402,-0.702167928219,-0.0174995863806,-0.997976636097,0.0325930832134,-0.0517115964576,0.0,0.0,0.0,0.0,0.0,0.0
1609055193370196669,296,1609055193370196669,1.73119819164,-1.35371863842,-0.690657973289,-0.00647192343422,-0.997880176205,0.0364436615147,-0.0535268874379,0.0,0.0,0.0,0.0,0.0,0.0
1609055193575805471,297,1609055193575805471,1.74741113186,-1.47599995136,-0.693274497986,-0.00397534058047,0.997691992305,-0.0310171569418,0.060272888876,0.0,0.0,0.0,0.0,0.0,0.0
1609055193781970654,298,1609055193781970654,1.77255928516,-1.58791315556,-0.697697997093,-0.014714276958,0.997869987786,-0.0283891988902,0.0568597477672,0.0,0.0,0.0,0.0,0.0,0.0
1609055193988232986,299,1609055193988232986,1.78205609322,-1.71149659157,-0.662167370319,-0.0237812374423,0.997716240383,-0.033822294823,0.0534116915525,0.0,0.0,0.0,0.0,0.0,0.0
1609055194195732241,300,1609055194195732241,1.80243587494,-1.83136820793,-0.658038914204,-0.0326301213776,0.997479734892,-0.0392689941176,0.0492686488528,0.0,0.0,0.0,0.0,0.0,0.0
1609055194367923266,301,1609055194367923266,1.81869626045,-1.9494818449,-0.612577736378,-0.0416005596078,0.997163597127,-0.0414771998486,0.0470509925299,0.0,0.0,0.0,0.0,0.0,0.0
1609055194572567091,302,1609055194572567091,1.84742796421,-2.07389354706,-0.624615132809,-0.0502095498807,0.996925236044,-0.0374095436663,0.0471126403553,0.0,0.0,0.0,0.0,0.0,0.0
1609055194778571800,303,1609055194778571800,1.87814640999,-2.18351602554,-0.635854303837,-0.0583836663127,0.99679295206,-0.0313507643242,0.0448585310467,0.0,0.0,0.0,0.0,0.0,0.0
1609055194985128634,304,1609055194985128634,1.90749561787,-2.30348038673,-0.56937789917,-0.0655209806865,0.996544923855,-0.0304918945687,0.0409323856353,0.0,0.0,0.0,0.0,0.0,0.0
1609055195191329627,305,1609055195191329627,1.9622272253,-2.43213653564,-0.573653101921,-0.0740165177432,0.995910945228,-0.0318811051633,0.0408232704378,0.0,0.0,0.0,0.0,0.0,0.0
1609055195397633616,306,1609055195397633616,2.00870037079,-2.56274700165,-0.502208411694,-0.081924032759,0.994985302974,-0.0390082092272,0.0420839557839,0.0,0.0,0.0,0.0,0.0,0.0
1609055195569557035,307,1609055195569557035,2.08401799202,-2.68982768059,-0.555703341961,-0.0917683576118,0.993834397359,-0.0404280704236,0.0473004258875,0.0,0.0,0.0,0.0,0.0,0.0
1609055195775873303,308,1609055195775873303,2.14204192162,-2.80789017677,-0.510939061642,-0.101384441897,0.992886977047,-0.0426683843897,0.0455637435461,0.0,0.0,0.0,0.0,0.0,0.0
1609055195981968561,309,1609055195981968561,2.2171690464,-2.94339752197,-0.50219887495,-0.110874148997,0.991704218476,-0.0460012861815,0.0459733380453,0.0,0.0,0.0,0.0,0.0,0.0
1609055196188273084,310,1609055196188273084,2.28825187683,-3.04390716553,-0.499243080616,-0.120541362062,0.990507039685,-0.0449691116126,0.0484082985376,0.0,0.0,0.0,0.0,0.0,0.0
1609055196395142909,311,1609055196395142909,2.35755300522,-3.15683794022,-0.472395628691,-0.129764627621,0.989378117206,-0.0408087692543,0.0512516045063,0.0,0.0,0.0,0.0,0.0,0.0
1609055196567779582,312,1609055196567779582,2.42618894577,-3.26530361176,-0.451150625944,-0.138690760369,0.988093432522,-0.0432235253663,0.0506751265337,0.0,0.0,0.0,0.0,0.0,0.0
1609055196772766447,313,1609055196772766447,2.49217772484,-3.37638401985,-0.471427619457,-0.14679886366,0.98710422322,-0.0425545336242,0.0475863194461,0.0,0.0,0.0,0.0,0.0,0.0
1609055196979071850,314,1609055196979071850,2.56116700172,-3.47689223289,-0.421403706074,-0.154938616573,0.985826989331,-0.0445765622506,0.0463907566065,0.0,0.0,0.0,0.0,0.0,0.0
1609055197185511786,315,1609055197185511786,2.61569261551,-3.58077931404,-0.348469734192,-0.163766330021,0.984271595343,-0.0487450359508,0.0448769119168,0.0,0.0,0.0,0.0,0.0,0.0
1609055197391553235,316,1609055197391553235,2.6867787838,-3.67460536957,-0.34431502223,-0.174142142666,0.982474849067,-0.048924112079,0.0449901806684,0.0,0.0,0.0,0.0,0.0,0.0
1609055197597609639,317,1609055197597609639,2.75757670403,-3.7713766098,-0.317493259907,-0.18767432327,0.980281569456,-0.0421713584267,0.0452544969923,0.0,0.0,0.0,0.0,0.0,0.0
1609055197770144940,318,1609055197770144940,2.82534265518,-3.85541939735,-0.327777683735,-0.202069863332,0.978010399113,-0.032731147624,0.0399011470457,0.0,0.0,0.0,0.0,0.0,0.0
1609055197975872385,319,1609055197975872385,2.9035089016,-3.94692826271,-0.265587329865,-0.215722310105,0.975221578655,-0.0334794949974,0.0358591810125,0.0,0.0,0.0,0.0,0.0,0.0
1609055198182012436,320,1609055198182012436,2.99893522263,-4.05637454987,-0.21947273612,-0.229664541426,0.972044201483,-0.0357428152266,0.0332674004711,0.0,0.0,0.0,0.0,0.0,0.0
1609055198388325247,321,1609055198388325247,3.09961295128,-4.16596412659,-0.191448718309,-0.243446199541,0.968687562781,-0.0373590345195,0.0313473472828,0.0,0.0,0.0,0.0,0.0,0.0
1609055198594500287,322,1609055198594500287,3.21546626091,-4.28526878357,-0.147266402841,-0.257594068907,0.964912884404,-0.0381346512477,0.0336774338246,0.0,0.0,0.0,0.0,0.0,0.0
1609055198767716992,323,1609055198767716992,3.33612513542,-4.40440797806,-0.132001936436,-0.271678010366,0.960934895503,-0.0408651777428,0.0335443368703,0.0,0.0,0.0,0.0,0.0,0.0
1609055198972687959,324,1609055198972687959,3.46839141846,-4.51907444,-0.101694993675,-0.285073556439,0.957068774962,-0.041149936411,0.0325439724772,0.0,0.0,0.0,0.0,0.0,0.0
1609055199179060681,325,1609055199179060681,3.61254930496,-4.63527917862,-0.0843481123447,-0.298983615063,0.952594444633,-0.0444442564192,0.0346024572725,0.0,0.0,0.0,0.0,0.0,0.0
1609055199385176192,326,1609055199385176192,3.76460671425,-4.76760292053,-0.0426774062216,-0.317172951033,0.94620755415,-0.0513296975528,0.0381817463224,0.0,0.0,0.0,0.0,0.0,0.0
1609055199591250471,327,1609055199591250471,3.91569471359,-4.87442016602,-0.00980496313423,-0.336233494691,0.939122435733,-0.0585395301413,0.0396132700156,0.0,0.0,0.0,0.0,0.0,0.0
1609055199797482701,328,1609055199797482701,4.06907510757,-4.98067951202,0.0115673122928,-0.355170260208,0.931927082216,-0.0629853780424,0.0374010942134,0.0,0.0,0.0,0.0,0.0,0.0
1609055199970109750,329,1609055199970109750,4.21881723404,-5.08076190948,0.0161034520715,-0.373958227534,0.924557524586,-0.0640343857333,0.035330231174,0.0,0.0,0.0,0.0,0.0,0.0
1609055200175630283,330,1609055200175630283,4.36815357208,-5.175740242,0.0526956357062,-0.392912077689,0.91666961044,-0.0646430709452,0.0340323064216,0.0,0.0,0.0,0.0,0.0,0.0
1609055200382116873,331,1609055200382116873,4.51501607895,-5.2586016655,0.0769419446588,-0.412251676477,0.908359400385,-0.0618104035022,0.0333351015207,0.0,0.0,0.0,0.0,0.0,0.0
1609055200588237532,332,1609055200588237532,4.66567659378,-5.31409645081,0.115527585149,-0.432340311775,0.898852582696,-0.0648666528714,0.0306301606297,0.0,0.0,0.0,0.0,0.0,0.0
1609055200794391296,333,1609055200794391296,4.81976222992,-5.37629127502,0.142863765359,-0.453547690101,0.888419578714,-0.0655457246669,0.0266252312576,0.0,0.0,0.0,0.0,0.0,0.0
1609055200967628417,334,1609055200967628417,4.98416852951,-5.42671394348,0.144088149071,-0.474356799892,0.877620646879,-0.0647398372049,0.0240079163157,0.0,0.0,0.0,0.0,0.0,0.0
1609055201172405081,335,1609055201172405081,5.13739824295,-5.46659421921,0.206023588777,-0.493565877819,0.866816810204,-0.0670798499296,0.0228393417761,0.0,0.0,0.0,0.0,0.0,0.0
1609055201378751559,336,1609055201378751559,5.29628324509,-5.49722099304,0.239939987659,-0.508293445903,0.858406815522,-0.0654178464735,0.0222714453957,0.0,0.0,0.0,0.0,0.0,0.0
1609055201584989996,337,1609055201584989996,5.46505689621,-5.51863336563,0.264072865248,-0.521770746536,0.850444721192,-0.0634201151093,0.0218392595087,0.0,0.0,0.0,0.0,0.0,0.0
1609055201790957498,338,1609055201790957498,5.63198900223,-5.53716278076,0.312531471252,-0.534821790123,0.842018622147,-0.0668599221357,0.0223616542115,0.0,0.0,0.0,0.0,0.0,0.0
1609055201997300321,339,1609055201997300321,5.80142784119,-5.54206609726,0.32956084609,-0.547032857481,0.834010701932,-0.0676045995808,0.0247147731996,0.0,0.0,0.0,0.0,0.0,0.0
1609055202169214168,340,1609055202169214168,5.9698638916,-5.55945205688,0.351785808802,-0.558305147394,0.826361798418,-0.0686643919693,0.0265846155553,0.0,0.0,0.0,0.0,0.0,0.0
1609055202375577038,341,1609055202375577038,6.13713979721,-5.55826663971,0.364493757486,-0.568901439981,0.81888503395,-0.0701321742961,0.0293245782495,0.0,0.0,0.0,0.0,0.0,0.0
1609055202581968268,342,1609055202581968268,6.29734420776,-5.5642375946,0.366109460592,-0.579765083863,0.810844657238,-0.0738559124097,0.0308008695301,0.0,0.0,0.0,0.0,0.0,0.0
1609055202788128460,343,1609055202788128460,6.44764280319,-5.55984258652,0.381314218044,-0.592250966187,0.802228409109,-0.0691431000219,0.029792690169,0.0,0.0,0.0,0.0,0.0,0.0
1609055202994891998,344,1609055202994891998,6.59425067902,-5.56315660477,0.39441293478,-0.605238704325,0.792678492778,-0.0681899889049,0.0264015773561,0.0,0.0,0.0,0.0,0.0,0.0
1609055203167636963,345,1609055203167636963,6.73420810699,-5.56621408463,0.395429939032,-0.618642688886,0.782229075769,-0.0697985161859,0.0229578668036,0.0,0.0,0.0,0.0,0.0,0.0
1609055203372327676,346,1609055203372327676,6.88113975525,-5.55967760086,0.386566162109,-0.632490450669,0.771196160466,-0.0696134954882,0.019138263776,0.0,0.0,0.0,0.0,0.0,0.0
1609055203578411868,347,1609055203578411868,7.01015710831,-5.55182123184,0.430950641632,-0.645716255075,0.759956612553,-0.0718521903148,0.0188076504651,0.0,0.0,0.0,0.0,0.0,0.0
1609055203784680773,348,1609055203784680773,7.14512348175,-5.546646595,0.430667698383,-0.658849137743,0.748219777085,-0.0768555696408,0.0133491681063,0.0,0.0,0.0,0.0,0.0,0.0
1609055203990636490,349,1609055203990636490,7.27964258194,-5.53457307816,0.448221921921,-0.670794597757,0.737271221286,-0.0798419145062,0.00954057503668,0.0,0.0,0.0,0.0,0.0,0.0
1609055204197013908,350,1609055204197013908,7.40820360184,-5.50942516327,0.475355297327,-0.682868893012,0.726149822553,-0.0789911149835,0.0125265284854,0.0,0.0,0.0,0.0,0.0,0.0
1609055204369091262,351,1609055204369091262,7.5387468338,-5.49119377136,0.464508116245,-0.695114064792,0.714740203767,-0.0765029872423,0.0104962369342,0.0,0.0,0.0,0.0,0.0,0.0
1609055204575117351,352,1609055204575117351,7.65983486176,-5.45603513718,0.472820878029,-0.70633816195,0.703740577162,-0.0760901953635,0.00677371384652,0.0,0.0,0.0,0.0,0.0,0.0
1609055204781353434,353,1609055204781353434,7.79416465759,-5.40068674088,0.461075544357,-0.715483282741,0.694799466329,-0.0730545744121,0.000634716272982,0.0,0.0,0.0,0.0,0.0,0.0
1609055204987529088,354,1609055204987529088,7.92400598526,-5.35876846313,0.461997717619,-0.724677390477,0.685335176694,-0.0718122450596,-0.00117336138269,0.0,0.0,0.0,0.0,0.0,0.0
1609055205194252721,355,1609055205194252721,8.05853176117,-5.29203367233,0.46804574132,-0.733651168076,0.675986266085,-0.0692596601059,0.00127715616525,0.0,0.0,0.0,0.0,0.0,0.0
1609055205367394743,356,1609055205367394743,8.21190452576,-5.25010871887,0.462126255035,-0.742640564581,0.666265387932,-0.0675836509759,0.00280620813703,0.0,0.0,0.0,0.0,0.0,0.0
1609055205572380298,357,1609055205572380298,8.35787010193,-5.18309164047,0.457750439644,-0.751879064336,0.655523530901,-0.070132869111,0.00693928807037,0.0,0.0,0.0,0.0,0.0,0.0
1609055205778440208,358,1609055205778440208,8.51279640198,-5.12320613861,0.440661132336,-0.762078222452,0.643405470013,-0.0717580729898,0.0108149425797,0.0,0.0,0.0,0.0,0.0,0.0
1609055205984538490,359,1609055205984538490,8.65395736694,-5.05971384048,0.454573720694,-0.772966191274,0.629722821961,-0.0767296241897,0.00921951302809,0.0,0.0,0.0,0.0,0.0,0.0
1609055206190686205,360,1609055206190686205,8.80994415283,-4.99818468094,0.423385500908,-0.784917376435,0.614657261728,-0.078067939953,0.00256115730641,0.0,0.0,0.0,0.0,0.0,0.0
1609055206396747845,361,1609055206396747845,8.95355796814,-4.91771841049,0.44325953722,-0.797355861513,0.598372073968,-0.0785756529562,0.000598304092816,0.0,0.0,0.0,0.0,0.0,0.0
1609055206569236658,362,1609055206569236658,9.10070514679,-4.84956598282,0.435278624296,-0.809512482069,0.582094187832,-0.076523837394,1.33255494697e-05,0.0,0.0,0.0,0.0,0.0,0.0
