%time,field.header.seq,field.header.stamp,field.pose.pose.position.x,field.pose.pose.position.y,field.pose.pose.position.z,field.pose.pose.orientation.x,field.pose.pose.orientation.y,field.pose.pose.orientation.z,field.pose.pose.orientation.w,field.twist.twist.linear.x,field.twist.twist.linear.y,field.twist.twist.linear.z,field.twist.twist.angular.x,field.twist.twist.angular.y,field.twist.twist.angular.z
1609059018178695050,25,1609059018178695050,-0.00734871160239,0.00988687295467,0.00155015976634,-0.95159356155,0.304282650956,-0.041532990492,-0.0125208883055,0.0,0.0,0.0,0.0,0.0,0.0
1609059018367440700,26,1609059018367440700,-0.00653173727915,0.00174061860889,-0.0014681314351,-0.951596383175,0.304269232472,-0.0415387486396,-0.0126130908731,0.0,0.0,0.0,0.0,0.0,0.0
1609059018572626874,27,1609059018572626874,-0.00624645641074,0.000222094386118,-0.00154655904043,-0.951581740121,0.304309865579,-0.0415777130358,-0.0126091775661,0.0,0.0,0.0,0.0,0.0,0.0
1609059018778500576,28,1609059018778500576,-0.00676315929741,0.000716038513929,0.00188229884952,-0.951622244485,0.304189689091,-0.0415489182091,-0.0125468819787,0.0,0.0,0.0,0.0,0.0,0.0
1609059018967651506,29,1609059018967651506,-0.0138370748609,-0.00185999204405,-0.00151955592446,-0.951616148168,0.30420795642,-0.0415294563845,-0.0126305205218,0.0,0.0,0.0,0.0,0.0,0.0
1609059019172344762,30,1609059019172344762,-0.00634013582021,-0.00161428039428,4.93049665238e-05,-0.95166380309,0.304054815549,-0.041566880987,-0.0126043418975,0.0,0.0,0.0,0.0,0.0,0.0
1609059019378281449,31,1609059019378281449,-0.00733475247398,0.00463849399239,0.000244435592322,-0.951651226482,0.304100701351,-0.0415363102967,-0.012547569487,0.0,0.0,0.0,0.0,0.0,0.0
1609059019567658708,32,1609059019567658708,-0.0054485751316,0.00776782911271,-0.00259111542255,-0.951496689901,0.304574552624,-0.0415898062278,-0.0125967860698,0.0,0.0,0.0,0.0,0.0,0.0
1609059019772648670,33,1609059019772648670,-0.00485437409952,0.0051979245618,-0.000214807878365,-0.951525807098,0.304490902936,-0.0415421924209,-0.0125767525667,0.0,0.0,0.0,0.0,0.0,0.0
1609059019980205938,34,1609059019980205938,0.00237548979931,0.0056782499887,0.00137977197301,-0.951600002853,0.304258280371,-0.0415678050224,-0.0125080366607,0.0,0.0,0.0,0.0,0.0,0.0
1609059020183548290,35,1609059020183548290,-0.0002961117425,0.00431441655383,0.00201154849492,-0.951626824175,0.304177582045,-0.0415556726724,-0.0124704514881,0.0,0.0,0.0,0.0,0.0,0.0
1609059020389884881,36,1609059020389884881,-0.0112956669182,0.000537610962056,0.000377536111046,-0.951601360025,0.304258006296,-0.0415602576456,-0.0124363253012,0.0,0.0,0.0,0.0,0.0,0.0
1609059020595948545,37,1609059020595948545,-0.00928576476872,0.000706559745595,0.00107548979577,-0.951598169817,0.304267710326,-0.0415842511881,-0.0123625930762,0.0,0.0,0.0,0.0,0.0,0.0
1609059020768152577,38,1609059020768152577,-0.0061220084317,-0.000447869591881,-0.000830162141938,-0.951613976592,0.304214916247,-0.0415388213484,-0.0125956583391,0.0,0.0,0.0,0.0,0.0,0.0
1609059020974766530,39,1609059020974766530,-0.00777604803443,-3.325229045e-06,0.000458477326902,-0.951611772235,0.304220533233,-0.0415573055824,-0.0125655265096,0.0,0.0,0.0,0.0,0.0,0.0
1609059021180338274,40,1609059021180338274,-0.00377453723922,0.00940755475312,0.00101294496562,-0.951627233516,0.304175536709,-0.0415492717537,-0.0125103683361,0.0,0.0,0.0,0.0,0.0,0.0
1609059021386394952,41,1609059021386394952,0.00312920776196,0.00577140692621,0.00112367805559,-0.951626230675,0.304176364495,-0.0415809941403,-0.0124610312478,0.0,0.0,0.0,0.0,0.0,0.0
1609059021592097238,42,1609059021592097238,-0.0079420376569,0.00511235836893,0.00166792515665,-0.951662550495,0.30406688559,-0.0415762483594,-0.0123747584127,0.0,0.0,0.0,0.0,0.0,0.0
1609059021766953188,43,1609059021766953188,-0.00681125279516,0.00191364495549,-0.0024885640014,-0.951703298787,0.303932507508,-0.0415478423426,-0.0126348230937,0.0,0.0,0.0,0.0,0.0,0.0
1609059021970662177,44,1609059021970662177,-0.00104635348544,0.0048750047572,-0.00146869081073,-0.951617478476,0.304197022915,-0.0415893472661,-0.0125965115119,0.0,0.0,0.0,0.0,0.0,0.0
1609059022178193247,45,1609059022178193247,-0.00360293802805,-0.000210018333746,0.000336344033713,-0.951599229064,0.30426072547,-0.0415515737862,-0.012561245842,0.0,0.0,0.0,0.0,0.0,0.0
1609059022383079061,46,1609059022383079061,-0.00600625621155,0.00211593997665,0.00101269595325,-0.951647986599,0.304110459568,-0.0415540588162,-0.0124979269843,0.0,0.0,0.0,0.0,0.0,0.0
1609059022589176923,47,1609059022589176923,-0.00819999538362,0.00839072093368,0.00141696375795,-0.951589050026,0.304297778565,-0.0415561306573,-0.0124189305462,0.0,0.0,0.0,0.0,0.0,0.0
1609059022796793517,48,1609059022796793517,-0.00492954626679,0.00795525126159,0.000792284903582,-0.951589747225,0.304296871053,-0.0415678711558,-0.0123482521733,0.0,0.0,0.0,0.0,0.0,0.0
1609059022967660877,49,1609059022967660877,-0.000507840071805,0.00640594493598,-0.00130212039221,-0.951650361809,0.304095987466,-0.0415711635064,-0.0126118056382,0.0,0.0,0.0,0.0,0.0,0.0
1609059023173918292,50,1609059023173918292,-0.000679153949022,0.00809198245406,0.000465088523924,-0.951555166441,0.304398685607,-0.0415512677681,-0.0125577692296,0.0,0.0,0.0,0.0,0.0,0.0
1609059023380221535,51,1609059023380221535,-0.00793818291277,-0.00114870886318,0.0014929327881,-0.951599254203,0.304264562249,-0.0415376727651,-0.0125122859905,0.0,0.0,0.0,0.0,0.0,0.0
1609059023586247549,52,1609059023586247549,-0.00455148844048,0.00916086509824,0.00135427969508,-0.951611834913,0.304224668818,-0.0415548026435,-0.0124685570082,0.0,0.0,0.0,0.0,0.0,0.0
1609059023792383401,53,1609059023792383401,-0.00854031648487,0.00728647597134,0.000714328256436,-0.951621912686,0.304196121729,-0.0415586145305,-0.0123829067518,0.0,0.0,0.0,0.0,0.0,0.0
1609059023967433979,54,1609059023967433979,-0.000854006968439,0.0149505967274,-0.001426972216,-0.951554943934,0.304394914623,-0.0415776959522,-0.0125785462625,0.0,0.0,0.0,0.0,0.0,0.0
1609059024172347633,55,1609059024172347633,0.00118240050506,0.0152312256396,-0.000270214804914,-0.951548945602,0.304420058276,-0.0415428575321,-0.0125388688159,0.0,0.0,0.0,0.0,0.0,0.0
1609059024378080722,56,1609059024378080722,-0.000458288006485,0.0164458155632,0.000999874901026,-0.95158793521,0.304296337476,-0.0415618643688,-0.0125200635451,0.0,0.0,0.0,0.0,0.0,0.0
1609059024582989231,57,1609059024582989231,-0.000294043624308,0.0139416372404,0.000612744712271,-0.951571037962,0.304350739307,-0.0415625366687,-0.0124796930951,0.0,0.0,0.0,0.0,0.0,0.0
1609059024789220682,58,1609059024789220682,-0.00168744847178,0.0130191743374,0.000229663259233,-0.951629967054,0.304166921401,-0.0415786254236,-0.0124140097808,0.0,0.0,0.0,0.0,0.0,0.0
1609059024995248621,59,1609059024995248621,0.00375825585797,0.0182854756713,0.00121226417832,-0.951572682363,0.304345638629,-0.041606178825,-0.0123324090186,0.0,0.0,0.0,0.0,0.0,0.0
1609059025167143138,60,1609059025167143138,-0.00306980311871,0.00782922189683,-0.00236104568467,-0.951584337628,0.304303608349,-0.0415711088233,-0.0125859142987,0.0,0.0,0.0,0.0,0.0,0.0
1609059025375380722,61,1609059025375380722,-0.00188713055104,0.0113645605743,0.000306996982545,-0.951576213614,0.304332496568,-0.0415554498943,-0.0125533182762,0.0,0.0,0.0,0.0,0.0,0.0
1609059025581265659,62,1609059025581265659,0.00162525940686,0.0130822584033,0.000634779396933,-0.951574481766,0.304339544028,-0.0415612648092,-0.0124943531257,0.0,0.0,0.0,0.0,0.0,0.0
1609059025786085582,63,1609059025786085582,-0.00820496678352,0.00900491513312,0.00122972682584,-0.951608490658,0.304237120072,-0.0415446546535,-0.012453792529,0.0,0.0,0.0,0.0,0.0,0.0
1609059025992651713,64,1609059025992651713,0.000999142997898,0.00648317206651,0.0021941922605,-0.951623200322,0.304189155141,-0.0415870153729,-0.0123597190583,0.0,0.0,0.0,0.0,0.0,0.0
1609059026166726065,65,1609059026166726065,0.00162324134726,0.0070408442989,-0.00124500435777,-0.951554673308,0.304398059218,-0.0415591427711,-0.0125842323091,0.0,0.0,0.0,0.0,0.0,0.0
1609059026370183611,66,1609059026370183611,0.00415915297344,0.0184304974973,-0.000863442604896,-0.951539757493,0.304442426699,-0.0415834579309,-0.012558453827,0.0,0.0,0.0,0.0,0.0,0.0
1609059026577076625,67,1609059026577076625,-0.00764802610502,0.00256328517571,0.000637569755781,-0.951527253419,0.304486387679,-0.0415531608464,-0.0125403565243,0.0,0.0,0.0,0.0,0.0,0.0
1609059026783007309,68,1609059026783007309,-0.00469420384616,0.00880724936724,0.000866596121341,-0.951596803034,0.304272040738,-0.0415535439629,-0.012464054926,0.0,0.0,0.0,0.0,0.0,0.0
1609059026989351026,69,1609059026989351026,-0.00565802678466,0.00834630709141,0.000897993857507,-0.951618722078,0.304200602002,-0.0415811776598,-0.0124421539981,0.0,0.0,0.0,0.0,0.0,0.0
1609059027196972139,70,1609059027196972139,-0.00613689469174,0.00932087097317,0.000497201515827,-0.951670675115,0.30404550744,-0.0415560763937,-0.012342935059,0.0,0.0,0.0,0.0,0.0,0.0
1609059027367329064,71,1609059027367329064,0.00444531301036,0.015849577263,-0.000979463686235,-0.951538042279,0.304444270715,-0.0416039097051,-0.0125759620539,0.0,0.0,0.0,0.0,0.0,0.0
1609059027573250013,72,1609059027573250013,-0.0108235217631,0.00244591967203,0.00061994389398,-0.951695799864,0.303962138021,-0.0415184110128,-0.0125835097609,0.0,0.0,0.0,0.0,0.0,0.0
1609059027779898475,73,1609059027779898475,-0.00322223175317,0.00444102706388,0.000695589755196,-0.95158100422,0.304319703205,-0.0415498448644,-0.0125188274324,0.0,0.0,0.0,0.0,0.0,0.0
1609059027986250088,74,1609059027986250088,-0.00517312483862,-0.000345931504853,0.00182712136302,-0.951654938748,0.304087882564,-0.0415657873988,-0.0124788842436,0.0,0.0,0.0,0.0,0.0,0.0
1609059028192186317,75,1609059028192186317,-0.00104160059709,0.0088161136955,0.00260445429012,-0.951643702779,0.304128887684,-0.0415520164083,-0.0123819452646,0.0,0.0,0.0,0.0,0.0,0.0
1609059028366970019,76,1609059028366970019,-3.19484424836e-05,0.00758414482698,-0.00107400550041,-0.95161724557,0.304195831609,-0.0415986792557,-0.0126120517488,0.0,0.0,0.0,0.0,0.0,0.0
1609059028570141873,77,1609059028570141873,-0.00596104608849,0.00653681159019,-0.0003337651724,-0.951588986646,0.304296157704,-0.0415191329574,-0.012586123263,0.0,0.0,0.0,0.0,0.0,0.0
1609059028777006944,78,1609059028777006944,-0.00897066202015,0.000900648126844,0.00144256872591,-0.951532173481,0.304474490637,-0.0415301742925,-0.0125320391782,0.0,0.0,0.0,0.0,0.0,0.0
1609059028982651864,79,1609059028982651864,-0.00484920665622,0.00652446504682,0.00182108674198,-0.951620123439,0.304198170184,-0.0415600218481,-0.0124650914868,0.0,0.0,0.0,0.0,0.0,0.0
1609059029188636064,80,1609059029188636064,-0.00815162621439,0.00630378071219,0.00140113953967,-0.951547328654,0.304431425568,-0.0415359632656,-0.0124077480989,0.0,0.0,0.0,0.0,0.0,0.0
1609059029394959322,81,1609059029394959322,-0.00713010085747,0.00779808778316,0.000694252667017,-0.951665437483,0.304054801644,-0.0415958702583,-0.0123837100845,0.0,0.0,0.0,0.0,0.0,0.0
1609059029568681692,82,1609059029568681692,-0.0109789595008,0.00294149341062,-0.00124306755606,-0.951626481715,0.304177180945,-0.041524174861,-0.0126105032642,0.0,0.0,0.0,0.0,0.0,0.0
1609059029780179523,83,1609059029780179523,-0.00702345138416,0.00557364383712,0.00150577328168,-0.951603757185,0.304249554493,-0.0415432540036,-0.0125162274232,0.0,0.0,0.0,0.0,0.0,0.0
1609059029986491231,84,1609059029986491231,-0.00571513362229,0.00213402858935,0.00194555008784,-0.951726636922,0.303864676225,-0.0415632310064,-0.0124565221282,0.0,0.0,0.0,0.0,0.0,0.0
1609059030192771680,85,1609059030192771680,-0.0108362380415,0.00384057918563,0.000443009572336,-0.951666732636,0.304055341024,-0.0415606856145,-0.012389067765,0.0,0.0,0.0,0.0,0.0,0.0
1609059030369461773,86,1609059030369461773,-0.0144805600867,0.000716656097211,-0.00157906755339,-0.951688159104,0.303975776909,-0.0415756815691,-0.0126426886425,0.0,0.0,0.0,0.0,0.0,0.0
1609059030575567640,87,1609059030575567640,-0.00891850236803,0.00512070115656,1.51892563736e-05,-0.951635096283,0.304154111706,-0.0415127921459,-0.0125542002059,0.0,0.0,0.0,0.0,0.0,0.0
1609059030781719730,88,1609059030781719730,-0.0121762342751,0.00177032547072,0.00121633987874,-0.951645947927,0.304118380326,-0.0415355750104,-0.0125218429302,0.0,0.0,0.0,0.0,0.0,0.0
1609059030988535418,89,1609059030988535418,-0.00438427506015,0.0166203510016,0.00267880409956,-0.951554909173,0.304407704399,-0.0415433822237,-0.0123835263856,0.0,0.0,0.0,0.0,0.0,0.0
1609059031193632234,90,1609059031193632234,0.00079199107131,0.0117543414235,0.00115204567555,-0.951580191345,0.304327406766,-0.0415649620717,-0.0123419147045,0.0,0.0,0.0,0.0,0.0,0.0
1609059031367552471,91,1609059031367552471,-0.00901856645942,0.0080451220274,-0.000328019843437,-0.951623075636,0.304181628789,-0.0415700965837,-0.0126089529701,0.0,0.0,0.0,0.0,0.0,0.0
1609059031573636250,92,1609059031573636250,-0.00670246314257,0.00783010385931,2.64282352873e-05,-0.951643721184,0.304126662612,-0.0415117309906,-0.0125688985433,0.0,0.0,0.0,0.0,0.0,0.0
1609059031779003409,93,1609059031779003409,-0.00332560925744,0.0101608838886,0.00156043667812,-0.95163316068,0.304156013876,-0.0415552742819,-0.0125142277668,0.0,0.0,0.0,0.0,0.0,0.0
1609059031984583377,94,1609059031984583377,-0.0031621826347,0.0121149364859,0.00148298288696,-0.951583719673,0.304312665174,-0.0415599688516,-0.0124497091271,0.0,0.0,0.0,0.0,0.0,0.0
1609059032190745001,95,1609059032190745001,-0.00388581701554,0.0100266318768,0.00116094679106,-0.95165793768,0.304082820589,-0.0415578860088,-0.0123995961539,0.0,0.0,0.0,0.0,0.0,0.0
1609059032397250387,96,1609059032397250387,-0.00109765748493,0.00801898445934,0.0015826363815,-0.951667377994,0.304050218573,-0.0415978358506,-0.0123404335375,0.0,0.0,0.0,0.0,0.0,0.0
1609059032568936803,97,1609059032568936803,-0.00950190797448,0.0049399221316,-0.00136487500276,-0.951661087422,0.304068073629,-0.0415315492527,-0.012606018556,0.0,0.0,0.0,0.0,0.0,0.0
1609059032775384605,98,1609059032775384605,-0.000423603167292,0.0100323464721,0.000269430835033,-0.951507268254,0.304543841235,-0.0415868907496,-0.0125498105345,0.0,0.0,0.0,0.0,0.0,0.0
1609059032981785892,99,1609059032981785892,-0.00461097992957,0.00733920931816,6.08919617662e-05,-0.951660890979,0.304070054505,-0.0415477362304,-0.0125194308656,0.0,0.0,0.0,0.0,0.0,0.0
1609059033187373404,100,1609059033187373404,0.000189732410945,0.0084717348218,0.00174600922037,-0.951601938941,0.304256825197,-0.0415560334162,-0.0124350396803,0.0,0.0,0.0,0.0,0.0,0.0
1609059033393647880,101,1609059033393647880,-0.0103277042508,0.00334305129945,0.000970703666098,-0.9516967811,0.303956447029,-0.0415953881462,-0.0123910789664,0.0,0.0,0.0,0.0,0.0,0.0
1609059033566900894,102,1609059033566900894,-0.00385541166179,0.00366971129552,-0.000698955205735,-0.951607160746,0.30424110064,-0.0415028821725,-0.0125966292937,0.0,0.0,0.0,0.0,0.0,0.0
1609059033771908933,103,1609059033771908933,-0.00836488045752,0.00520278792828,-0.000313142314553,-0.951592701587,0.304277767827,-0.0415705849842,-0.0125800141998,0.0,0.0,0.0,0.0,0.0,0.0
1609059033978591476,104,1609059033978591476,-0.00351879140362,0.00746366241947,0.000912572082598,-0.951662438084,0.30406484718,-0.0415437884428,-0.0125413831857,0.0,0.0,0.0,0.0,0.0,0.0
1609059034184546199,105,1609059034184546199,0.00267700082622,0.0189214162529,0.00207784795202,-0.95156953728,0.304360707126,-0.0415375284876,-0.0124342030513,0.0,0.0,0.0,0.0,0.0,0.0
1609059034390798760,106,1609059034390798760,-0.0112157640979,0.00473924679682,0.000281338434434,-0.951607990113,0.304232781556,-0.0415909274016,-0.0124435741109,0.0,0.0,0.0,0.0,0.0,0.0
1609059034597388094,107,1609059034597388094,-0.0149244340137,-0.000724240031559,0.000395012670197,-0.951762105996,0.303760108491,-0.0415417406435,-0.0123682603182,0.0,0.0,0.0,0.0,0.0,0.0
1609059034768651178,108,1609059034768651178,-0.0105215124786,0.0030638219323,-0.00159132864792,-0.951691209044,0.303963896785,-0.0415957235221,-0.0126328090183,0.0,0.0,0.0,0.0,0.0,0.0
1609059034974968682,109,1609059034974968682,-0.0105077093467,-0.00153669831343,-0.000874524121173,-0.951687574467,0.303984129712,-0.0415445556036,-0.0125880652626,0.0,0.0,0.0,0.0,0.0,0.0
1609059035181508493,110,1609059035181508493,0.00160208821762,0.00829111412168,0.000902573170606,-0.951619168093,0.30420281013,-0.0415337705775,-0.0125121991568,0.0,0.0,0.0,0.0,0.0,0.0
1609059035387870127,111,1609059035387870127,-0.00757404509932,-0.00435583200306,0.00246761366725,-0.951700109519,0.303942988203,-0.0415958413463,-0.0124638455701,0.0,0.0,0.0,0.0,0.0,0.0
1609059035593838353,112,1609059035593838353,-0.0135323964059,-0.00174081884325,0.0016003199853,-0.951719880644,0.303898899319,-0.0414923314553,-0.0123739326668,0.0,0.0,0.0,0.0,0.0,0.0
1609059035767211026,113,1609059035767211026,-0.00995417032391,-0.00890582427382,-0.00193338596728,-0.951686032061,0.303982496061,-0.0415702787038,-0.0126590045665,0.0,0.0,0.0,0.0,0.0,0.0
1609059035972873136,114,1609059035972873136,-0.00403300300241,0.00643505109474,-6.24235326541e-05,-0.951663519577,0.304053664819,-0.0415873418413,-0.0125860007755,0.0,0.0,0.0,0.0,0.0,0.0
1609059036178774033,115,1609059036178774033,-0.00796836335212,-0.00158845772967,0.000868687406182,-0.951612992974,0.304223600888,-0.0415169208255,-0.0125322604246,0.0,0.0,0.0,0.0,0.0,0.0
1609059036384078215,116,1609059036384078215,-0.0216071847826,-0.0149212367833,0.00166422710754,-0.951714212314,0.30390221765,-0.0415525119116,-0.0125255315911,0.0,0.0,0.0,0.0,0.0,0.0
1609059036591870594,117,1609059036591870594,-0.0201804991812,-0.005782736931,0.000406334875152,-0.951721767848,0.303887834777,-0.0415206984009,-0.0124053248136,0.0,0.0,0.0,0.0,0.0,0.0
1609059036796529107,118,1609059036796529107,-0.0159713793546,0.0014607431367,4.67751524411e-05,-0.951761378065,0.303756252641,-0.0415813146545,-0.0123859790163,0.0,0.0,0.0,0.0,0.0,0.0
1609059036968831608,119,1609059036968831608,-0.013111946173,-0.00236364430748,-0.00128042313736,-0.951683893937,0.303986301931,-0.0415988055155,-0.0126346206613,0.0,0.0,0.0,0.0,0.0,0.0
1609059037174883410,120,1609059037174883410,-0.0125018870458,-0.00560822105035,-0.000506986165419,-0.951655629332,0.304086981716,-0.0415259769599,-0.0125803000641,0.0,0.0,0.0,0.0,0.0,0.0
1609059037383863613,121,1609059037383863613,-0.00747796939686,0.000325529865222,0.000701024895534,-0.951755338041,0.303764702801,-0.0416198172103,-0.0125128996435,0.0,0.0,0.0,0.0,0.0,0.0
1609059037587566965,122,1609059037587566965,-0.00840531196445,0.000307232548948,0.0007786595379,-0.951639185618,0.304138782473,-0.0415585107237,-0.0124640113473,0.0,0.0,0.0,0.0,0.0,0.0
1609059037793764185,123,1609059037793764185,-0.00101946515497,0.0112308450043,0.000929949223064,-0.951640015664,0.304137407547,-0.0415726713184,-0.0123867233846,0.0,0.0,0.0,0.0,0.0,0.0
1609059037967562992,124,1609059037967562992,-0.0109745962545,-0.00609122728929,-0.0015661357902,-0.951682718508,0.303989756853,-0.0415951755713,-0.0126519718438,0.0,0.0,0.0,0.0,0.0,0.0
1609059038173689063,125,1609059038173689063,0.002599054249,0.00340625084937,0.000495776243042,-0.951638807746,0.304137433959,-0.0415485500598,-0.0125586163465,0.0,0.0,0.0,0.0,0.0,0.0
1609059038378317387,126,1609059038378317387,-0.00937819387764,-0.005644579418,-0.00038082129322,-0.95172192559,0.303871525108,-0.0415879338123,-0.0125664768489,0.0,0.0,0.0,0.0,0.0,0.0
1609059038584953606,127,1609059038584953606,-0.00455105910078,-0.00343667739071,0.00105549220461,-0.951744375743,0.303813159512,-0.0415213705998,-0.0124973249855,0.0,0.0,0.0,0.0,0.0,0.0
1609059038790471867,128,1609059038790471867,0.000726318568923,0.00321886851452,0.000506211654283,-0.951635929848,0.304143229657,-0.0416113498005,-0.012427728818,0.0,0.0,0.0,0.0,0.0,0.0
1609059038996345170,129,1609059038996345170,-0.00892710778862,-0.00238808733411,0.00063466525171,-0.951757538181,0.303767892116,-0.0415900843938,-0.0123661277507,0.0,0.0,0.0,0.0,0.0,0.0
1609059039168852935,130,1609059039168852935,-0.00287763774395,-0.00655096489936,-0.00105597160291,-0.951652105318,0.304091351451,-0.0415630284256,-0.0126188385139,0.0,0.0,0.0,0.0,0.0,0.0
1609059039376215934,131,1609059039376215934,-0.00668119639158,-0.00255200453103,-0.000248172378633,-0.951682027008,0.303994219145,-0.0415955905951,-0.012595278433,0.0,0.0,0.0,0.0,0.0,0.0
1609059039567144768,132,1609059039567144768,-0.0061859311536,0.00398205174133,-0.0024305365514,-0.951616756477,0.30420411207,-0.0415517923461,-0.0126037908754,0.0,0.0,0.0,0.0,0.0,0.0
1609059039771687550,133,1609059039771687550,-0.0035825886298,0.00480750435963,-0.000574246048927,-0.951639429059,0.304130646811,-0.0415771281346,-0.0125813014514,0.0,0.0,0.0,0.0,0.0,0.0
1609059039978095062,134,1609059039978095062,-0.00784468278289,0.00416278839111,0.000494992011227,-0.951672681865,0.304028700356,-0.0415721959742,-0.012546253382,0.0,0.0,0.0,0.0,0.0,0.0
1609059040189886479,135,1609059040189886479,-0.0026161049027,0.00613038474694,0.00119133992121,-0.951622571859,0.304195164496,-0.0415458757368,-0.0123985013056,0.0,0.0,0.0,0.0,0.0,0.0
1609059040394795955,136,1609059040394795955,-0.00907733663917,0.0087990257889,-0.000251852761721,-0.951707969453,0.303918044359,-0.0416190021023,-0.0123944284754,0.0,0.0,0.0,0.0,0.0,0.0
1609059040567986483,137,1609059040567986483,-0.00626940093935,-0.00432487903163,-0.00221795053221,-0.951725602618,0.303860475928,-0.0415633786232,-0.0126362196586,0.0,0.0,0.0,0.0,0.0,0.0
1609059040773321728,138,1609059040773321728,-0.0141284903511,-0.00481119798496,-0.0010316092521,-0.951788497029,0.303668574638,-0.0415327511654,-0.0126128617214,0.0,0.0,0.0,0.0,0.0,0.0
1609059040980399093,139,1609059040980399093,-0.0177407599986,-0.010775256902,-0.000491100479849,-0.951814203469,0.303583055481,-0.0415711396499,-0.0126051913228,0.0,0.0,0.0,0.0,0.0,0.0
1609059041186012414,140,1609059041186012414,-0.0101716155186,0.00171832018532,0.000957022595685,-0.951728785599,0.30386297633,-0.0415226474102,-0.0124691631586,0.0,0.0,0.0,0.0,0.0,0.0
1609059041392050314,141,1609059041392050314,-9.93498542812e-05,0.00673373509198,0.000618640449829,-0.951674432078,0.304019200572,-0.0416353306042,-0.01243383518,0.0,0.0,0.0,0.0,0.0,0.0
1609059041566852451,142,1609059041566852451,-0.00577655760571,-0.00122934614774,-0.00171493296511,-0.951683644584,0.303996214668,-0.0415385346694,-0.0126131770971,0.0,0.0,0.0,0.0,0.0,0.0
1609059041770574932,143,1609059041770574932,-0.005904590711,0.00141048280057,-0.000473228254123,-0.951725070739,0.303866804493,-0.0415391271934,-0.0126037996659,0.0,0.0,0.0,0.0,0.0,0.0
1609059041976293131,144,1609059041976293131,-0.0065533220768,0.00583942141384,0.000705892976839,-0.951693801988,0.303963269495,-0.0415651766904,-0.0125528539191,0.0,0.0,0.0,0.0,0.0,0.0
1609059042182323876,145,1609059042182323876,-0.00485995644704,-0.000833409256302,0.00150011701044,-0.951729844604,0.303858660719,-0.0415154968631,-0.0125172167837,0.0,0.0,0.0,0.0,0.0,0.0
1609059042389225803,146,1609059042389225803,-0.00650018872693,0.00205025239848,0.00143120402936,-0.951745579554,0.303800870928,-0.0415936932685,-0.0124638398088,0.0,0.0,0.0,0.0,0.0,0.0
1609059042594581294,147,1609059042594581294,-0.00194882217329,0.00318290293217,-0.000101782832644,-0.951769967587,0.303724382933,-0.0416152344691,-0.012393557683,0.0,0.0,0.0,0.0,0.0,0.0
1609059042768176885,148,1609059042768176885,-0.00507425051183,-0.000528001051862,-0.00268336129375,-0.95169640225,0.303952133402,-0.0415687191957,-0.0126134899718,0.0,0.0,0.0,0.0,0.0,0.0
1609059042973109102,149,1609059042973109102,-0.00817220285535,0.000161151663633,-0.000969719549175,-0.951580158366,0.304313621541,-0.0415902568103,-0.0125965268196,0.0,0.0,0.0,0.0,0.0,0.0
1609059043181415165,150,1609059043181415165,-0.00484531419352,0.0122431423515,0.000330690469127,-0.951718367852,0.303896342074,-0.0415098180168,-0.0124938615001,0.0,0.0,0.0,0.0,0.0,0.0
1609059043385930030,151,1609059043385930030,-0.0047664497979,0.000685497187078,0.00193221098743,-0.951649851397,0.30410382412,-0.0415734982336,-0.0124526597831,0.0,0.0,0.0,0.0,0.0,0.0
1609059043591886138,152,1609059043591886138,-0.00429977755994,0.015234220773,-0.000210757541936,-0.95156800908,0.30436370703,-0.0415644825459,-0.0123875634628,0.0,0.0,0.0,0.0,0.0,0.0
1609059043766734616,153,1609059043766734616,-0.00362551934086,0.00988735724241,-0.00229243631475,-0.951619552768,0.304193496303,-0.0415592168458,-0.0126243847836,0.0,0.0,0.0,0.0,0.0,0.0
1609059043971364173,154,1609059043971364173,-0.00248095113784,0.00368957384489,-0.000748494407162,-0.951694200282,0.303957567143,-0.0415772763966,-0.0126204839178,0.0,0.0,0.0,0.0,0.0,0.0
1609059044176630518,155,1609059044176630518,0.00804906804115,0.0138468034565,0.00123156083282,-0.951552309046,0.304407047307,-0.0415704134587,-0.0125081343218,0.0,0.0,0.0,0.0,0.0,0.0
1609059044383007919,156,1609059044383007919,0.000410872715292,0.0144077837467,0.00032241671579,-0.951554973258,0.30439536215,-0.0415983872995,-0.0124968213328,0.0,0.0,0.0,0.0,0.0,0.0
1609059044588596070,157,1609059044588596070,-0.00573090137914,-0.000498908222653,0.000974280410446,-0.951692019521,0.303972387165,-0.0415715568807,-0.0124456209377,0.0,0.0,0.0,0.0,0.0,0.0
1609059044794835379,158,1609059044794835379,-0.00906929094344,0.00333969388157,-0.000152601482114,-0.951726511015,0.303863337287,-0.041591327387,-0.0124049171566,0.0,0.0,0.0,0.0,0.0,0.0
1609059044966937238,159,1609059044966937238,-0.0135867288336,-0.00294951186515,-0.00157755916007,-0.951666798443,0.304046661658,-0.0415524227225,-0.0126225370235,0.0,0.0,0.0,0.0,0.0,0.0
1609059045173593599,160,1609059045173593599,-0.00237651099451,0.00849448423833,-0.000619513681158,-0.951709454893,0.303917815724,-0.0415376390418,-0.0125578380018,0.0,0.0,0.0,0.0,0.0,0.0
1609059045379862473,161,1609059045379862473,0.00307254632935,0.00471958843991,0.00141159608029,-0.951603672797,0.304245666358,-0.0415757223453,-0.0125093458223,0.0,0.0,0.0,0.0,0.0,0.0
1609059045585567835,162,1609059045585567835,-0.00273052696139,0.00403154967353,0.00213367096148,-0.951646235552,0.304118284265,-0.0415556529429,-0.0124354028304,0.0,0.0,0.0,0.0,0.0,0.0
1609059045792053953,163,1609059045792053953,-0.00306625012308,-0.000928295427002,0.00046525511425,-0.951629012348,0.304165616912,-0.0416086795705,-0.0124184592613,0.0,0.0,0.0,0.0,0.0,0.0
1609059045968484901,164,1609059045968484901,-0.0134262405336,-0.00807176996022,-0.00185128103476,-0.951641948032,0.304119951706,-0.0415816377642,-0.0126342835621,0.0,0.0,0.0,0.0,0.0,0.0
1609059046171445364,165,1609059046171445364,-0.0114481355995,-0.00417875917628,-0.00106535921805,-0.951695983635,0.303956064998,-0.0415447008812,-0.0126294541573,0.0,0.0,0.0,0.0,0.0,0.0
1609059046375938712,166,1609059046375938712,-0.0101446136832,-0.00823947042227,0.000696822651662,-0.951709477151,0.3039132887,-0.041564325425,-0.0125773965695,0.0,0.0,0.0,0.0,0.0,0.0
1609059046584461358,167,1609059046584461358,-0.00501125818118,0.00511143775657,0.000689980224706,-0.951716944584,0.303899454471,-0.0415228323133,-0.0124833232884,0.0,0.0,0.0,0.0,0.0,0.0
1609059046790023818,168,1609059046790023818,-0.00587591622025,0.00680862693116,0.00076463498408,-0.951676454664,0.304016792307,-0.0416075408303,-0.0124309364166,0.0,0.0,0.0,0.0,0.0,0.0
1609059046995128014,169,1609059046995128014,0.000415839371271,0.0132585642859,-3.86797037208e-05,-0.951589689284,0.304296362891,-0.0415766811396,-0.0123355731769,0.0,0.0,0.0,0.0,0.0,0.0
1609059047167858924,170,1609059047167858924,-0.00275932066143,0.00503570726141,-0.000233988161199,-0.951593352584,0.304276200652,-0.0415676501107,-0.0125783742793,0.0,0.0,0.0,0.0,0.0,0.0
1609059047374055491,171,1609059047374055491,0.00827143993229,0.023346632719,0.000313168478897,-0.951551779305,0.304402235653,-0.041614502751,-0.0125189213816,0.0,0.0,0.0,0.0,0.0,0.0
1609059047580589449,172,1609059047580589449,0.00210561277345,0.0053132455796,0.00112341868225,-0.951593596895,0.304283779078,-0.0415370332024,-0.0124772998001,0.0,0.0,0.0,0.0,0.0,0.0
1609059047786373671,173,1609059047786373671,-0.00311493873596,0.00716568762437,0.00158562790602,-0.951639162853,0.304132408953,-0.0416142521306,-0.0124352550694,0.0,0.0,0.0,0.0,0.0,0.0
1609059047992578071,174,1609059047992578071,0.00151174771599,0.00773086445406,0.00104787177406,-0.951697887286,0.303959110025,-0.041555310696,-0.0123752543647,0.0,0.0,0.0,0.0,0.0,0.0
1609059048167322469,175,1609059048167322469,0.00030594796408,0.00954035576433,-0.0016331434017,-0.951606739529,0.304237059531,-0.0415419294744,-0.0125973404211,0.0,0.0,0.0,0.0,0.0,0.0
1609059048370614204,176,1609059048370614204,0.000617496029008,0.0107113039121,-0.00110020721331,-0.951664186441,0.304051813308,-0.0415814536319,-0.0125997532961,0.0,0.0,0.0,0.0,0.0,0.0
1609059048577192081,177,1609059048577192081,0.000759574119002,0.00756048737094,0.00121947855223,-0.951626467004,0.304178950693,-0.0415331769994,-0.0125390773448,0.0,0.0,0.0,0.0,0.0,0.0
1609059048783399908,178,1609059048783399908,0.00294539518654,0.0154563952237,0.0019530467689,-0.951557562228,0.304390679946,-0.041586468418,-0.0124533278146,0.0,0.0,0.0,0.0,0.0,0.0
1609059048989261821,179,1609059048989261821,-0.00107951229438,-0.000634184340015,0.00122286495753,-0.951744252763,0.303809175033,-0.0415725121442,-0.0124333717395,0.0,0.0,0.0,0.0,0.0,0.0
1609059049196131720,180,1609059049196131720,-3.04468703689e-05,0.0095660733059,0.000523434602655,-0.951670643182,0.30403594513,-0.0416202283935,-0.0123647710372,0.0,0.0,0.0,0.0,0.0,0.0
1609059049367838294,181,1609059049367838294,-0.00402138289064,0.00119904265739,-0.00128988083452,-0.951697430114,0.303949535957,-0.0415631653623,-0.0126168296942,0.0,0.0,0.0,0.0,0.0,0.0
1609059049574147833,182,1609059049574147833,-0.000643381092232,0.00507986964658,0.00029970696778,-0.951662115013,0.304063259919,-0.0415597725186,-0.0125514192038,0.0,0.0,0.0,0.0,0.0,0.0
1609059049780191481,183,1609059049780191481,0.00952558405697,0.0185618083924,0.00195491919294,-0.951583425462,0.304312244192,-0.0415593326122,-0.0124845621932,0.0,0.0,0.0,0.0,0.0,0.0
1609059049986975505,184,1609059049986975505,-0.00655334163457,0.00320177082904,0.00153141620103,-0.951650313996,0.304105004946,-0.0415548437404,-0.0124507349303,0.0,0.0,0.0,0.0,0.0,0.0
1609059050193180768,185,1609059050193180768,-7.74076324888e-05,0.00925103668123,0.00149520894047,-0.951673207264,0.304030450227,-0.041595515855,-0.0123856760129,0.0,0.0,0.0,0.0,0.0,0.0
1609059050368005280,186,1609059050368005280,-0.00341271283105,-0.000625561224297,-0.000651378242765,-0.951689499556,0.303974922869,-0.0415630532467,-0.0126037814289,0.0,0.0,0.0,0.0,0.0,0.0
1609059050571431292,187,1609059050571431292,0.000553545425646,0.00538547802716,0.000251592515269,-0.95159276127,0.304279805323,-0.0415546818441,-0.0125787593616,0.0,0.0,0.0,0.0,0.0,0.0
1609059050777885989,188,1609059050777885989,-0.00614476297051,0.00739139365032,-0.000253141741268,-0.951575866157,0.304334977495,-0.0415517048314,-0.0125318891453,0.0,0.0,0.0,0.0,0.0,0.0
1609059050983542839,189,1609059050983542839,-0.00752795906737,0.00502882292494,0.0018846152816,-0.951670846412,0.304044074905,-0.0415191811934,-0.0124883224691,0.0,0.0,0.0,0.0,0.0,0.0
1609059051189657841,190,1609059051189657841,0.00325065362267,0.0122846141458,0.00148860062473,-0.951638466737,0.304138350668,-0.0415948465921,-0.0124081028434,0.0,0.0,0.0,0.0,0.0,0.0
1609059051394830495,191,1609059051394830495,0.00129691534676,0.0128128798679,-0.000188512873137,-0.951602036702,0.30425842831,-0.0415659899587,-0.0123547976833,0.0,0.0,0.0,0.0,0.0,0.0
1609059051569617797,192,1609059051569617797,-0.00566515605897,0.0101170586422,-0.000971699832007,-0.951673292448,0.304028598253,-0.041546228501,-0.0125883590239,0.0,0.0,0.0,0.0,0.0,0.0
1609059051773582220,193,1609059051773582220,-0.00651244213805,0.00662412215024,-0.000531395839062,-0.951683111959,0.303997405799,-0.0415548680772,-0.0125707843199,0.0,0.0,0.0,0.0,0.0,0.0
1609059051980395806,194,1609059051980395806,-0.0111879771575,0.00175532873254,0.000826564151794,-0.95174402527,0.303810303108,-0.0415411038177,-0.0125278402715,0.0,0.0,0.0,0.0,0.0,0.0
1609059052186551900,195,1609059052186551900,-0.00770314922556,-0.000934647745453,0.000871637021191,-0.951654090734,0.304089328909,-0.0415787123275,-0.0124652442345,0.0,0.0,0.0,0.0,0.0,0.0
1609059052392294605,196,1609059052392294605,-0.00357289030217,0.00757881626487,9.83214413282e-05,-0.951688868088,0.303985388211,-0.0415591849027,-0.0124103288617,0.0,0.0,0.0,0.0,0.0,0.0
1609059052567350706,197,1609059052567350706,-0.00633792439476,0.00567678036168,-0.000936201016884,-0.951634891096,0.304147968871,-0.0415516922796,-0.0125898351838,0.0,0.0,0.0,0.0,0.0,0.0
1609059052771056823,198,1609059052771056823,-0.000145401718328,0.0160689782351,-0.00112103065476,-0.951550922643,0.304409104629,-0.0415627716193,-0.0125886715559,0.0,0.0,0.0,0.0,0.0,0.0
1609059052977640767,199,1609059052977640767,-0.00474347686395,0.0123891131952,1.74389970198e-05,-0.951599665277,0.304261227613,-0.0415507157664,-0.0125188032962,0.0,0.0,0.0,0.0,0.0,0.0
1609059053183998413,200,1609059053183998413,0.00395144196227,0.0242867171764,0.00146251590922,-0.951521903322,0.30450400756,-0.0415864097715,-0.0124075542099,0.0,0.0,0.0,0.0,0.0,0.0
1609059053390376344,201,1609059053390376344,-0.00572067778558,0.000697163108271,0.00214219046757,-0.951598009156,0.30426593468,-0.0415841774999,-0.0124187819556,0.0,0.0,0.0,0.0,0.0,0.0
1609059053595710268,202,1609059053595710268,-0.00680735334754,0.00858861673623,-1.65759411175e-06,-0.951561179156,0.304385888627,-0.0415687572108,-0.0123527953123,0.0,0.0,0.0,0.0,0.0,0.0
1609059053767761861,203,1609059053767761861,0.002386582084,0.0176207385957,-0.000798600609414,-0.951539987252,0.304437036408,-0.041612330166,-0.0125760686087,0.0,0.0,0.0,0.0,0.0,0.0
1609059053974373699,204,1609059053974373699,-0.00284016458318,0.0174555294216,-0.000306834088406,-0.951586351243,0.304300395046,-0.0415653899806,-0.0125301260402,0.0,0.0,0.0,0.0,0.0,0.0
1609059054180104606,205,1609059054180104606,-0.000221834357944,0.0190499369055,0.000798578548711,-0.951524359802,0.304496003168,-0.0415649739487,-0.0124871813849,0.0,0.0,0.0,0.0,0.0,0.0
1609059054386482336,206,1609059054386482336,-0.00927296373993,0.00686735520139,0.00025017693406,-0.951597989613,0.304263577996,-0.0415885258034,-0.0124633780236,0.0,0.0,0.0,0.0,0.0,0.0
1609059054593273350,207,1609059054593273350,-0.00268068909645,0.00508126942441,0.000551121600438,-0.951582063037,0.304323008631,-0.0415502489748,-0.0123555871326,0.0,0.0,0.0,0.0,0.0,0.0
1609059054767718970,208,1609059054767718970,-0.00852282997221,0.00903798732907,-0.00109828205314,-0.951552601851,0.304395902573,-0.0416101047985,-0.0126245628517,0.0,0.0,0.0,0.0,0.0,0.0
1609059054971021132,209,1609059054971021132,-0.00516470335424,0.0103656305,-0.000651086505968,-0.951584415792,0.304315344794,-0.041487210227,-0.0125730637915,0.0,0.0,0.0,0.0,0.0,0.0
1609059055177270671,210,1609059055177270671,-0.00346484780312,0.0121967736632,-0.000223227310926,-0.951522523292,0.30450572021,-0.041528013879,-0.0125131167239,0.0,0.0,0.0,0.0,0.0,0.0
1609059055383661038,211,1609059055383661038,-0.0121313668787,0.0054623298347,0.000891947071068,-0.951520743058,0.304493038694,-0.0416634096951,-0.0125070064065,0.0,0.0,0.0,0.0,0.0,0.0
1609059055590354963,212,1609059055590354963,-0.0100111402571,0.00212707417086,0.000252364872722,-0.951599696703,0.304268661339,-0.0415237093709,-0.0124249958059,0.0,0.0,0.0,0.0,0.0,0.0
1609059055795801887,213,1609059055795801887,-0.0045764814131,0.00585811398923,0.00115560763516,-0.95165987139,0.304071006749,-0.0416009210539,-0.0123965885798,0.0,0.0,0.0,0.0,0.0,0.0
1609059055967802829,214,1609059055967802829,-0.0074928146787,0.0028583414387,-0.0014351416612,-0.95166178366,0.304060951566,-0.0415545172792,-0.0126494801477,0.0,0.0,0.0,0.0,0.0,0.0
1609059056174474891,215,1609059056174474891,-0.00386250647716,0.00812723021954,6.04412925895e-05,-0.951655970213,0.304088755674,-0.0415161444864,-0.0125440335118,0.0,0.0,0.0,0.0,0.0,0.0
1609059056380512412,216,1609059056380512412,0.000548153650016,0.0129229333252,0.000882162596099,-0.951656052866,0.304073712197,-0.0416269428786,-0.0125352391868,0.0,0.0,0.0,0.0,0.0,0.0
1609059056586775173,217,1609059056586775173,-0.00105790793896,0.0109522780403,0.000955455703661,-0.951643537653,0.30413231185,-0.0415141610384,-0.0124373858174,0.0,0.0,0.0,0.0,0.0,0.0
1609059056792631265,218,1609059056792631265,-0.00182037975173,0.00691773043945,0.000447360682301,-0.951655018357,0.304075721878,-0.0416688153323,-0.0124254267108,0.0,0.0,0.0,0.0,0.0,0.0
1609059056967681006,219,1609059056967681006,0.00299508636817,0.00551741896197,-0.000818973814603,-0.951726447679,0.303858250506,-0.0415736839538,-0.0125921082311,0.0,0.0,0.0,0.0,0.0,0.0
1609059057170929566,220,1609059057170929566,0.00189906032756,0.00137932016514,-0.000374543247744,-0.951690745839,0.303976993505,-0.041529224134,-0.0125712071017,0.0,0.0,0.0,0.0,0.0,0.0
1609059057377639382,221,1609059057377639382,-0.00210022157989,0.000717969669495,0.000563520239666,-0.951616009268,0.30419938193,-0.0416167181001,-0.0125600841248,0.0,0.0,0.0,0.0,0.0,0.0
1609059057584298928,222,1609059057584298928,-0.00128196727019,0.00212680944242,0.00136399560142,-0.951678560683,0.30402583007,-0.0414812810123,-0.0124705698667,0.0,0.0,0.0,0.0,0.0,0.0
1609059057789085371,223,1609059057789085371,0.00854559987783,0.0162137895823,0.00224960013293,-0.951565175476,0.304363111892,-0.0416337073879,-0.0123873867227,0.0,0.0,0.0,0.0,0.0,0.0
1609059057995366356,224,1609059057995366356,0.00300022913143,0.0174101460725,0.000894294178579,-0.951641772932,0.30413657636,-0.0415581999105,-0.0123205093872,0.0,0.0,0.0,0.0,0.0,0.0
1609059058167446006,225,1609059058167446006,-0.00967847369611,-0.00241459417157,-0.00208787037991,-0.95167456129,0.304026143089,-0.0415267548831,-0.0126159558064,0.0,0.0,0.0,0.0,0.0,0.0
1609059058374098262,226,1609059058374098262,-0.00492612319067,-0.000388440152165,-0.000133427689434,-0.951688333168,0.303971773362,-0.0416059938202,-0.0126261153576,0.0,0.0,0.0,0.0,0.0,0.0
1609059058580303545,227,1609059058580303545,-0.0100114913657,-0.00221280567348,0.000563341891393,-0.951703706603,0.303941920654,-0.0414983605293,-0.0125399274441,0.0,0.0,0.0,0.0,0.0,0.0
1609059058786459758,228,1609059058786459758,-0.00489880377427,0.00496598705649,0.00137268577237,-0.951607668056,0.304233139594,-0.0415958700009,-0.0124429284267,0.0,0.0,0.0,0.0,0.0,0.0
1609059058992379987,229,1609059058992379987,-0.00559842446819,0.00742771849036,-0.000459745322587,-0.951600892767,0.304254580891,-0.0416099380639,-0.0123896709388,0.0,0.0,0.0,0.0,0.0,0.0
1609059059167334358,230,1609059059167334358,-0.00511146849021,0.000516626401804,-0.00264591164887,-0.951688916892,0.303974469089,-0.0415713361373,-0.012631374405,0.0,0.0,0.0,0.0,0.0,0.0
1609059059370611577,231,1609059059370611577,-0.0112259583548,-0.00268478016369,-0.00277024647221,-0.951650461752,0.304088926364,-0.0416142222875,-0.0126324982841,0.0,0.0,0.0,0.0,0.0,0.0
1609059059576750261,232,1609059059576750261,-0.0124989785254,-0.00559982145205,0.000510988233145,-0.951644209547,0.304125694044,-0.0415100041712,-0.0125610593627,0.0,0.0,0.0,0.0,0.0,0.0
1609059059782951934,233,1609059059782951934,-0.0113527467474,-0.00408947048709,0.00206650677137,-0.951611424016,0.304222728363,-0.041572879661,-0.0124869894717,0.0,0.0,0.0,0.0,0.0,0.0
1609059059989011868,234,1609059059989011868,-0.00428427383304,0.00391041394323,0.00101736688521,-0.951705287865,0.303933472602,-0.0415574820842,-0.0124283935207,0.0,0.0,0.0,0.0,0.0,0.0
1609059060196821296,235,1609059060196821296,-0.0154886180535,-3.07166628772e-05,-0.000655398878735,-0.951631237332,0.304162817791,-0.0415921063538,-0.0123719479802,0.0,0.0,0.0,0.0,0.0,0.0
1609059060367718868,236,1609059060367718868,-0.00698288576677,0.00505255721509,-0.00230521103367,-0.951613668631,0.304208553964,-0.0415866364348,-0.0126147944981,0.0,0.0,0.0,0.0,0.0,0.0
1609059060574186444,237,1609059060574186444,-0.00872089900076,0.000458241032902,-0.00188540713862,-0.951638244442,0.304139893335,-0.0415332919834,-0.0125921664219,0.0,0.0,0.0,0.0,0.0,0.0
1609059060780160204,238,1609059060780160204,-0.00589206255972,0.00556796090677,-0.000520676316228,-0.951650187494,0.304090607697,-0.0416353194457,-0.0125428516527,0.0,0.0,0.0,0.0,0.0,0.0
1609059060986135540,239,1609059060986135540,-0.0122635196894,-0.0036039117258,0.000581430387683,-0.951639194415,0.304144664255,-0.0415181736761,-0.0124542407655,0.0,0.0,0.0,0.0,0.0,0.0
1609059061192555065,240,1609059061192555065,-0.00355221121572,0.00704423291609,0.00105798779987,-0.951596724344,0.304266569183,-0.0416206144277,-0.0123795617826,0.0,0.0,0.0,0.0,0.0,0.0
1609059061366942771,241,1609059061366942771,-0.00743469921872,0.00524441199377,-0.00180088507477,-0.951658010318,0.304069709884,-0.04158801264,-0.0126126972913,0.0,0.0,0.0,0.0,0.0,0.0
1609059061570440241,242,1609059061570440241,-0.00489505333826,0.0121789602563,0.00048715819139,-0.951549152551,0.304426065545,-0.0414953412298,-0.0125346540466,0.0,0.0,0.0,0.0,0.0,0.0
1609059061777023730,243,1609059061777023730,-0.0120611246675,-0.00274000642821,-0.00322296610102,-0.951539506943,0.304431022405,-0.0416520666814,-0.0126263480692,0.0,0.0,0.0,0.0,0.0,0.0
1609059061983156318,244,1609059061983156318,-0.00496747298166,-0.00480716302991,-0.00258941552602,-0.951499072716,0.304584438746,-0.0414634888596,-0.0125941806413,0.0,0.0,0.0,0.0,0.0,0.0
1609059062190235055,245,1609059062190235055,-0.00758066168055,0.00555784581229,0.00281264958903,-0.95200941022,0.302977752831,-0.0415588924749,-0.0124668599881,0.0,0.0,0.0,0.0,0.0,0.0
1609059062395689978,246,1609059062395689978,-0.0224390495569,0.0202701371163,-0.00689176982269,-0.951949797823,0.303153338175,-0.0416729353242,-0.0123694154699,0.0,0.0,0.0,0.0,0.0,0.0
1609059062567358948,247,1609059062567358948,-0.00266523170285,-0.0130066880956,-0.0457151308656,0.95126861043,-0.305245400177,0.0416126394673,0.0134783054459,0.0,0.0,0.0,0.0,0.0,0.0
1609059062773002577,248,1609059062773002577,-0.0117245288566,0.0185375828296,-0.00494507094845,-0.952248996276,0.302123098741,-0.0427754888947,-0.0106648886215,0.0,0.0,0.0,0.0,0.0,0.0
1609059062979963642,249,1609059062979963642,-0.0031152185984,0.0112026864663,-0.0266220457852,-0.951502189381,0.304454754736,-0.0427957433392,-0.0109275008444,0.0,0.0,0.0,0.0,0.0,0.0
1609059063185272288,250,1609059063185272288,-0.0148492772132,-0.0214008558542,0.00628918129951,-0.951736063945,0.303759839682,-0.0421239971815,-0.0124094014511,0.0,0.0,0.0,0.0,0.0,0.0
1609059063391099258,251,1609059063391099258,-0.0275591984391,-0.00294099305756,0.00300873280503,-0.951817570609,0.303688290873,-0.0409662186697,-0.0117687380046,0.0,0.0,0.0,0.0,0.0,0.0
1609059063566746578,252,1609059063566746578,-0.00845837965608,-0.00806511100382,-0.0178434383124,-0.951577872764,0.304229486005,-0.0424709948364,-0.0118400383447,0.0,0.0,0.0,0.0,0.0,0.0
1609059063770276245,253,1609059063770276245,-0.012210519053,-0.0138608692214,-0.00642698910087,-0.951747106031,0.303747981863,-0.0418836329485,-0.0126637658786,0.0,0.0,0.0,0.0,0.0,0.0
1609059063976685097,254,1609059063976685097,-0.0213484484702,-0.0170570462942,-0.00376850110479,-0.951701709548,0.303939914908,-0.0415157989021,-0.0126815855308,0.0,0.0,0.0,0.0,0.0,0.0
1609059064183238508,255,1609059064183238508,-0.000229134908295,-0.0165248010308,-0.00844791997224,-0.95176126558,0.303537425867,-0.0430131950509,-0.0128603845485,0.0,0.0,0.0,0.0,0.0,0.0
1609059064389173714,256,1609059064389173714,-0.00450750440359,-0.0140830855817,-0.00920878630131,-0.951593291263,0.304089310058,-0.0427535834724,-0.0131160448288,0.0,0.0,0.0,0.0,0.0,0.0
1609059064594903351,257,1609059064594903351,-0.00912320334464,-0.00791543349624,0.00146009097807,-0.951936311567,0.303120321996,-0.042221024697,-0.012357758136,0.0,0.0,0.0,0.0,0.0,0.0
1609059064766754004,258,1609059064766754004,-0.0232805088162,-0.0184271261096,0.00710728298873,-0.952171105217,0.302461210086,-0.0417333353311,-0.0120719304879,0.0,0.0,0.0,0.0,0.0,0.0
1609059064973077157,259,1609059064973077157,-0.027199536562,-0.0280771777034,0.00301445880905,0.95224158036,-0.302271251171,0.0411701835352,0.0131559620323,0.0,0.0,0.0,0.0,0.0,0.0
1609059065179494445,260,1609059065179494445,-0.0132514601573,0.00286865560338,0.0254952460527,-0.952170361952,0.30208025964,-0.0438974653395,-0.0138611360414,0.0,0.0,0.0,0.0,0.0,0.0
1609059065385856585,261,1609059065385856585,-0.0193618889898,0.000140242293128,-0.0382069684565,-0.954031367382,0.298841894458,-0.0218989212273,-0.00617328257383,0.0,0.0,0.0,0.0,0.0,0.0
1609059065590945695,262,1609059065590945695,-0.00141288700979,0.0400612130761,0.0913062617183,-0.954173434789,0.298921087537,-0.0105001604002,0.00943326030061,0.0,0.0,0.0,0.0,0.0,0.0
1609059065766740457,263,1609059065766740457,-0.00435896776617,0.0501422844827,0.182887285948,-0.954087589352,0.299151935616,-0.00907140348747,0.0119457481957,0.0,0.0,0.0,0.0,0.0,0.0
1609059065970417045,264,1609059065970417045,-0.00319956894964,0.0538038648665,0.290203630924,-0.954126942389,0.298950352965,-0.00824415361557,0.0142301862721,0.0,0.0,0.0,0.0,0.0,0.0
1609059066176645096,265,1609059066176645096,-0.00903430301696,0.0259754806757,0.400899291039,-0.954237984991,0.298449000337,-0.00788804045512,0.01720002954,0.0,0.0,0.0,0.0,0.0,0.0
1609059066382909670,266,1609059066382909670,0.0598307065666,-0.00664312392473,0.521991550922,-0.953968017014,0.299126828479,-0.0207892327465,0.00599756621596,0.0,0.0,0.0,0.0,0.0,0.0
1609059066589093061,267,1609059066589093061,0.0713271871209,0.0369926132262,0.587962806225,-0.953707676101,0.300170378215,-0.0179669246554,0.00407458067445,0.0,0.0,0.0,0.0,0.0,0.0
1609059066794165660,268,1609059066794165660,0.0839372351766,0.0304741952568,0.701274812222,-0.953881993832,0.299582928526,-0.0177949470751,0.00652308503217,0.0,0.0,0.0,0.0,0.0,0.0
1609059066966284656,269,1609059066966284656,0.0790965780616,-0.00785308238119,0.754565060139,-0.954214964276,0.298498781895,-0.0183317480996,0.00601881798692,0.0,0.0,0.0,0.0,0.0,0.0
1609059067173925419,270,1609059067173925419,0.0831026360393,-0.0309303011745,0.855097651482,-0.954336962089,0.298030492139,-0.0189192089053,0.00780077441366,0.0,0.0,0.0,0.0,0.0,0.0
1609059067380087090,271,1609059067380087090,0.110610477626,-0.0411816313863,0.973132789135,-0.954165541683,0.298452436602,-0.0199503686444,0.00981045069199,0.0,0.0,0.0,0.0,0.0,0.0
1609059067585828143,272,1609059067585828143,0.132028892636,-0.103602536023,1.23123776913,-0.953811959941,0.298601660193,-0.0323366808392,0.00584231762845,0.0,0.0,0.0,0.0,0.0,0.0
1609059067791935369,273,1609059067791935369,0.13427016139,-0.116442136467,1.28905320168,-0.953806910243,0.298832708459,-0.0304110978746,0.00515319833655,0.0,0.0,0.0,0.0,0.0,0.0
1609059067966809500,274,1609059067966809500,0.140493869781,-0.117637276649,1.39926743507,-0.953789366452,0.298993581636,-0.0295247891849,0.00411939396719,0.0,0.0,0.0,0.0,0.0,0.0
1609059068170340190,275,1609059068170340190,0.149052411318,-0.114594370127,1.55303692818,-0.953932036512,0.298843132445,-0.0264334963935,0.00277888031756,0.0,0.0,0.0,0.0,0.0,0.0
1609059068376716027,276,1609059068376716027,0.125799685717,-0.135812491179,1.69785940647,-0.953992961611,0.298730710173,-0.0244769073109,0.0076336756876,0.0,0.0,0.0,0.0,0.0,0.0
1609059068582490012,277,1609059068582490012,0.12099982053,-0.118541993201,1.84347558022,-0.953885761503,0.299366761349,-0.0209569864542,0.00650391576546,0.0,0.0,0.0,0.0,0.0,0.0
1609059068789410191,278,1609059068789410191,0.0783900246024,-0.187626391649,2.00542593002,-0.954035851185,0.29878263645,-0.0232941477059,0.00138329012964,0.0,0.0,0.0,0.0,0.0,0.0
1609059068995030324,279,1609059068995030324,0.0694195702672,-0.204517796636,2.13136768341,-0.954160394496,0.298487244892,-0.0218550382362,0.00237981428915,0.0,0.0,0.0,0.0,0.0,0.0
1609059069167038218,280,1609059069167038218,0.0540899001062,-0.237470328808,2.23690629005,-0.954217511451,0.298164544179,-0.0237975913057,0.000721167636099,0.0,0.0,0.0,0.0,0.0,0.0
1609059069373427401,281,1609059069373427401,0.0427101887763,-0.243849888444,2.26550579071,-0.954292454731,0.298070465641,-0.0218618179171,-0.00140330830856,0.0,0.0,0.0,0.0,0.0,0.0
1609059069579607293,282,1609059069579607293,0.0267674066126,-0.25992423296,2.40090918541,-0.954337700481,0.297782203256,-0.0237407083603,-0.00130062736882,0.0,0.0,0.0,0.0,0.0,0.0
1609059069785942072,283,1609059069785942072,-0.0184312351048,-0.254531830549,2.69271445274,-0.954341010061,0.297455411881,-0.0272649068049,0.0031842292941,0.0,0.0,0.0,0.0,0.0,0.0
1609059069991844086,284,1609059069991844086,-0.0396601036191,-0.277457624674,2.78409194946,-0.954219101721,0.297760547519,-0.0280431674191,0.00425946148296,0.0,0.0,0.0,0.0,0.0,0.0
1609059070166633263,285,1609059070166633263,-0.0729075744748,-0.295213758945,2.91900515556,-0.95442962287,0.29717767022,-0.0265334792578,0.00674550146131,0.0,0.0,0.0,0.0,0.0,0.0
1609059070370099766,286,1609059070370099766,-0.0886421427131,-0.285134762526,3.0379679203,-0.954535353546,0.296864719547,-0.026704193948,0.00452583086265,0.0,0.0,0.0,0.0,0.0,0.0
1609059070576222040,287,1609059070576222040,-0.148559466004,-0.325094670057,3.3075056076,-0.955000338197,0.295979120231,-0.0186297141,-0.00486293987478,0.0,0.0,0.0,0.0,0.0,0.0
1609059070782303524,288,1609059070782303524,-0.177343979478,-0.343430191278,3.3718214035,-0.954956179706,0.296067753903,-0.0196062355363,-0.00426326972164,0.0,0.0,0.0,0.0,0.0,0.0
1609059070988889757,289,1609059070988889757,-0.198503792286,-0.345526814461,3.57149982452,-0.954910058065,0.296263049386,-0.0193638948451,-0.000161713495032,0.0,0.0,0.0,0.0,0.0,0.0
1609059071194603528,290,1609059071194603528,-0.239162504673,-0.353397488594,3.66649889946,-0.955052189271,0.29513022972,-0.0253342690498,0.0114733641886,0.0,0.0,0.0,0.0,0.0,0.0
1609059071367039053,291,1609059071367039053,-0.256821006536,-0.367849886417,3.75691103935,-0.955113111591,0.294961297392,-0.0236634673621,0.0140291632131,0.0,0.0,0.0,0.0,0.0,0.0
1609059071573201633,292,1609059071573201633,-0.3113514781,-0.409666895866,3.99035477638,-0.955313090051,0.294880516008,-0.019463432741,0.00659970014893,0.0,0.0,0.0,0.0,0.0,0.0
1609059071779826830,293,1609059071779826830,-0.337700843811,-0.448585927486,4.04633617401,-0.955298797678,0.294796330588,-0.0222580690667,0.00197711636641,0.0,0.0,0.0,0.0,0.0,0.0
1609059071985846942,294,1609059071985846942,-0.354339540005,-0.469708949327,4.10335254669,-0.955379003449,0.294457261122,-0.0233627913929,0.000247223238424,0.0,0.0,0.0,0.0,0.0,0.0
1609059072192019038,295,1609059072192019038,-0.376530975103,-0.503322184086,4.18941020966,-0.955447296034,0.29422299858,-0.0234456622217,0.00189539752033,0.0,0.0,0.0,0.0,0.0,0.0
1609059072366813275,296,1609059072366813275,-0.393122851849,-0.543400287628,4.28765201569,-0.955493175641,0.294005617321,-0.0239533537751,0.0044412981847,0.0,0.0,0.0,0.0,0.0,0.0
1609059072570342433,297,1609059072570342433,-0.401748359203,-0.55925321579,4.34761285782,-0.955419140774,0.294312825486,-0.0232625346271,0.00361672213994,0.0,0.0,0.0,0.0,0.0,0.0
1609059072777905038,298,1609059072777905038,-0.414420962334,-0.618039011955,4.383061409,0.955449113515,-0.294381878137,0.0172592622329,0.0125864679366,0.0,0.0,0.0,0.0,0.0,0.0
1609059072982436974,299,1609059072982436974,-0.407922238111,-0.621279358864,4.34704732895,0.955493386531,-0.294128967035,0.0165566757051,0.015697628348,0.0,0.0,0.0,0.0,0.0,0.0
1609059073188654071,300,1609059073188654071,-0.39160618186,-0.627574622631,4.29887390137,0.955443449898,-0.294448825016,0.0134112844744,0.0157429648517,0.0,0.0,0.0,0.0,0.0,0.0
1609059073395094780,301,1609059073395094780,-0.384433239698,-0.639846980572,4.34202432632,0.955320574369,-0.294055638913,0.00678377458625,0.029118066777,0.0,0.0,0.0,0.0,0.0,0.0
1609059073567029067,302,1609059073567029067,-0.324922472239,-0.61200940609,4.25582742691,0.955033843999,-0.294249645902,0.00666379647505,0.0358203366679,0.0,0.0,0.0,0.0,0.0,0.0
1609059073773338687,303,1609059073773338687,-0.278394550085,-0.575773119926,4.38955259323,0.955520318142,-0.29351015874,0.0100317588529,0.0270568318265,0.0,0.0,0.0,0.0,0.0,0.0
1609059073979404961,304,1609059073979404961,-0.18085822463,-0.50547683239,4.27927160263,0.955825322424,-0.292940646181,0.0167610451332,0.0174010974813,0.0,0.0,0.0,0.0,0.0,0.0
1609059074184642139,305,1609059074184642139,-0.0906994640827,-0.432144403458,4.2510843277,0.955954132313,-0.292518449108,0.0168464512075,0.0173450548234,0.0,0.0,0.0,0.0,0.0,0.0
1609059074391838959,306,1609059074391838959,-0.00932921748608,-0.354547649622,4.23190450668,0.956154093575,-0.29175209064,0.0186255587673,0.0174113614265,0.0,0.0,0.0,0.0,0.0,0.0
1609059074566602647,307,1609059074566602647,0.0937736257911,-0.261324048042,4.17492437363,0.956166085029,-0.291557266098,0.0188808255785,0.0196033887675,0.0,0.0,0.0,0.0,0.0,0.0
1609059074770276774,308,1609059074770276774,0.20868074894,-0.139585539699,4.17420387268,0.956090233742,-0.29191313717,0.0198714581626,0.0168318282253,0.0,0.0,0.0,0.0,0.0,0.0
1609059074977368409,309,1609059074977368409,0.319591462612,-0.0208846461028,4.14078187943,0.955906110975,-0.292491850279,0.0202262601619,0.0168203127393,0.0,0.0,0.0,0.0,0.0,0.0
1609059075183011447,310,1609059075183011447,0.431060403585,0.106485016644,4.17756938934,0.955998603254,-0.292163491201,0.021624054567,0.0154778955161,0.0,0.0,0.0,0.0,0.0,0.0
1609059075388863221,311,1609059075388863221,0.545931458473,0.246012032032,4.15556430817,0.956160099135,-0.291712556806,0.0210674603934,0.014758425932,0.0,0.0,0.0,0.0,0.0,0.0
1609059075594962313,312,1609059075594962313,0.673898339272,0.423846811056,4.17756223679,0.956312956357,-0.291263789783,0.0223231776823,0.0115156417121,0.0,0.0,0.0,0.0,0.0,0.0
1609059075767082269,313,1609059075767082269,0.792634129524,0.59018266201,4.19979000092,0.956402608293,-0.290937222015,0.0228804659472,0.0112279995675,0.0,0.0,0.0,0.0,0.0,0.0
1609059075973187033,314,1609059075973187033,0.908940196037,0.753946781158,4.20371580124,0.956231805562,-0.291373209368,0.0241094937803,0.0118793604156,0.0,0.0,0.0,0.0,0.0,0.0
1609059076179558220,315,1609059076179558220,1.02279222012,0.918781936169,4.20971155167,0.956145211693,-0.29174516625,0.0225506032482,0.0127499968316,0.0,0.0,0.0,0.0,0.0,0.0
1609059076385815101,316,1609059076385815101,1.13604235649,1.09665119648,4.21821498871,0.956194515137,-0.291686339307,0.0213347159188,0.0124883377881,0.0,0.0,0.0,0.0,0.0,0.0
1609059076593003567,317,1609059076593003567,1.25574851036,1.29615044594,4.23431158066,0.956375139662,-0.291175055131,0.0210592911303,0.0109629267605,0.0,0.0,0.0,0.0,0.0,0.0
1609059076767221613,318,1609059076767221613,1.36836278439,1.49477791786,4.22993516922,0.956403049037,-0.290862200031,0.0239040704979,0.0109992636194,0.0,0.0,0.0,0.0,0.0,0.0
1609059076969852634,319,1609059076969852634,1.48626315594,1.70197999477,4.23817682266,0.956327940111,-0.291116173613,0.024189097893,0.010155391041,0.0,0.0,0.0,0.0,0.0,0.0
1609059077176174245,320,1609059077176174245,1.59608149529,1.91998505592,4.22745418549,-0.956175224123,0.290962642557,-0.0324282340634,-0.00425335684783,0.0,0.0,0.0,0.0,0.0,0.0
1609059077382045472,321,1609059077382045472,1.7049164772,2.14508867264,4.27021694183,-0.955705511822,0.291374528172,-0.0414173270976,0.00353044215095,0.0,0.0,0.0,0.0,0.0,0.0
1609059077588850063,322,1609059077588850063,1.79748463631,2.36755895615,4.25431394577,-0.955419823592,0.29148502354,-0.0469594502071,0.00206198323999,0.0,0.0,0.0,0.0,0.0,0.0
1609059077794802232,323,1609059077794802232,1.85178685188,2.58144569397,4.20943021774,-0.955722401178,0.291374636894,-0.0411645797001,-0.000995108093566,0.0,0.0,0.0,0.0,0.0,0.0
1609059077966075954,324,1609059077966075954,1.89404261112,2.81149482727,4.2814040184,-0.956122993138,0.291127164839,-0.0321148036454,0.00651423616895,0.0,0.0,0.0,0.0,0.0,0.0
1609059078173516793,325,1609059078173516793,1.92960703373,3.03086853027,4.27579450607,-0.956513510324,0.290615448566,-0.0229069138619,0.00999194274574,0.0,0.0,0.0,0.0,0.0,0.0
1609059078379583347,326,1609059078379583347,1.95428359509,3.24115586281,4.29130935669,-0.956662947541,0.290187647459,-0.0207874755168,0.0124504990334,0.0,0.0,0.0,0.0,0.0,0.0
1609059078585755140,327,1609059078585755140,1.98596405983,3.46150255203,4.30733394623,-0.956577427025,0.290638175787,-0.0197146367422,0.0100204779918,0.0,0.0,0.0,0.0,0.0,0.0
1609059078792506478,328,1609059078792506478,2.00035142899,3.65143990517,4.3634595871,-0.956805666844,0.290161124026,-0.0177488415905,0.00379692270516,0.0,0.0,0.0,0.0,0.0,0.0
1609059078966830350,329,1609059078966830350,2.04064893723,3.84828853607,4.35153055191,-0.956861097865,0.289734436813,-0.0214616812785,-0.00319245276638,0.0,0.0,0.0,0.0,0.0,0.0
1609059079170344375,330,1609059079170344375,2.05655789375,4.04278945923,4.36596059799,0.956814054709,-0.289868191135,0.0208625977444,0.00693170221747,0.0,0.0,0.0,0.0,0.0,0.0
1609059079377492311,331,1609059079377492311,2.08046269417,4.25290107727,4.43155002594,0.956958956572,-0.289278344147,0.022307986561,0.00706744501787,0.0,0.0,0.0,0.0,0.0,0.0
1609059079582644084,332,1609059079582644084,2.10226750374,4.46228599548,4.4413151741,-0.95706881789,0.288882962379,-0.0230785752845,-0.0057698555458,0.0,0.0,0.0,0.0,0.0,0.0
1609059079788611181,333,1609059079788611181,2.12763428688,4.68298482895,4.48103141785,-0.957129796252,0.288826355745,-0.0219461314085,-0.000506626394698,0.0,0.0,0.0,0.0,0.0,0.0
1609059079994981056,334,1609059079994981056,2.14729070663,4.90038251877,4.51805734634,-0.95733497969,0.288422279785,-0.0178220123507,0.00216819301474,0.0,0.0,0.0,0.0,0.0,0.0
1609059080166690023,335,1609059080166690023,2.17316627502,5.11654567719,4.5395693779,-0.957559869816,0.287751079164,-0.016607209278,0.0016164025101,0.0,0.0,0.0,0.0,0.0,0.0
1609059080373148805,336,1609059080373148805,2.19697546959,5.33404493332,4.56815576553,-0.957629616387,0.287429091375,-0.0181611874835,-0.000454444496926,0.0,0.0,0.0,0.0,0.0,0.0
1609059080579568233,337,1609059080579568233,2.21780180931,5.54919338226,4.60985469818,-0.95760372908,0.287357846942,-0.020419711667,0.00189769049885,0.0,0.0,0.0,0.0,0.0,0.0
1609059080785762056,338,1609059080785762056,2.23349094391,5.76514053345,4.65462779999,-0.95777670746,0.286648690084,-0.0207474842844,0.00811474063648,0.0,0.0,0.0,0.0,0.0,0.0
1609059080991956061,339,1609059080991956061,2.25257110596,5.97529840469,4.6633849144,-0.957916558088,0.286196311478,-0.0206728935166,0.0077569653493,0.0,0.0,0.0,0.0,0.0,0.0
1609059081166498042,340,1609059081166498042,2.26531457901,6.17984437943,4.65012788773,-0.957941604053,0.286265671848,-0.0191287142118,0.00582585949121,0.0,0.0,0.0,0.0,0.0,0.0
1609059081370091187,341,1609059081370091187,2.28537011147,6.38418865204,4.64578580856,-0.958063425357,0.286095491332,-0.016094756255,0.00219126767055,0.0,0.0,0.0,0.0,0.0,0.0
1609059081575920912,342,1609059081575920912,2.2971072197,6.58649778366,4.64044284821,-0.958296932828,0.285381266055,-0.0149534036698,0.000957723973475,0.0,0.0,0.0,0.0,0.0,0.0
1609059081783229430,343,1609059081783229430,2.29950284958,6.78338575363,4.71198701859,-0.958545892417,0.284573232501,-0.0135943635185,0.00480007862619,0.0,0.0,0.0,0.0,0.0,0.0
1609059081988010444,344,1609059081988010444,2.31982660294,6.9800567627,4.75018930435,-0.957913158983,0.284577312766,-0.0172956949275,0.0334513354407,0.0,0.0,0.0,0.0,0.0,0.0
1609059082195259775,345,1609059082195259775,2.32754588127,7.13718032837,4.67993402481,-0.958151805486,0.284738273282,-0.00452095996586,0.0291340744332,0.0,0.0,0.0,0.0,0.0,0.0
1609059082368032454,346,1609059082368032454,2.34356880188,7.27800989151,4.71768569946,-0.958253822502,0.284607382957,0.0029730265954,0.0271921006729,0.0,0.0,0.0,0.0,0.0,0.0
1609059082573649292,347,1609059082573649292,2.37204742432,7.38869094849,4.69349908829,-0.95839928551,0.284775737459,0.00930080987476,0.0169435481808,0.0,0.0,0.0,0.0,0.0,0.0
1609059082779781423,348,1609059082779781423,2.41841650009,7.47915744781,4.76271772385,-0.958423832267,0.285127439899,0.00731645478778,0.00851881732304,0.0,0.0,0.0,0.0,0.0,0.0
1609059082985023995,349,1609059082985023995,2.47693634033,7.57349491119,4.67636823654,0.958516927528,-0.284923280954,-0.00160012912105,0.0078398469055,0.0,0.0,0.0,0.0,0.0,0.0
1609059083191430828,350,1609059083191430828,2.55722975731,7.66663122177,4.72164106369,0.95846286579,-0.284513061281,0.00290772126242,0.0198191326509,0.0,0.0,0.0,0.0,0.0,0.0
