%time,field.header.seq,field.header.stamp,field.pose.pose.position.x,field.pose.pose.position.y,field.pose.pose.position.z,field.pose.pose.orientation.x,field.pose.pose.orientation.y,field.pose.pose.orientation.z,field.pose.pose.orientation.w,field.twist.twist.linear.x,field.twist.twist.linear.y,field.twist.twist.linear.z,field.twist.twist.angular.x,field.twist.twist.angular.y,field.twist.twist.angular.z
1609043646662518857,16,1609043646662518857,-0.00572731764987,-0.00101399363484,0.00199166010134,-0.302254266186,-0.953120500312,-0.00188994372444,0.0141456201539,0.0,0.0,0.0,0.0,0.0,0.0
1609043646868740421,17,1609043646868740421,-0.00638916669413,-0.000142353528645,0.00420746346936,-0.302105365228,-0.953167570445,-0.00185585822818,0.014159334131,0.0,0.0,0.0,0.0,0.0,0.0
1609043647057955858,18,1609043647057955858,-0.0115802409127,-0.0040885056369,0.00121588713955,-0.302307313612,-0.953103860172,-0.00184423509181,0.0141392595112,0.0,0.0,0.0,0.0,0.0,0.0
1609043647262681398,19,1609043647262681398,-0.00475295772776,0.00229125656188,0.00186606741045,-0.302199403451,-0.953138174568,-0.0018573900636,0.0141312008752,0.0,0.0,0.0,0.0,0.0,0.0
1609043647468885364,20,1609043647468885364,-0.0059299627319,-0.00135287735611,0.00306174275465,-0.302196272287,-0.953138461338,-0.00189149612031,0.0141742292984,0.0,0.0,0.0,0.0,0.0,0.0
1609043647657835598,21,1609043647657835598,-0.00420733913779,0.000308280839818,0.000734847621061,-0.302200106096,-0.953137987022,-0.00183939023338,0.0141311788186,0.0,0.0,0.0,0.0,0.0,0.0
1609043647862541142,22,1609043647862541142,-0.00559371197596,-0.000738779897802,0.00193671020679,-0.302164540636,-0.953149168029,-0.00186169237874,0.0141346372167,0.0,0.0,0.0,0.0,0.0,0.0
1609043648068687433,23,1609043648068687433,-0.00604546396062,-0.00136577500962,0.00306493416429,-0.302209857098,-0.95313412925,-0.00188920824862,0.0141762062505,0.0,0.0,0.0,0.0,0.0,0.0
1609043648257947082,24,1609043648257947082,-0.00277693709359,0.000973995076492,-0.000104142163764,-0.30217463147,-0.953145798691,-0.0018607771847,0.0141462377397,0.0,0.0,0.0,0.0,0.0,0.0
1609043648462505043,25,1609043648462505043,-0.00927820522338,-0.00114241940901,0.00166095560417,-0.302262184875,-0.95311783289,-0.00187838921264,0.0141576790382,0.0,0.0,0.0,0.0,0.0,0.0
1609043648668736168,26,1609043648668736168,-0.00872652325779,-0.00195637857541,0.00269112060778,-0.302264684181,-0.953116353552,-0.00190747259179,0.0141999590396,0.0,0.0,0.0,0.0,0.0,0.0
1609043648857476059,27,1609043648857476059,-0.00682187546045,-0.000135648719152,-1.55360103236e-05,-0.302122660492,-0.953162241639,-0.00186713831118,0.0141475412905,0.0,0.0,0.0,0.0,0.0,0.0
1609043649062355790,28,1609043649062355790,-0.00161598576233,0.00319949910045,0.0017770929262,-0.302158499127,-0.953150936251,-0.00190348554018,0.01413898408,0.0,0.0,0.0,0.0,0.0,0.0
1609043649268595068,29,1609043649268595068,-0.00878028478473,-0.00271738530137,0.00396451586857,-0.302234382077,-0.953126281047,-0.00187460455726,0.0141829660824,0.0,0.0,0.0,0.0,0.0,0.0
1609043649457795478,30,1609043649457795478,-0.00682378141209,0.00114961131476,-0.000463534757728,-0.302123201086,-0.953161630379,-0.00189811107991,0.0141730347402,0.0,0.0,0.0,0.0,0.0,0.0
1609043649662141584,31,1609043649662141584,-0.0077626821585,-7.33270862838e-05,0.00231085857376,-0.302225683845,-0.953129457952,-0.00185521532511,0.0141573508992,0.0,0.0,0.0,0.0,0.0,0.0
1609043649868411617,32,1609043649868411617,-0.0059257815592,0.000625371583737,0.00272703450173,-0.302153290226,-0.953152002829,-0.00190183232164,0.0141785662821,0.0,0.0,0.0,0.0,0.0,0.0
1609043650057522997,33,1609043650057522997,-0.00576299102977,-0.00179774104618,-0.000139722484164,-0.30225500758,-0.953120130258,-0.00186680743162,0.0141577794735,0.0,0.0,0.0,0.0,0.0,0.0
1609043650262203580,34,1609043650262203580,-0.00645359512419,0.000500693509821,0.00150964863133,-0.302216222466,-0.953132540372,-0.00188338481744,0.0141480820139,0.0,0.0,0.0,0.0,0.0,0.0
1609043650468751105,35,1609043650468751105,-0.00645931717008,-0.00315356743522,0.00220249267295,-0.302311296356,-0.953101622175,-0.00189870670627,0.0141976341271,0.0,0.0,0.0,0.0,0.0,0.0
1609043650657418487,36,1609043650657418487,-0.00851400010288,-0.000262641406152,-0.000120137192425,-0.302239690692,-0.953124746853,-0.00188158856721,0.0141720122404,0.0,0.0,0.0,0.0,0.0,0.0
1609043650862178733,37,1609043650862178733,-0.00335894525051,0.000318534730468,0.00128307484556,-0.302213474389,-0.953133490288,-0.00188617089179,0.0141424166704,0.0,0.0,0.0,0.0,0.0,0.0
1609043651068470549,38,1609043651068470549,-0.00470180623233,-0.00069092377089,0.00255764555186,-0.302229493966,-0.953127759637,-0.00191341513823,0.0141825818749,0.0,0.0,0.0,0.0,0.0,0.0
1609043651257454779,39,1609043651257454779,-0.00512982299551,0.00186311849393,0.00026686952333,-0.302144880901,-0.953155217121,-0.00188015768461,0.0141445405471,0.0,0.0,0.0,0.0,0.0,0.0
1609043651462187243,40,1609043651462187243,-0.00943726394325,-0.00179378292523,0.00152008549776,-0.302268721539,-0.953115870055,-0.00187706731892,0.0141504363149,0.0,0.0,0.0,0.0,0.0,0.0
1609043651668114883,41,1609043651668114883,-0.0100742997602,-0.00403073383495,0.00259700254537,-0.302315943109,-0.953100397405,-0.00190171680456,0.0141804965508,0.0,0.0,0.0,0.0,0.0,0.0
1609043651857353042,42,1609043651857353042,-0.00838199909776,-0.00166592490859,5.04227537022e-05,-0.302241414088,-0.953124251977,-0.00187143806981,0.0141698844043,0.0,0.0,0.0,0.0,0.0,0.0
1609043652062166913,43,1609043652062166913,-0.00776745053008,-0.000110475157271,0.00110745814163,-0.302213113803,-0.953133130567,-0.00190199534237,0.0141722148992,0.0,0.0,0.0,0.0,0.0,0.0
1609043652269840076,44,1609043652269840076,-0.00973367877305,-0.00260168197565,0.00336029124446,-0.30222532845,-0.953129059658,-0.00188235590974,0.0141881364129,0.0,0.0,0.0,0.0,0.0,0.0
1609043652457461522,45,1609043652457461522,-0.00608826382086,-0.000220166519284,6.52153757983e-05,-0.302247107194,-0.953122749882,-0.00188210449413,0.0141480575782,0.0,0.0,0.0,0.0,0.0,0.0
1609043652663848151,46,1609043652663848151,-0.00564559735358,0.00257395231165,0.00157559814397,-0.302138643826,-0.953156934943,-0.00189533452377,0.0141599782633,0.0,0.0,0.0,0.0,0.0,0.0
1609043652871131535,47,1609043652871131535,-0.00687070656568,-0.00170293729752,0.00383825553581,-0.302188092921,-0.953140615046,-0.00187180757919,0.0142063641508,0.0,0.0,0.0,0.0,0.0,0.0
1609043653058115115,48,1609043653058115115,-0.00840218085796,-0.00127786828671,-9.34687850531e-05,-0.302266413597,-0.953116341668,-0.0018534469211,0.0141710688044,0.0,0.0,0.0,0.0,0.0,0.0
1609043653263297424,49,1609043653263297424,-0.00676229875535,0.000304069602862,0.00156121572945,-0.302187450176,-0.953141561975,-0.00189534228273,0.0141532847334,0.0,0.0,0.0,0.0,0.0,0.0
1609043653470639214,50,1609043653470639214,-0.00877149496228,-0.00139958516229,0.00192036258522,-0.302192752246,-0.953138479913,-0.00192559545857,0.0142432679076,0.0,0.0,0.0,0.0,0.0,0.0
1609043653657113337,51,1609043653657113337,-0.0088565107435,-0.000972556532361,-0.00209726439789,-0.302267919776,-0.953115132109,-0.00191366736364,0.0142122305215,0.0,0.0,0.0,0.0,0.0,0.0
1609043653866878433,52,1609043653866878433,-0.00727679859847,-0.00137659534812,0.00145142967813,-0.302196783967,-0.953137690194,-0.0019381146064,0.0142088354404,0.0,0.0,0.0,0.0,0.0,0.0
1609043654057466373,53,1609043654057466373,-0.00419109966606,0.00119481398724,-0.00118766375817,-0.302175947404,-0.953144623787,-0.00190774195598,0.0141909646298,0.0,0.0,0.0,0.0,0.0,0.0
1609043654261045195,54,1609043654261045195,-0.00571117829531,0.000389802706195,0.000957473646849,-0.302210117835,-0.953133770245,-0.00188946575141,0.0141947390291,0.0,0.0,0.0,0.0,0.0,0.0
1609043654466949822,55,1609043654466949822,-0.00683668395504,-0.00223809527233,0.000990125234239,-0.302302304575,-0.953104041904,-0.00193856896932,0.0142212483933,0.0,0.0,0.0,0.0,0.0,0.0
1609043654657459413,56,1609043654657459413,-0.00699029490352,-0.000322896346916,-0.00111090566497,-0.302189068613,-0.953140313987,-0.00190284466533,0.0142016846074,0.0,0.0,0.0,0.0,0.0,0.0
1609043654861835223,57,1609043654861835223,-0.00938495900482,-0.000762572977692,0.000650564557873,-0.3022651151,-0.953116570541,-0.00189497148286,0.0141778784533,0.0,0.0,0.0,0.0,0.0,0.0
1609043655068126621,58,1609043655068126621,-0.00672540767118,-0.000151318803546,0.00193440949079,-0.302133850985,-0.953157517577,-0.00191008574115,0.0142209123387,0.0,0.0,0.0,0.0,0.0,0.0
1609043655257473026,59,1609043655257473026,-0.00970433279872,-0.00210622651502,0.000202750466997,-0.302274201661,-0.953114072446,-0.00185605071173,0.0141572239626,0.0,0.0,0.0,0.0,0.0,0.0
1609043655463260792,60,1609043655463260792,-0.00520452624187,-0.00023923421395,0.00180505367462,-0.302175167529,-0.95314545274,-0.00190326179849,0.0141524430829,0.0,0.0,0.0,0.0,0.0,0.0
1609043655669824916,61,1609043655669824916,-0.00338054937311,0.000259838474449,0.0030771587044,-0.302199746785,-0.95313709581,-0.00188483036232,0.0141928520491,0.0,0.0,0.0,0.0,0.0,0.0
1609043655857172153,62,1609043655857172153,-0.00878546293825,-0.00155072181951,-0.000367155240383,-0.30223534708,-0.953126099695,-0.0018720673208,0.014174922204,0.0,0.0,0.0,0.0,0.0,0.0
1609043656063204661,63,1609043656063204661,-0.00482304254547,-0.000383934471756,0.000681518111378,-0.302233118063,-0.953126479333,-0.00191099376555,0.0141917174291,0.0,0.0,0.0,0.0,0.0,0.0
1609043656257388012,64,1609043656257388012,-0.0052304584533,0.00132400775328,-0.000282963126665,-0.302163265322,-0.953149001025,-0.0018825058221,0.0141703601544,0.0,0.0,0.0,0.0,0.0,0.0
1609043656457219858,65,1609043656457219858,-0.00829321891069,-0.0024219090119,-0.000754502369091,-0.302296928677,-0.953106455822,-0.00188803934725,0.0141804827515,0.0,0.0,0.0,0.0,0.0,0.0
1609043656663914831,66,1609043656663914831,-0.00648617837578,-3.2213923987e-05,0.000295421574265,-0.302158877698,-0.953149307406,-0.00193659867002,0.0142358704024,0.0,0.0,0.0,0.0,0.0,0.0
1609043656870593964,67,1609043656870593964,-0.00675373058766,-0.00125231174752,0.00177682749927,-0.302181858266,-0.953141657462,-0.00189795619795,0.0142654515714,0.0,0.0,0.0,0.0,0.0,0.0
1609043657075711670,68,1609043657075711670,-0.00900149066001,-0.00337458797731,0.00339157111011,-0.302172050148,-0.953144725756,-0.00186228479252,0.0142729032899,0.0,0.0,0.0,0.0,0.0,0.0
1609043657283605897,69,1609043657283605897,-0.00787797104567,-0.00389387225732,0.00421656947583,-0.302078610195,-0.953173304443,-0.00177514225195,0.0143531818974,0.0,0.0,0.0,0.0,0.0,0.0
1609043657456836379,70,1609043657456836379,-0.00835616607219,-0.00295635988005,-0.00156811147463,-0.302281349022,-0.953111384478,-0.0018962220871,0.0141802381517,0.0,0.0,0.0,0.0,0.0,0.0
1609043657660401097,71,1609043657660401097,-0.00790292862803,-0.00392010016367,0.00163145037368,-0.302348700924,-0.953090494191,-0.00186041295952,0.0141531550033,0.0,0.0,0.0,0.0,0.0,0.0
1609043657871285927,72,1609043657871285927,-0.00678740721196,-0.00221381592564,0.00295245158486,-0.302165816934,-0.953147311545,-0.00189993446624,0.0142271507897,0.0,0.0,0.0,0.0,0.0,0.0
1609043658077710693,73,1609043658077710693,-0.00624831253663,-0.00257498910651,0.00334417354316,-0.302132178436,-0.953157105842,-0.00185927645533,0.0142906062518,0.0,0.0,0.0,0.0,0.0,0.0
1609043658283475188,74,1609043658283475188,-0.00742043647915,-0.00315976212732,0.00394126400352,-0.302132435559,-0.953156337627,-0.00178573283177,0.0143456816888,0.0,0.0,0.0,0.0,0.0,0.0
1609043658456804185,75,1609043658456804185,-0.00388079485856,0.000331160932546,-0.0008631212404,-0.302193762682,-0.953139166336,-0.0018693190211,0.0141832661399,0.0,0.0,0.0,0.0,0.0,0.0
1609043658668093485,76,1609043658668093485,-0.00628068763763,-0.00115038873628,0.00137305213138,-0.302169966892,-0.953145611739,-0.00194306805527,0.0142470494549,0.0,0.0,0.0,0.0,0.0,0.0
1609043658874103284,77,1609043658874103284,-0.0066522625275,-0.00271898671053,0.00408361293375,-0.302220864413,-0.95313011146,-0.00184711373176,0.0142171696445,0.0,0.0,0.0,0.0,0.0,0.0
1609043659081444970,78,1609043659081444970,-0.009183161892,-0.000850061827805,0.00438434211537,-0.302076170508,-0.953174747351,-0.00178641273287,0.0143072342916,0.0,0.0,0.0,0.0,0.0,0.0
1609043659286269152,79,1609043659286269152,-0.00502211926505,-0.00195715553127,0.00413691997528,-0.302031086546,-0.953188178005,-0.0017388455376,0.0143699856318,0.0,0.0,0.0,0.0,0.0,0.0
1609043659458543253,80,1609043659458543253,-0.00321590807289,0.00274377851747,-0.000167805963429,-0.302139534617,-0.95315647241,-0.00189507826195,0.0141721347262,0.0,0.0,0.0,0.0,0.0,0.0
1609043659664602420,81,1609043659664602420,-0.0102628739551,-0.00153047579806,0.00128726218827,-0.302194005916,-0.953138787662,-0.00191351262212,0.0141976305197,0.0,0.0,0.0,0.0,0.0,0.0
1609043659870728416,82,1609043659870728416,-0.00782244000584,-0.00440889550373,0.00313514494337,-0.302301902182,-0.953104223198,-0.00186958553923,0.0142268868548,0.0,0.0,0.0,0.0,0.0,0.0
1609043660082999716,83,1609043660082999716,-0.00908363983035,-0.00342573830858,0.00399999739602,-0.302180380145,-0.953141217393,-0.00177295133846,0.0143420432718,0.0,0.0,0.0,0.0,0.0,0.0
1609043660257445750,84,1609043660257445750,-0.00614364584908,0.00214496371336,-0.00121376267634,-0.302128645468,-0.953159740891,-0.0019064580544,0.0141829245908,0.0,0.0,0.0,0.0,0.0,0.0
1609043660461256752,85,1609043660461256752,-0.00752222584561,0.000984785147011,0.000847121584229,-0.302197131872,-0.953138125172,-0.00190876092216,0.0141761935251,0.0,0.0,0.0,0.0,0.0,0.0
1609043660667532110,86,1609043660667532110,-0.00721706962213,-0.00169457355514,0.00169726787135,-0.302181475081,-0.953142434057,-0.00191123486897,0.0142198347241,0.0,0.0,0.0,0.0,0.0,0.0
1609043660873684790,87,1609043660873684790,-0.00976225826889,-0.00504081184044,0.00314503465779,-0.302264843003,-0.953115381413,-0.00185655563577,0.0142684126551,0.0,0.0,0.0,0.0,0.0,0.0
1609043661080221028,88,1609043661080221028,-0.00320099317469,0.00065508618718,0.00510494224727,-0.302058185872,-0.953181016911,-0.00178716899664,0.0142691056181,0.0,0.0,0.0,0.0,0.0,0.0
1609043661286161067,89,1609043661286161067,-0.00646109739318,-0.0031462169718,0.00437116948888,-0.302058368123,-0.953179594159,-0.00170152269191,0.0143703982355,0.0,0.0,0.0,0.0,0.0,0.0
1609043661458095528,90,1609043661458095528,-0.00343106500804,0.00187667121645,-0.000193950079847,-0.302134135151,-0.953158268656,-0.00190333823094,0.014165329966,0.0,0.0,0.0,0.0,0.0,0.0
1609043661664525518,91,1609043661664525518,-0.00455130916089,-0.00135651766323,0.00118559063412,-0.302279453305,-0.953111677316,-0.00192468083082,0.0141971221292,0.0,0.0,0.0,0.0,0.0,0.0
1609043661870469390,92,1609043661870469390,-0.0100802052766,-0.00381395639852,0.00255448557436,-0.302247346921,-0.95312124359,-0.00189167121851,0.0142428184356,0.0,0.0,0.0,0.0,0.0,0.0
1609043662076670519,93,1609043662076670519,-0.00807491596788,-0.00320136919618,0.00370853976347,-0.302209580079,-0.953132538113,-0.00185515203293,0.0142931070934,0.0,0.0,0.0,0.0,0.0,0.0
1609043662285902247,94,1609043662285902247,-0.00903295073658,-0.00129693420604,0.00380916288123,-0.302080910438,-0.953172447493,-0.00174058221346,0.0143659062497,0.0,0.0,0.0,0.0,0.0,0.0
1609043662457743682,95,1609043662457743682,-0.0102872522548,-0.0027814512141,-0.000199856527615,-0.302302507684,-0.953104825121,-0.00187256247023,0.0141732031975,0.0,0.0,0.0,0.0,0.0,0.0
1609043662665227824,96,1609043662665227824,-0.00804229639471,-0.00178889511153,0.000747985031921,-0.302268016815,-0.953114899888,-0.00194091266886,0.0142220420588,0.0,0.0,0.0,0.0,0.0,0.0
1609043662870408490,97,1609043662870408490,-0.00295650260523,0.00279747718014,0.00410953955725,-0.302109512282,-0.953165835348,-0.00186597401147,0.0141862981688,0.0,0.0,0.0,0.0,0.0,0.0
1609043663076516310,98,1609043663076516310,-0.0124141173437,-0.00590280909091,0.00356735079549,-0.302255240904,-0.953117920248,-0.00184484970858,0.0143037050518,0.0,0.0,0.0,0.0,0.0,0.0
1609043663283624110,99,1609043663283624110,-0.00300777470693,-0.000246617477387,0.00362873729318,-0.301980933635,-0.953204188222,-0.00177200587745,0.0143579689124,0.0,0.0,0.0,0.0,0.0,0.0
1609043663456806844,100,1609043663456806844,-0.0087967896834,-0.00114244816359,-0.000199980277102,-0.302237449033,-0.953125451405,-0.00186668484614,0.0141744055921,0.0,0.0,0.0,0.0,0.0,0.0
1609043663661369588,101,1609043663661369588,-0.0105487918481,-0.00148014200386,0.000307237205561,-0.302241338172,-0.953123664705,-0.00190805087819,0.0142060769031,0.0,0.0,0.0,0.0,0.0,0.0
1609043663867734682,102,1609043663867734682,-0.00580082088709,-0.00254636118189,0.000933060538955,-0.302259650998,-0.953117287976,-0.00194103246359,0.0142397729161,0.0,0.0,0.0,0.0,0.0,0.0
1609043664074723594,103,1609043664074723594,-0.00783426128328,-0.00180014350917,0.0035372809507,-0.302172694317,-0.953144779866,-0.00185391460391,0.0142567325563,0.0,0.0,0.0,0.0,0.0,0.0
1609043664279771132,104,1609043664279771132,-0.00815053284168,-0.00446568988264,0.00406555226073,-0.302197566298,-0.953136169101,-0.00179707035568,0.0143123936624,0.0,0.0,0.0,0.0,0.0,0.0
1609043664486382573,105,1609043664486382573,-0.00784892309457,-0.00395361566916,0.00587236462161,-0.302139105517,-0.953154383668,-0.00165985536078,0.0143501460721,0.0,0.0,0.0,0.0,0.0,0.0
1609043664658283239,106,1609043664658283239,-0.00921128690243,-0.00142909178976,-0.000399483978981,-0.30232450186,-0.953097718289,-0.0019115461519,0.0141767753391,0.0,0.0,0.0,0.0,0.0,0.0
1609043664864668620,107,1609043664864668620,-0.0068105221726,-0.00137769966386,0.000645821972284,-0.302188300998,-0.953140498113,-0.00192574431812,0.0142025739075,0.0,0.0,0.0,0.0,0.0,0.0
1609043665072690171,108,1609043665072690171,-0.00596196809784,-0.000714319234248,0.00261063082144,-0.302145189496,-0.953153609794,-0.00188185922494,0.0142456732888,0.0,0.0,0.0,0.0,0.0,0.0
1609043665277085901,109,1609043665277085901,-0.00549350958318,-0.000890285009518,0.00321453507058,-0.302109955809,-0.953163885466,-0.00187715231798,0.0143058848914,0.0,0.0,0.0,0.0,0.0,0.0
1609043665483161271,110,1609043665483161271,-0.0101444618776,-0.00328521220945,0.00448465300724,-0.302143806034,-0.953152874028,-0.00176993832563,0.0143382887916,0.0,0.0,0.0,0.0,0.0,0.0
1609043665661927553,111,1609043665661927553,-0.00500424718484,0.000133218738483,-0.000533675134648,-0.302236655884,-0.953125480906,-0.00194052779633,0.0141794160608,0.0,0.0,0.0,0.0,0.0,0.0
1609043665867801761,112,1609043665867801761,-0.00669643376023,-0.00102547917049,0.00117404875346,-0.302190111266,-0.953139112755,-0.00192588003845,0.0142569062259,0.0,0.0,0.0,0.0,0.0,0.0
1609043666074698091,113,1609043666074698091,-0.00486596301198,-0.000836501829326,0.00310171791352,-0.302177314297,-0.95314317056,-0.00187649527494,0.014263446469,0.0,0.0,0.0,0.0,0.0,0.0
1609043666258632348,114,1609043666258632348,-0.00881283637136,-0.000769756792579,-0.00104041316081,-0.302201294349,-0.95313622831,-0.00191977292074,0.0142134601517,0.0,0.0,0.0,0.0,0.0,0.0
1609043666464158610,115,1609043666464158610,-0.00558164762333,-0.00113361212425,0.00145964499097,-0.302244649638,-0.953122745513,-0.0019109426781,0.014196902773,0.0,0.0,0.0,0.0,0.0,0.0
1609043666669156809,116,1609043666669156809,-0.00335147790611,0.00119308789726,0.00162571540568,-0.302131615344,-0.953157843886,-0.00194253435954,0.0142421279199,0.0,0.0,0.0,0.0,0.0,0.0
1609043666876152214,117,1609043666876152214,-0.00825157389045,-0.00143424619455,0.0038345628418,-0.302185790995,-0.95314028297,-0.00187541260961,0.0142769579741,0.0,0.0,0.0,0.0,0.0,0.0
1609043667082442796,118,1609043667082442796,-0.00306544476189,-0.000121227945783,0.00339017109945,-0.302083562339,-0.953171523367,-0.00180079065803,0.0143640370712,0.0,0.0,0.0,0.0,0.0,0.0
1609043667256566000,119,1609043667256566000,-0.00855599995703,-0.0020613190718,-0.0017224495532,-0.302287921432,-0.953108742983,-0.00189930682434,0.0142172162704,0.0,0.0,0.0,0.0,0.0,0.0
1609043667460701636,120,1609043667460701636,-0.00788155104965,-0.00211804173887,0.000110921624582,-0.302299524785,-0.95310542516,-0.0019069494203,0.0141918775433,0.0,0.0,0.0,0.0,0.0,0.0
1609043667665854796,121,1609043667665854796,-0.00692080194131,-0.0016043020878,0.00126382370945,-0.302237537319,-0.953124866786,-0.00192172768988,0.0142044469339,0.0,0.0,0.0,0.0,0.0,0.0
1609043667874624132,122,1609043667874624132,-0.00983522087336,-0.00269128056243,0.00243328767829,-0.302154794671,-0.953150052441,-0.00188858992828,0.0142790341589,0.0,0.0,0.0,0.0,0.0,0.0
1609043668084876767,123,1609043668084876767,-0.00472927838564,-0.000511386489961,0.0049111279659,-0.302076601094,-0.953174426967,-0.00171565897559,0.0143281318353,0.0,0.0,0.0,0.0,0.0,0.0
1609043668257738795,124,1609043668257738795,-0.00683629000559,-0.00017127879255,-0.00204896857031,-0.302203266223,-0.953135543398,-0.00192617499922,0.0142165975475,0.0,0.0,0.0,0.0,0.0,0.0
1609043668472449998,125,1609043668472449998,-0.00928895827383,-0.00284781190567,0.00214191409759,-0.302178919527,-0.953142810879,-0.00189567987181,0.0142509319171,0.0,0.0,0.0,0.0,0.0,0.0
1609043668679510473,126,1609043668679510473,-0.00623412057757,-6.61093508825e-06,0.00443995092064,-0.302110695464,-0.953164270412,-0.00182122320328,0.0142718058315,0.0,0.0,0.0,0.0,0.0,0.0
1609043668861402020,127,1609043668861402020,-0.00572549877688,-0.0012055078987,0.000830181408674,-0.302237615874,-0.953125288664,-0.00190324576223,0.0141769289915,0.0,0.0,0.0,0.0,0.0,0.0
1609043669075342715,128,1609043669075342715,-0.0101026529446,-0.00289468094707,0.00356033095159,-0.302187868043,-0.953139644053,-0.00185931948965,0.0142777544639,0.0,0.0,0.0,0.0,0.0,0.0
1609043669283041702,129,1609043669283041702,-0.00839236099273,-0.00254424777813,0.00400379998609,-0.302093944054,-0.953168496934,-0.00177202902241,0.0143500986294,0.0,0.0,0.0,0.0,0.0,0.0
1609043669458377663,130,1609043669458377663,-0.00434598559514,0.00157558254432,-0.000700820644852,-0.302150741171,-0.953152773527,-0.00190004005604,0.0141813178356,0.0,0.0,0.0,0.0,0.0,0.0
1609043669664672523,131,1609043669664672523,-0.0107556553558,-0.00101996725425,0.00118391541764,-0.302289482084,-0.953108191505,-0.0019088782714,0.0142197219224,0.0,0.0,0.0,0.0,0.0,0.0
1609043669870740918,132,1609043669870740918,-0.00813424494117,-0.00246305926703,0.00225712475367,-0.302164944981,-0.953147264287,-0.00190303726897,0.0142484054005,0.0,0.0,0.0,0.0,0.0,0.0
1609043670077357111,133,1609043670077357111,-0.0084271132946,-0.00218831771053,0.00338921160437,-0.302121168112,-0.953160471072,-0.00183185974049,0.0143024632384,0.0,0.0,0.0,0.0,0.0,0.0
1609043670282839455,134,1609043670282839455,-0.00663176504895,-0.00266614323482,0.00438245758414,-0.302070852998,-0.953176336034,-0.00176712377336,0.0143160562534,0.0,0.0,0.0,0.0,0.0,0.0
1609043670456449171,135,1609043670456449171,-0.00892038363963,-0.00141757843085,-0.000788024393842,-0.302194730495,-0.953138220989,-0.00186521785708,0.014226648005,0.0,0.0,0.0,0.0,0.0,0.0
1609043670661405807,136,1609043670661405807,-0.00799454934895,-0.00264357402921,-0.000605687091593,-0.302299149696,-0.953105412598,-0.00194654962487,0.0141953342432,0.0,0.0,0.0,0.0,0.0,0.0
1609043670867654337,137,1609043670867654337,-0.0101404655725,-0.00181919231545,0.0013646769803,-0.302094974354,-0.953169396347,-0.00190630743646,0.014251116804,0.0,0.0,0.0,0.0,0.0,0.0
1609043671074268673,138,1609043671074268673,-0.00544441957027,0.000305946858134,0.00309287616983,-0.302127744315,-0.953158824867,-0.00188548548204,0.014266241206,0.0,0.0,0.0,0.0,0.0,0.0
1609043671280499373,139,1609043671280499373,-0.00652697915211,-0.000994529109448,0.00421229796484,-0.302013549859,-0.953194405195,-0.00178611074026,0.0143196164235,0.0,0.0,0.0,0.0,0.0,0.0
1609043671489806220,140,1609043671489806220,-0.00627284776419,-0.00334675540216,0.00456130225211,-0.302170892947,-0.953143671031,-0.00165876532192,0.0143924399171,0.0,0.0,0.0,0.0,0.0,0.0
1609043671658515637,141,1609043671658515637,-0.00618277536705,3.20037361234e-06,-0.000593586300965,-0.302161367724,-0.953149563329,-0.00187848241188,0.0141735346316,0.0,0.0,0.0,0.0,0.0,0.0
1609043671872451652,142,1609043671872451652,-0.00506126042455,-0.00185854872689,0.00254030805081,-0.302074704348,-0.953176075959,-0.00188856659513,0.0142363804424,0.0,0.0,0.0,0.0,0.0,0.0
1609043672077321551,143,1609043672077321551,-0.00636766292155,-0.00175564456731,0.00246506906115,-0.302159350873,-0.95314843318,-0.00188165115837,0.0142916197467,0.0,0.0,0.0,0.0,0.0,0.0
1609043672283194600,144,1609043672283194600,-0.00971867889166,-0.00407270155847,0.00341124902479,-0.302163828799,-0.953145972591,-0.00180287628443,0.0143709824618,0.0,0.0,0.0,0.0,0.0,0.0
1609043672457178382,145,1609043672457178382,-0.0113132586703,-0.00244732014835,-0.00148557825014,-0.302242810102,-0.953123245133,-0.00189631537524,0.0142044823159,0.0,0.0,0.0,0.0,0.0,0.0
1609043672661930158,146,1609043672661930158,-0.00562034593895,-0.00163553014863,0.000278847641312,-0.302213838889,-0.953132734767,-0.00193201321397,0.0141793097488,0.0,0.0,0.0,0.0,0.0,0.0
1609043672869439637,147,1609043672869439637,-0.00671088322997,-0.00144235172775,0.00209914823063,-0.302259598151,-0.953117984895,-0.00190845971711,0.0141985906612,0.0,0.0,0.0,0.0,0.0,0.0
1609043673073864742,148,1609043673073864742,-0.006791125983,-0.000616349629126,0.00292561762035,-0.302129521291,-0.953158623993,-0.00187117484003,0.0142438961278,0.0,0.0,0.0,0.0,0.0,0.0
1609043673280866893,149,1609043673280866893,-0.00878537259996,-0.00423597590998,0.00479377619922,-0.302267817399,-0.953113852316,-0.00175022614382,0.0143208866944,0.0,0.0,0.0,0.0,0.0,0.0
1609043673486265581,150,1609043673486265581,-0.00620784098282,-0.00234872242436,0.00497553683817,-0.30209601912,-0.953168052929,-0.00170090345658,0.0143445123959,0.0,0.0,0.0,0.0,0.0,0.0
1609043673658455342,151,1609043673658455342,-0.00214151479304,0.00139105750713,-0.000960165227298,-0.302221588541,-0.953130165341,-0.00192255523182,0.014188133016,0.0,0.0,0.0,0.0,0.0,0.0
1609043673866989809,152,1609043673866989809,-0.0101123675704,-0.00351197901182,0.00166410708334,-0.302265419513,-0.953116122326,-0.00192027251962,0.0141981013522,0.0,0.0,0.0,0.0,0.0,0.0
1609043674070949170,153,1609043674070949170,-0.00557049363852,-0.0038997605443,0.00266001466662,-0.302291861909,-0.9531075445,-0.00190251661693,0.0142133483295,0.0,0.0,0.0,0.0,0.0,0.0
1609043674278709861,154,1609043674278709861,-0.00599995488301,-0.00469309510663,0.00389685481787,-0.302187735799,-0.953139364816,-0.00180553746809,0.0143060688331,0.0,0.0,0.0,0.0,0.0,0.0
1609043674486509588,155,1609043674486509588,-0.00544732809067,-0.000837297644466,0.0039385817945,-0.302063425523,-0.953177728038,-0.00172958191872,0.0143845153057,0.0,0.0,0.0,0.0,0.0,0.0
1609043674658894508,156,1609043674658894508,-0.00810694880784,-0.00017974266666,-0.000487473793328,-0.302192144051,-0.953139654686,-0.00189487767683,0.0141815435313,0.0,0.0,0.0,0.0,0.0,0.0
1609043674864768258,157,1609043674864768258,-0.0075222318992,-0.000959877797868,0.000721818651073,-0.302125175978,-0.953160314809,-0.00191306562797,0.0142173307787,0.0,0.0,0.0,0.0,0.0,0.0
1609043675070831135,158,1609043675070831135,-0.00910119712353,-0.0041455575265,0.00267971260473,-0.302233743028,-0.953125670796,-0.00188759843104,0.0142357724197,0.0,0.0,0.0,0.0,0.0,0.0
1609043675276805233,159,1609043675276805233,-0.00743653811514,-0.00197125365958,0.00349132274278,-0.302139808528,-0.953154449264,-0.0018650630156,0.0143057153437,0.0,0.0,0.0,0.0,0.0,0.0
1609043675484305970,160,1609043675484305970,-0.0087947845459,-0.00497317966074,0.0043792524375,-0.302147075221,-0.953151598757,-0.00172861354068,0.0143591997777,0.0,0.0,0.0,0.0,0.0,0.0
1609043675656328951,161,1609043675656328951,-0.00743650551885,-0.00146106490865,-0.00240851030685,-0.302224199993,-0.953128785949,-0.00191766252279,0.0142257830914,0.0,0.0,0.0,0.0,0.0,0.0
1609043675861519623,162,1609043675861519623,-0.00601752242073,0.00218662153929,0.000116645300295,-0.302077495873,-0.95317562381,-0.00190485711138,0.0142052166845,0.0,0.0,0.0,0.0,0.0,0.0
1609043676067419700,163,1609043676067419700,-0.00786975491792,-0.00137176224962,0.00163464271463,-0.302171508679,-0.953145221371,-0.00190776047338,0.0142452367209,0.0,0.0,0.0,0.0,0.0,0.0
1609043676273576895,164,1609043676273576895,-0.00656649563462,-0.00318647944368,0.00279010599479,-0.302200425673,-0.953136000393,-0.00188048156075,0.0142524126935,0.0,0.0,0.0,0.0,0.0,0.0
1609043676479820582,165,1609043676479820582,-0.00828751735389,-0.00154829886742,0.00468657491729,-0.302089933292,-0.953170347811,-0.00178101310797,0.0143104245064,0.0,0.0,0.0,0.0,0.0,0.0
1609043676686212582,166,1609043676686212582,-0.00495867570862,-0.000483035895741,0.00441144732758,-0.302038928466,-0.953185923286,-0.00170864629636,0.0143583379727,0.0,0.0,0.0,0.0,0.0,0.0
1609043676857973795,167,1609043676857973795,-0.00668184924871,-0.00102890830021,-0.000417185830884,-0.302288841714,-0.953109031466,-0.00188577983781,0.0141800616254,0.0,0.0,0.0,0.0,0.0,0.0
1609043677064424972,168,1609043677064424972,-0.0114302476868,-0.00381477922201,0.00159343262203,-0.302282719182,-0.953110681084,-0.00186766682561,0.0142020811442,0.0,0.0,0.0,0.0,0.0,0.0
1609043677270481175,169,1609043677270481175,-0.00949756335467,-0.00290964427404,0.00222182064317,-0.302227309661,-0.953127556543,-0.00190803824001,0.0142433719244,0.0,0.0,0.0,0.0,0.0,0.0
1609043677477940698,170,1609043677477940698,-0.00627106009051,-0.00122482539155,0.00465781101957,-0.302043630762,-0.953185473346,-0.0018123643574,0.0142763389317,0.0,0.0,0.0,0.0,0.0,0.0
1609043677656095926,171,1609043677656095926,-0.00718846498057,-0.000725419260561,-0.00129918707535,-0.302303579179,-0.95310418448,-0.00191052091224,0.0141883561894,0.0,0.0,0.0,0.0,0.0,0.0
1609043677859470499,172,1609043677859470499,-0.00878174602985,-0.00324233598076,0.000173183128936,-0.302351159281,-0.953089346057,-0.00189523393125,0.0141733200748,0.0,0.0,0.0,0.0,0.0,0.0
1609043678065738295,173,1609043678065738295,-0.00626447703689,-0.00270439498127,0.00154400593601,-0.302249542904,-0.953121223631,-0.00189241645526,0.0141973813966,0.0,0.0,0.0,0.0,0.0,0.0
1609043678271995990,174,1609043678271995990,-0.0107260840014,-0.00374801689759,0.00186730211135,-0.302235466049,-0.953124527628,-0.00190433131915,0.0142734514973,0.0,0.0,0.0,0.0,0.0,0.0
1609043678478072603,175,1609043678478072603,-0.00667401589453,-0.00230539194308,0.00403161346912,-0.302130681613,-0.953157744294,-0.0018224086449,0.0142844162232,0.0,0.0,0.0,0.0,0.0,0.0
1609043678684293127,176,1609043678684293127,-0.00585973542184,-0.00158614222892,0.00404870370403,-0.302024546394,-0.953190390137,-0.00174361935142,0.0143601294526,0.0,0.0,0.0,0.0,0.0,0.0
1609043678856541857,177,1609043678856541857,-0.00696829333901,0.000910652859602,-0.00133032014128,-0.302316988816,-0.953100209147,-0.0019131859514,0.014169308952,0.0,0.0,0.0,0.0,0.0,0.0
1609043679062998090,178,1609043679062998090,-0.00644529704005,0.000112095585791,0.000569829484448,-0.302347693653,-0.953089890956,-0.0019387692486,0.0142046849072,0.0,0.0,0.0,0.0,0.0,0.0
1609043679268833713,179,1609043679268833713,-0.00294207362458,-0.000421638484113,0.00273917475715,-0.302154455914,-0.953151118047,-0.00191489302302,0.0142114081876,0.0,0.0,0.0,0.0,0.0,0.0
1609043679476570772,180,1609043679476570772,-0.00334270880558,-0.000577268423513,0.0029712615069,-0.302109329698,-0.953164281645,-0.00185308009034,0.0142958455318,0.0,0.0,0.0,0.0,0.0,0.0
1609043679655912055,181,1609043679655912055,-0.0076797218062,-0.00204848125577,-0.00161457876675,-0.302282728476,-0.953110638506,-0.00189691268153,0.0142008645213,0.0,0.0,0.0,0.0,0.0,0.0
1609043679859115762,182,1609043679859115762,-0.00656224600971,-1.48509807332e-05,-0.000605678302236,-0.302222207801,-0.953130076067,-0.00191186368234,0.0141823829605,0.0,0.0,0.0,0.0,0.0,0.0
1609043680072023764,183,1609043680072023764,-0.0072676781565,-0.00347518408671,0.00211748434231,-0.302218525525,-0.953129864526,-0.00190514414919,0.0142756647161,0.0,0.0,0.0,0.0,0.0,0.0
1609043680277891107,184,1609043680277891107,-0.0109065631405,-0.0035274005495,0.00490443408489,-0.302150102473,-0.953151968773,-0.00180088639843,0.0142617252749,0.0,0.0,0.0,0.0,0.0,0.0
1609043680484498122,185,1609043680484498122,-0.00677613867447,-0.00158681382891,0.00436064787209,-0.302082253488,-0.953172620468,-0.00172315749059,0.0143282394684,0.0,0.0,0.0,0.0,0.0,0.0
1609043680656379306,186,1609043680656379306,-0.0084866322577,-0.00121812219732,-0.001559768687,-0.302181718525,-0.953142671677,-0.00191272785285,0.0141985171393,0.0,0.0,0.0,0.0,0.0,0.0
1609043680862536372,187,1609043680862536372,-0.00623220996931,0.000374310737243,-6.42613158561e-05,-0.302083747827,-0.95317359248,-0.00193414215162,0.0142046116464,0.0,0.0,0.0,0.0,0.0,0.0
1609043681068582077,188,1609043681068582077,-0.00647968053818,-0.00197684811428,0.00177454447839,-0.302216065573,-0.953131204276,-0.00192118046021,0.0142360883201,0.0,0.0,0.0,0.0,0.0,0.0
1609043681282641344,189,1609043681282641344,-0.00887568481266,-0.00351652526297,0.00472748512402,-0.302178196197,-0.953142170523,-0.00173007220204,0.014329946384,0.0,0.0,0.0,0.0,0.0,0.0
1609043681456133249,190,1609043681456133249,-0.0103662004694,-0.00369917368516,-0.000365786254406,-0.30229003313,-0.953108617074,-0.00185690402806,0.0141863257185,0.0,0.0,0.0,0.0,0.0,0.0
1609043681660948642,191,1609043681660948642,-0.0107132019475,-0.00284261931665,-0.000151636791998,-0.302245710186,-0.953122020497,-0.00192644485363,0.0142208835502,0.0,0.0,0.0,0.0,0.0,0.0
1609043681867137873,192,1609043681867137873,-0.00603327807039,-0.00238381139934,0.0026919466909,-0.302275115717,-0.953112967768,-0.00187514346816,0.0142094660911,0.0,0.0,0.0,0.0,0.0,0.0
1609043682073825353,193,1609043682073825353,-0.00559277134016,-0.00270155468024,0.00306136370637,-0.302213554578,-0.953131806482,-0.0018871923168,0.0142536103344,0.0,0.0,0.0,0.0,0.0,0.0
1609043682279344173,194,1609043682279344173,-0.00438783597201,0.000135542126372,0.00413022190332,-0.302047281327,-0.953184235154,-0.00180926787545,0.01428216531,0.0,0.0,0.0,0.0,0.0,0.0
1609043682485806983,195,1609043682485806983,-0.00795452017337,-0.00289363623597,0.00611396040767,-0.302052385426,-0.953182155902,-0.00166705906065,0.0143302143341,0.0,0.0,0.0,0.0,0.0,0.0
1609043682657984857,196,1609043682657984857,-0.00735565414652,-0.000547859352082,-0.00116312806495,-0.302282380393,-0.953110765084,-0.00192175833519,0.0141964372336,0.0,0.0,0.0,0.0,0.0,0.0
1609043682863887117,197,1609043682863887117,-0.00634489301592,-0.00107007869519,0.000531997531652,-0.30216096253,-0.953149094757,-0.00193264758462,0.0142063633424,0.0,0.0,0.0,0.0,0.0,0.0
1609043683070385231,198,1609043683070385231,-0.00443397415802,-0.000647789449431,0.00306801591069,-0.302178401578,-0.95314362131,-0.00189029449149,0.0142083624429,0.0,0.0,0.0,0.0,0.0,0.0
1609043683276802198,199,1609043683276802198,-0.0066659306176,-0.000125047256006,0.00384734431282,-0.30214910006,-0.953151951085,-0.00183858375294,0.0142793237154,0.0,0.0,0.0,0.0,0.0,0.0
1609043683482967508,200,1609043683482967508,-0.00558218127117,-0.00200671702623,0.00424773665145,-0.302030083035,-0.953189502739,-0.00177207206389,0.0142989709607,0.0,0.0,0.0,0.0,0.0,0.0
1609043683661968676,201,1609043683661968676,-0.00713850976899,-0.00111526052933,0.000181244045962,-0.302273273312,-0.953113837281,-0.00191894336993,0.0141844661624,0.0,0.0,0.0,0.0,0.0,0.0
1609043683862241749,202,1609043683862241749,-0.00948505569249,-0.00141310377512,-0.000791189610027,-0.302199102666,-0.953136209018,-0.00195621501142,0.0142563189259,0.0,0.0,0.0,0.0,0.0,0.0
1609043684069937327,203,1609043684069937327,-0.00593809923157,-0.00178959185723,0.00212454563007,-0.302167755318,-0.953146188003,-0.00190217308378,0.0142609143662,0.0,0.0,0.0,0.0,0.0,0.0
1609043684276425916,204,1609043684276425916,-0.00664827413857,-0.000510580488481,0.00244069937617,-0.302147722978,-0.953151789798,-0.00187916121965,0.0143139043219,0.0,0.0,0.0,0.0,0.0,0.0
1609043684482576146,205,1609043684482576146,-0.00813299324363,-0.0016890570987,0.00372588564642,-0.30207446576,-0.953174672415,-0.00179418122523,0.0143471919453,0.0,0.0,0.0,0.0,0.0,0.0
1609043684657174094,206,1609043684657174094,-0.00983661226928,-0.00141818413977,-0.00135299609974,-0.302245849242,-0.953122360528,-0.00190733683955,0.0141976949981,0.0,0.0,0.0,0.0,0.0,0.0
1609043684861402681,207,1609043684861402681,-0.00547309452668,-0.00181519240141,-0.000276440550806,-0.302257932567,-0.953118555435,-0.0019528751688,0.0141897062753,0.0,0.0,0.0,0.0,0.0,0.0
1609043685067307194,208,1609043685067307194,-0.00520242052153,-0.000873757642694,0.0021862888243,-0.302136764863,-0.953156961295,-0.00187804081866,0.0142005427862,0.0,0.0,0.0,0.0,0.0,0.0
1609043685273666379,209,1609043685273666379,-0.00449248915538,-0.000452136737294,0.00254765152931,-0.302194454234,-0.953137694856,-0.00187771860516,0.0142660662697,0.0,0.0,0.0,0.0,0.0,0.0
1609043685479966204,210,1609043685479966204,-0.0067588146776,-0.00116039859131,0.00452732527629,-0.302108368886,-0.953164816047,-0.00179251794143,0.014288239193,0.0,0.0,0.0,0.0,0.0,0.0
1609043685687625680,211,1609043685687625680,-0.00534673221409,0.000706043327227,0.00497730914503,-0.30192525705,-0.953221806545,-0.00171978146906,0.0143655502236,0.0,0.0,0.0,0.0,0.0,0.0
1609043685858514064,212,1609043685858514064,-0.00874837953597,-0.000994166708551,-0.000462120748125,-0.302220025071,-0.953130442535,-0.00190157708469,0.0142056313961,0.0,0.0,0.0,0.0,0.0,0.0
1609043686064442501,213,1609043686064442501,-0.00811141356826,-0.000799554924015,0.000701645680238,-0.302154620557,-0.95315094633,-0.00193411554303,0.0142168204345,0.0,0.0,0.0,0.0,0.0,0.0
1609043686270401668,214,1609043686270401668,-0.0054449243471,-0.000262248155195,0.00290451478213,-0.302113844704,-0.9531636948,-0.00190066101844,0.01423317398,0.0,0.0,0.0,0.0,0.0,0.0
1609043686482588807,215,1609043686482588807,-0.00665207440034,-0.0022213505581,0.00451264157891,-0.302110343862,-0.953163469933,-0.00176568276976,0.0143395286365,0.0,0.0,0.0,0.0,0.0,0.0
1609043686657035316,216,1609043686657035316,-0.0106489444152,-0.00294869113714,-0.00131787185092,-0.302317743054,-0.95309934477,-0.00190930992013,0.0142118179743,0.0,0.0,0.0,0.0,0.0,0.0
1609043686859991855,217,1609043686859991855,-0.0065540377982,-0.000207829085412,0.000377433549147,-0.302140023367,-0.953156408961,-0.00187509875826,0.0141686393882,0.0,0.0,0.0,0.0,0.0,0.0
1609043687065836482,218,1609043687065836482,-0.00784326158464,-0.000315679528285,0.00142956222408,-0.302177315491,-0.953143824174,-0.00193692922045,0.014211570903,0.0,0.0,0.0,0.0,0.0,0.0
1609043687272177778,219,1609043687272177778,-0.00560226337984,-0.00028859480517,0.00235718395561,-0.302161633306,-0.953148087366,-0.00188792811197,0.0142655751833,0.0,0.0,0.0,0.0,0.0,0.0
1609043687484659624,220,1609043687484659624,-0.00953131727874,-0.00280809379183,0.00340277748182,-0.302175561773,-0.953142175048,-0.00177468094829,0.0143796564697,0.0,0.0,0.0,0.0,0.0,0.0
1609043687657184023,221,1609043687657184023,-0.00746151152998,-0.000406488019507,-0.000303621811327,-0.30217455277,-0.953145315302,-0.0018915884862,0.0141763700602,0.0,0.0,0.0,0.0,0.0,0.0
1609043687861298868,222,1609043687861298868,-0.00557751022279,-0.00136178662069,0.000117854375276,-0.302250376634,-0.95312115875,-0.00192827880696,0.0141791504708,0.0,0.0,0.0,0.0,0.0,0.0
1609043688070502850,223,1609043688070502850,-0.00844455882907,-0.00128083932213,0.002673254814,-0.302250667892,-0.9531199035,-0.00191819258187,0.0142584658678,0.0,0.0,0.0,0.0,0.0,0.0
1609043688277903223,224,1609043688277903223,-0.00552303204313,-0.00293869897723,0.00485062878579,-0.302124276924,-0.953160041191,-0.00178671086118,0.0142711188947,0.0,0.0,0.0,0.0,0.0,0.0
1609043688483491382,225,1609043688483491382,-0.00614337716252,-0.00166526657995,0.00389289809391,-0.302060800836,-0.953178868155,-0.00177289029472,0.0143587869013,0.0,0.0,0.0,0.0,0.0,0.0
1609043688660043954,226,1609043688660043954,-0.00872603431344,-0.00377518869936,-0.000156289490405,-0.302256753057,-0.953118896816,-0.00188998929583,0.0142004120983,0.0,0.0,0.0,0.0,0.0,0.0
1609043688866578504,227,1609043688866578504,-0.00691216764972,-0.00238612736575,0.00174685486127,-0.302278670011,-0.953111795502,-0.00190646671194,0.0142083185266,0.0,0.0,0.0,0.0,0.0,0.0
1609043689072414023,228,1609043689072414023,-0.00363964773715,0.000694265821949,0.0032706912607,-0.302101783479,-0.95316758769,-0.0018865773189,0.0142303556354,0.0,0.0,0.0,0.0,0.0,0.0
1609043689278796332,229,1609043689278796332,-0.00775168323889,-0.00388871878386,0.00371032510884,-0.302184887028,-0.953139961139,-0.0018305940209,0.0143233186382,0.0,0.0,0.0,0.0,0.0,0.0
1609043689484505160,230,1609043689484505160,-0.00507908407599,-0.000156969137606,0.00455389358103,-0.302018438068,-0.953192864066,-0.00174199146836,0.0143245393092,0.0,0.0,0.0,0.0,0.0,0.0
1609043689658034034,231,1609043689658034034,-0.0085809500888,-0.00117617298383,-0.000910238944925,-0.302263413356,-0.953116466099,-0.00190426940599,0.0142198718345,0.0,0.0,0.0,0.0,0.0,0.0
1609043689863589255,232,1609043689863589255,-0.00558142922819,-0.000725627760403,0.000607024878263,-0.302264619104,-0.953116228869,-0.00193669241581,0.014205756837,0.0,0.0,0.0,0.0,0.0,0.0
1609043690074188928,233,1609043690074188928,-0.00772354844958,-0.00141806108877,0.00242481473833,-0.302148270442,-0.953152124258,-0.00190209540928,0.0142769998021,0.0,0.0,0.0,0.0,0.0,0.0
1609043690280220444,234,1609043690280220444,-0.00717118801549,-0.00169225921854,0.00350351724774,-0.302107530833,-0.953164570088,-0.00181756658859,0.0143191687777,0.0,0.0,0.0,0.0,0.0,0.0
1609043690487579701,235,1609043690487579701,-0.00762295629829,-0.00451374752447,0.0047128344886,-0.302180202763,-0.953141157051,-0.00166896390656,0.014362254438,0.0,0.0,0.0,0.0,0.0,0.0
1609043690658447892,236,1609043690658447892,-0.00916853174567,-0.00060959655093,-0.00105418718886,-0.302214778473,-0.953132211493,-0.00191169837817,0.0141972003216,0.0,0.0,0.0,0.0,0.0,0.0
1609043690865191301,237,1609043690865191301,-0.00729192048311,0.000634637603071,0.00159725383855,-0.302128504562,-0.953159411296,-0.00192488975264,0.0142055689521,0.0,0.0,0.0,0.0,0.0,0.0
1609043691070962877,238,1609043691070962877,-0.0102140353993,-0.0042538116686,0.00291026663035,-0.302306874552,-0.953102406477,-0.00186326413313,0.0142437569551,0.0,0.0,0.0,0.0,0.0,0.0
1609043691277530791,239,1609043691277530791,-0.00661588739604,-0.00417991634458,0.00381591264158,-0.302303194725,-0.953103045621,-0.00182760718166,0.0142836528736,0.0,0.0,0.0,0.0,0.0,0.0
1609043691482626506,240,1609043691482626506,-0.00836583413184,-0.0034301308915,0.00453220307827,-0.302045021962,-0.953184123264,-0.00176844778743,0.0143424006904,0.0,0.0,0.0,0.0,0.0,0.0
1609043691655967842,241,1609043691655967842,-0.0074142194353,-0.000652924296446,-0.00169669580646,-0.302205151633,-0.953134821662,-0.00191194520528,0.0142268242432,0.0,0.0,0.0,0.0,0.0,0.0
1609043691861140868,242,1609043691861140868,-0.00682300841436,-0.000155837071361,-1.39820040204e-05,-0.302248455555,-0.953121208705,-0.00192468733198,0.0142171800775,0.0,0.0,0.0,0.0,0.0,0.0
1609043692067159675,243,1609043692067159675,-0.00824544392526,-0.00268120039254,0.000561063177884,-0.302262679083,-0.953115905268,-0.00193492718689,0.0142688477078,0.0,0.0,0.0,0.0,0.0,0.0
1609043692274092517,244,1609043692274092517,-0.008071356453,-0.00227968906984,0.00263930181973,-0.30212977483,-0.953158035503,-0.0018661557668,0.0142785146444,0.0,0.0,0.0,0.0,0.0,0.0
1609043692479638303,245,1609043692479638303,-0.00963172037154,-0.00661894725636,0.00385790155269,-0.302266736341,-0.953114210742,-0.00178875315954,0.0143150880579,0.0,0.0,0.0,0.0,0.0,0.0
1609043692685494452,246,1609043692685494452,-0.00645424984396,-0.00251221400686,0.00439883209765,-0.302132513611,-0.953156311137,-0.00170403169256,0.0143557317417,0.0,0.0,0.0,0.0,0.0,0.0
1609043692857565734,247,1609043692857565734,-0.0091035021469,-0.00122955127154,-0.00108033686411,-0.302248649233,-0.953121266924,-0.00189802703233,0.0142127431618,0.0,0.0,0.0,0.0,0.0,0.0
1609043693063850065,248,1609043693063850065,-0.00789875816554,-0.00382404285483,0.000984326237813,-0.302239276687,-0.953124442104,-0.00190873164047,0.0141976841461,0.0,0.0,0.0,0.0,0.0,0.0
1609043693270621676,249,1609043693270621676,-0.00714449863881,-0.00252752844244,0.00228713778779,-0.302214143164,-0.95313177953,-0.00189750583852,0.0142415586384,0.0,0.0,0.0,0.0,0.0,0.0
1609043693476695711,250,1609043693476695711,-0.00490800477564,-0.00164954771753,0.00366437854245,-0.302153463543,-0.95315045592,-0.00183083475634,0.0142877882183,0.0,0.0,0.0,0.0,0.0,0.0
1609043693682850678,251,1609043693682850678,-0.010266713798,-0.00461004395038,0.00490907067433,-0.302137243655,-0.953155133703,-0.0017356258173,0.0143305511097,0.0,0.0,0.0,0.0,0.0,0.0
1609043693856247030,252,1609043693856247030,-0.00541896512732,-0.00154005817603,-0.00161551765632,-0.302236635893,-0.953125486957,-0.00192147744522,0.0141820295213,0.0,0.0,0.0,0.0,0.0,0.0
1609043694060986938,253,1609043694060986938,-0.00298013095744,0.00413576094434,0.000161087344168,-0.302152887236,-0.953151633391,-0.00192433174652,0.0142089213838,0.0,0.0,0.0,0.0,0.0,0.0
1609043694267180069,254,1609043694267180069,-0.0104194534943,-0.00359373027459,0.00165742612444,-0.30227615481,-0.953112297713,-0.0019039433441,0.0142284637768,0.0,0.0,0.0,0.0,0.0,0.0
1609043694473509076,255,1609043694473509076,-0.00700956350192,-0.00261280220002,0.00224450253882,-0.302217593869,-0.953130293163,-0.00190482081519,0.0142668100012,0.0,0.0,0.0,0.0,0.0,0.0
1609043694679633603,256,1609043694679633603,-0.00493425130844,-0.000576637045015,0.00255477637984,-0.302026183335,-0.953190003961,-0.00185362389264,0.0143375384316,0.0,0.0,0.0,0.0,0.0,0.0
1609043694885919751,257,1609043694885919751,-0.00596368452534,-0.00242302520201,0.003937903326,-0.302090488844,-0.953169099891,-0.00173440078486,0.0143873353067,0.0,0.0,0.0,0.0,0.0,0.0
1609043695057897922,258,1609043695057897922,-0.00673564104363,-6.88576983521e-05,-0.00194409128744,-0.302247224588,-0.953121536343,-0.00193829351011,0.0142195360563,0.0,0.0,0.0,0.0,0.0,0.0
1609043695263960054,259,1609043695263960054,-0.00597452325746,0.000712824577931,0.000508275406901,-0.302170000102,-0.953146062509,-0.00195536295698,0.0142144686022,0.0,0.0,0.0,0.0,0.0,0.0
1609043695469996283,260,1609043695469996283,-0.00696517899632,-0.00201496272348,0.00205045728944,-0.302204861224,-0.953134238143,-0.00190914284496,0.0142723896054,0.0,0.0,0.0,0.0,0.0,0.0
1609043695676197971,261,1609043695676197971,-0.010228395462,-0.00264078495093,0.00303276325576,-0.302127693912,-0.953158309964,-0.00185834012416,0.0143052189642,0.0,0.0,0.0,0.0,0.0,0.0
1609043695882603132,262,1609043695882603132,-0.00630094110966,-0.00098950159736,0.00451036030427,-0.302136477663,-0.953155454803,-0.00175990216413,0.0143223806799,0.0,0.0,0.0,0.0,0.0,0.0
1609043696056037382,263,1609043696056037382,-0.00629205396399,0.00282967300154,-0.000944652711041,-0.302171062143,-0.953146107785,-0.0019112706547,0.0141948392913,0.0,0.0,0.0,0.0,0.0,0.0
1609043696261047683,264,1609043696261047683,-0.0046612014994,0.00115867285058,-0.000166652622283,-0.302218751901,-0.953131038722,-0.00192424431176,0.0141896549712,0.0,0.0,0.0,0.0,0.0,0.0
1609043696466839137,265,1609043696466839137,-0.00428177649155,-0.00131208240055,0.00156970671378,-0.302265263771,-0.953116167928,-0.00191723053938,0.0141987668171,0.0,0.0,0.0,0.0,0.0,0.0
1609043696673295813,266,1609043696673295813,-0.00580724142492,-0.000735705136321,0.0034887897782,-0.302144945042,-0.953153493781,-0.00185614832685,0.0142619841474,0.0,0.0,0.0,0.0,0.0,0.0
1609043696879289718,267,1609043696879289718,-0.0053054378368,-0.00130061013624,0.00441335747018,-0.302130907349,-0.953157477311,-0.00178046378864,0.0143027346911,0.0,0.0,0.0,0.0,0.0,0.0
1609043697085457070,268,1609043697085457070,-0.00766825815663,-0.000249741715379,0.00438162591308,-0.302035752898,-0.953186550023,-0.00173905070825,0.0143798654426,0.0,0.0,0.0,0.0,0.0,0.0
1609043697258060227,269,1609043697258060227,-0.00712920958176,-0.00025611903402,-0.000943583494518,-0.302282114047,-0.953110566847,-0.0019167359599,0.0142160829566,0.0,0.0,0.0,0.0,0.0,0.0
1609043697463918873,270,1609043697463918873,-0.00559028284624,0.000622750085313,0.000656495045405,-0.302214793944,-0.953131611054,-0.00191929023644,0.0142361039755,0.0,0.0,0.0,0.0,0.0,0.0
1609043697670118345,271,1609043697670118345,-0.0066458331421,-0.000309713126626,0.00262489076704,-0.302181932857,-0.953142069735,-0.00192350259354,0.0142328666504,0.0,0.0,0.0,0.0,0.0,0.0
1609043697875919062,272,1609043697875919062,-0.00679823337123,-0.00172154535539,0.00232423469424,-0.302152897665,-0.953149913493,-0.00187945923566,0.0143295664431,0.0,0.0,0.0,0.0,0.0,0.0
1609043698082578787,273,1609043698082578787,-0.00482767727226,0.0020516552031,0.00396481901407,-0.301961601861,-0.953210358695,-0.00177679280791,0.0143543054685,0.0,0.0,0.0,0.0,0.0,0.0
1609043698255813740,274,1609043698255813740,-0.00528886215761,0.00272361305542,-0.00199208525009,-0.302132208239,-0.953158252876,-0.00192055157138,0.0142051117955,0.0,0.0,0.0,0.0,0.0,0.0
1609043698460698812,275,1609043698460698812,-0.00696579366922,0.000617294630501,-0.00139994407073,-0.302176185668,-0.953144093886,-0.00196842708016,0.0142131769896,0.0,0.0,0.0,0.0,0.0,0.0
1609043698666585923,276,1609043698666585923,-0.0052136471495,0.00346023985185,0.000339267746313,-0.302047692165,-0.953184475662,-0.00196047990481,0.0142373990987,0.0,0.0,0.0,0.0,0.0,0.0
1609043698873111594,277,1609043698873111594,-0.00386414001696,0.0032364318613,0.0024067973718,-0.302022216091,-0.953191928072,-0.0019049731011,0.0142863684714,0.0,0.0,0.0,0.0,0.0,0.0
1609043699079424484,278,1609043699079424484,-0.00504476297647,0.00230877730064,0.00329588283785,-0.302062863193,-0.953178601588,-0.00184033476429,0.0143245706074,0.0,0.0,0.0,0.0,0.0,0.0
1609043699285703522,279,1609043699285703522,-0.00880134198815,-0.00456270948052,0.00321891345084,-0.302174901018,-0.953141985743,-0.00171965241549,0.0144127375522,0.0,0.0,0.0,0.0,0.0,0.0
1609043699458085342,280,1609043699458085342,-0.0107162185013,-0.00339234154671,-0.000795585161541,-0.302334772128,-0.953093926546,-0.00190942162608,0.0142129114763,0.0,0.0,0.0,0.0,0.0,0.0
1609043699664144338,281,1609043699664144338,-0.00445338524878,0.00165658979677,0.000236701220274,-0.302141691677,-0.953155085379,-0.00193357413427,0.0142141709952,0.0,0.0,0.0,0.0,0.0,0.0
1609043699870264931,282,1609043699870264931,-0.00436364719644,-0.000380052253604,0.00176818063483,-0.302214523748,-0.95313143368,-0.00192164374708,0.0142533874012,0.0,0.0,0.0,0.0,0.0,0.0
1609043700076503501,283,1609043700076503501,-0.00770540861413,-0.00237164623104,0.00350518315099,-0.302240124143,-0.953122781768,-0.00184048308867,0.014299750179,0.0,0.0,0.0,0.0,0.0,0.0
1609043700282615296,284,1609043700282615296,-0.00767652597278,-0.00234192959033,0.00333296298049,-0.30209752864,-0.953166992846,-0.00177977675528,0.0143735636989,0.0,0.0,0.0,0.0,0.0,0.0
1609043700456123903,285,1609043700456123903,-0.0113348718733,-0.001991573954,-0.00212642922997,-0.30225841338,-0.953118109259,-0.00190098216175,0.014216455602,0.0,0.0,0.0,0.0,0.0,0.0
1609043700660995345,286,1609043700660995345,-0.00538157299161,-0.000830082688481,0.000120854660054,-0.302224111283,-0.953129207601,-0.00191550676123,0.0141996834588,0.0,0.0,0.0,0.0,0.0,0.0
1609043700867074453,287,1609043700867074453,-0.00740182353184,-0.00183180090971,0.000945001200307,-0.302292534181,-0.953106979657,-0.00192108979017,0.0142344132661,0.0,0.0,0.0,0.0,0.0,0.0
1609043701073395587,288,1609043701073395587,-0.00556195201352,-0.00235420418903,0.00273157213815,-0.30223191595,-0.953125703912,-0.00188189429826,0.0142730514241,0.0,0.0,0.0,0.0,0.0,0.0
1609043701279612615,289,1609043701279612615,-0.00473053520545,-0.0031951724086,0.00381888076663,-0.30210823432,-0.95316460398,-0.00181380346493,0.0143025379753,0.0,0.0,0.0,0.0,0.0,0.0
1609043701486094590,290,1609043701486094590,-0.00733194127679,6.10444112681e-06,0.00515045691282,-0.302258007838,-0.953115887321,-0.00165780899031,0.014403253216,0.0,0.0,0.0,0.0,0.0,0.0
1609043701658043622,291,1609043701658043622,-0.00510258506984,0.00194735242985,-0.000106522194983,-0.30233651428,-0.953093136239,-0.00182896129595,0.0142394061792,0.0,0.0,0.0,0.0,0.0,0.0
1609043701864170311,292,1609043701864170311,-0.00476952875033,-0.0010890829144,0.000164049357409,-0.302109973859,-0.953166900771,-0.00187880360321,0.0141029453418,0.0,0.0,0.0,0.0,0.0,0.0
1609043702070340069,293,1609043702070340069,-0.00863600242883,-5.09723322466e-05,0.00105109682772,-0.30250169708,-0.95303733979,-0.00207474135754,0.0144307892235,0.0,0.0,0.0,0.0,0.0,0.0
1609043702276595053,294,1609043702276595053,-0.00698113907129,-0.00139623670839,0.00256222276948,-0.301435034762,-0.953379822223,-0.00204681455848,0.0141295769593,0.0,0.0,0.0,0.0,0.0,0.0
1609043702482905572,295,1609043702482905572,0.00192549277563,-0.00288417423144,0.0206600893289,-0.301868795411,-0.953234340246,-0.000961637602079,0.0147850663095,0.0,0.0,0.0,0.0,0.0,0.0
1609043702657055077,296,1609043702657055077,-0.00695452978835,0.00566413952038,-0.0184116642922,-0.302657241671,-0.952997636976,-0.00149895683653,0.0138510328287,0.0,0.0,0.0,0.0,0.0,0.0
1609043702861176656,297,1609043702861176656,-0.00311194662936,-0.00221030414104,-0.0040768859908,-0.302030763079,-0.953191049712,-0.00258373553572,0.0140557893656,0.0,0.0,0.0,0.0,0.0,0.0
1609043703067390989,298,1609043703067390989,-0.00403548451141,-0.00698153907433,-0.000998668605462,-0.30212146362,-0.953154903175,-0.00163519951144,0.0146859761891,0.0,0.0,0.0,0.0,0.0,0.0
1609043703274079993,299,1609043703274079993,-0.0069562275894,0.00278901844285,0.00810430757701,-0.302432840063,-0.95306164972,-0.00255659119059,0.01418918339,0.0,0.0,0.0,0.0,0.0,0.0
1609043703479429582,300,1609043703479429582,-0.00253112870269,-0.000137837487273,0.00452576205134,-0.302013386998,-0.953186251794,-0.00165474497038,0.0148709543816,0.0,0.0,0.0,0.0,0.0,0.0
1609043703685643309,301,1609043703685643309,-0.00563294347376,-0.00351720303297,0.00743937911466,-0.302139188104,-0.953157410346,-0.00126299866599,0.014186858334,0.0,0.0,0.0,0.0,0.0,0.0
1609043703857548527,302,1609043703857548527,-0.00351238204166,-0.000778204470407,0.00422165170312,-0.301961738341,-0.9532099832,-0.00155924936265,0.0144015710244,0.0,0.0,0.0,0.0,0.0,0.0
1609043704063810289,303,1609043704063810289,-0.00277360598557,0.00512356078252,-0.000660874822643,-0.302035525719,-0.953188575172,-0.00166462307154,0.0142586954315,0.0,0.0,0.0,0.0,0.0,0.0
1609043704270315608,304,1609043704270315608,-0.0058958097361,-0.00286238384433,-0.00225389446132,-0.302200624262,-0.953139000608,-0.00171580845748,0.0140671324902,0.0,0.0,0.0,0.0,0.0,0.0
1609043704476389039,305,1609043704476389039,-0.00600924761966,-0.000589876552112,0.00332995178178,-0.30208642227,-0.953165295291,-0.00201241650107,0.0146854864958,0.0,0.0,0.0,0.0,0.0,0.0
1609043704682174035,306,1609043704682174035,0.00225789123215,0.00798707921058,0.00183174095582,-0.301854283,-0.953249077554,-0.00169170873271,0.0140472808375,0.0,0.0,0.0,0.0,0.0,0.0
1609043704856261801,307,1609043704856261801,-0.00268795737065,0.00972902867943,-0.00330530339852,-0.302023569419,-0.953208471612,-0.00119412468372,0.0131889055064,0.0,0.0,0.0,0.0,0.0,0.0
1609043705060935413,308,1609043705060935413,-0.000371476286091,0.0146783208475,0.000471593491966,-0.302430934261,-0.953057035707,-0.00198317103145,0.0146247640557,0.0,0.0,0.0,0.0,0.0,0.0
1609043705267329790,309,1609043705267329790,0.00571289937943,0.015220570378,0.00787023734301,-0.300265525242,-0.953776370184,-0.00222492212363,0.0120954434312,0.0,0.0,0.0,0.0,0.0,0.0
1609043705473496305,310,1609043705473496305,0.00885197333992,0.0254983622581,0.0769808739424,-0.299506499852,-0.953993819604,0.000177183047462,0.0138425904568,0.0,0.0,0.0,0.0,0.0,0.0
1609043705680129074,311,1609043705680129074,0.00725835142657,0.0361548662186,0.153117582202,-0.299607851626,-0.953987345397,0.00149014108547,0.011876849145,0.0,0.0,0.0,0.0,0.0,0.0
1609043705885973914,312,1609043705885973914,0.000456614943687,0.0362008437514,0.260310232639,-0.299778354559,-0.953959213857,0.00419823978184,0.0087824380879,0.0,0.0,0.0,0.0,0.0,0.0
1609043706058026456,313,1609043706058026456,-0.00301631772891,0.0361476317048,0.352553665638,-0.299847247096,-0.953939799115,0.00747734127499,0.00588025854176,0.0,0.0,0.0,0.0,0.0,0.0
1609043706263851834,314,1609043706263851834,-0.0106585891917,0.0387847237289,0.46066814661,-0.300059289792,-0.953879690843,0.00738440043956,0.00484031366266,0.0,0.0,0.0,0.0,0.0,0.0
1609043706470066871,315,1609043706470066871,-0.00940822530538,0.0445953682065,0.538345873356,-0.299981026424,-0.953901800254,0.00755267331402,0.00506916006981,0.0,0.0,0.0,0.0,0.0,0.0
1609043706676628550,316,1609043706676628550,-0.0494003482163,0.0767353698611,0.665689408779,-0.299541923768,-0.953888864321,0.006984655339,0.0179411543449,0.0,0.0,0.0,0.0,0.0,0.0
1609043706882784640,317,1609043706882784640,-0.061088707298,0.0811734646559,0.7757127285,-0.299648125833,-0.953872631593,0.00881944368523,0.0161313606268,0.0,0.0,0.0,0.0,0.0,0.0
1609043707056392939,318,1609043707056392939,-0.0780221372843,0.0951693430543,0.835807979107,-0.29944530772,-0.953951541599,0.0102264776617,0.014296262462,0.0,0.0,0.0,0.0,0.0,0.0
1609043707261142071,319,1609043707261142071,-0.0908122807741,0.115031771362,0.945983409882,-0.299234143917,-0.954027813712,0.0123220373653,0.011748411519,0.0,0.0,0.0,0.0,0.0,0.0
1609043707467031162,320,1609043707467031162,-0.114228136837,0.128939062357,1.01070702076,-0.29880003436,-0.954178630521,0.0130942822481,0.00949843645584,0.0,0.0,0.0,0.0,0.0,0.0
1609043707673257219,321,1609043707673257219,-0.14003765583,0.146402075887,1.10399186611,-0.298771050673,-0.954171408799,0.0148214658407,0.00855020823954,0.0,0.0,0.0,0.0,0.0,0.0
1609043707879353424,322,1609043707879353424,-0.15624037385,0.178778260946,1.19242084026,-0.298823260084,-0.954156185056,0.015055313224,0.00799820574608,0.0,0.0,0.0,0.0,0.0,0.0
1609043708085746993,323,1609043708085746993,-0.188281804323,0.203473687172,1.29037845135,-0.298698377286,-0.954212267001,0.0144262303246,0.00707903871464,0.0,0.0,0.0,0.0,0.0,0.0
1609043708257785553,324,1609043708257785553,-0.235152304173,0.233180329204,1.3921957016,-0.299109777475,-0.954072591501,0.0158233662532,0.00533406458969,0.0,0.0,0.0,0.0,0.0,0.0
1609043708463296716,325,1609043708463296716,-0.269641280174,0.270923107862,1.51773583889,-0.298215614005,-0.954260562992,0.0207750832962,0.00475619558449,0.0,0.0,0.0,0.0,0.0,0.0
1609043708669695272,326,1609043708669695272,-0.304358184338,0.327951282263,1.53918814659,-0.297840564809,-0.95410718774,0.0100624920997,0.029482511929,0.0,0.0,0.0,0.0,0.0,0.0
1609043708875958153,327,1609043708875958153,-0.326615214348,0.361096769571,1.61523783207,-0.297307344032,-0.952079965699,-0.00922326970816,0.0711829571958,0.0,0.0,0.0,0.0,0.0,0.0
1609043709082453980,328,1609043709082453980,-0.309583157301,0.366485148668,1.64054191113,-0.296904817016,-0.95111300525,-0.0107905127637,0.0843513231124,0.0,0.0,0.0,0.0,0.0,0.0
1609043709255560391,329,1609043709255560391,-0.264358758926,0.36201274395,1.53229820728,-0.29705838144,-0.953685858214,-0.0120588069725,0.0457622883265,0.0,0.0,0.0,0.0,0.0,0.0
1609043709460360021,330,1609043709460360021,-0.181763470173,0.31718569994,1.49858677387,-0.297004171769,-0.954651040922,-0.00470414214164,0.0201936392303,0.0,0.0,0.0,0.0,0.0,0.0
1609043709666454814,331,1609043709666454814,-0.1251501441,0.297226369381,1.50370383263,-0.296916440455,-0.954868094402,0.00734412355267,0.00368965172918,0.0,0.0,0.0,0.0,0.0,0.0
1609043709872870865,332,1609043709872870865,-0.0811731442809,0.247578054667,1.404250741,-0.297120930066,-0.954801740144,0.00459191986898,0.00719056373186,0.0,0.0,0.0,0.0,0.0,0.0
1609043710079162799,333,1609043710079162799,-0.0191606841981,0.226310059428,1.30323016644,0.296628078545,0.954738198929,0.0196582873075,-0.0100153015757,0.0,0.0,0.0,0.0,0.0,0.0
1609043710285521553,334,1609043710285521553,0.00568811083212,0.151486992836,1.32722747326,-0.296676793303,-0.954900292503,0.000599544679813,0.0121635619699,0.0,0.0,0.0,0.0,0.0,0.0
1609043710457256732,335,1609043710457256732,0.0544690862298,0.112365618348,1.2357199192,-0.296781745068,-0.954818306634,0.013444086352,-0.0078647093137,0.0,0.0,0.0,0.0,0.0,0.0
