%time,field.header.seq,field.header.stamp,field.pose.pose.position.x,field.pose.pose.position.y,field.pose.pose.position.z,field.pose.pose.orientation.x,field.pose.pose.orientation.y,field.pose.pose.orientation.z,field.pose.pose.orientation.w,field.twist.twist.linear.x,field.twist.twist.linear.y,field.twist.twist.linear.z,field.twist.twist.angular.x,field.twist.twist.angular.y,field.twist.twist.angular.z
1609054403367282250,23,1609054403367282250,1.3302937746,-1.10420036316,-3.85236120224,0.994444242736,0.00990515325778,0.101485564647,0.0261384046244,0.0,0.0,0.0,0.0,0.0,0.0
1609054403573681680,24,1609054403573681680,1.3248333931,-1.09679019451,-3.85144901276,0.994452246188,0.00999563508548,0.101399946781,0.0261317455339,0.0,0.0,0.0,0.0,0.0,0.0
1609054403761391127,25,1609054403761391127,1.32892668247,-1.11404490471,-3.8548438549,0.994448367945,0.00997579722452,0.101420310875,0.0262077756367,0.0,0.0,0.0,0.0,0.0,0.0
1609054403967506515,26,1609054403967506515,1.33040785789,-1.10796391964,-3.85281229019,0.994447526976,0.0100035257431,0.101442889993,0.0261416455718,0.0,0.0,0.0,0.0,0.0,0.0
1609054404173678580,27,1609054404173678580,1.32701790333,-1.10860896111,-3.8512005806,0.994451406559,0.00994316956658,0.101410322319,0.0261434484844,0.0,0.0,0.0,0.0,0.0,0.0
1609054404361479476,28,1609054404361479476,1.32633960247,-1.11413741112,-3.8533911705,0.994443621274,0.0101169908337,0.101451348165,0.0262136330895,0.0,0.0,0.0,0.0,0.0,0.0
1609054404567915758,29,1609054404567915758,1.32821273804,-1.11236441135,-3.8511633873,0.994452856242,0.0100405848863,0.101384634263,0.0261507036674,0.0,0.0,0.0,0.0,0.0,0.0
1609054404773445142,30,1609054404773445142,1.3238427639,-1.11292409897,-3.85172009468,0.994451335887,0.0100505400132,0.101405574801,0.02612348748,0.0,0.0,0.0,0.0,0.0,0.0
1609054404961496739,31,1609054404961496739,1.32623457909,-1.11033427715,-3.85361671448,0.994445780391,0.01024513433,0.101411750557,0.026235165986,0.0,0.0,0.0,0.0,0.0,0.0
1609054405167301524,32,1609054405167301524,1.33133792877,-1.11004078388,-3.85311889648,0.994451030672,0.0101831342471,0.101376354394,0.0261970636235,0.0,0.0,0.0,0.0,0.0,0.0
1609054405374491909,33,1609054405374491909,1.32604193687,-1.11445260048,-3.85268568993,0.994456599617,0.0100993223613,0.101349675794,0.0261212247348,0.0,0.0,0.0,0.0,0.0,0.0
1609054405561595569,34,1609054405561595569,1.32809746265,-1.10854291916,-3.8542675972,0.994437641597,0.010164515055,0.101501168594,0.0262292276382,0.0,0.0,0.0,0.0,0.0,0.0
1609054405767358875,35,1609054405767358875,1.32792961597,-1.1081815958,-3.85273909569,0.994441730924,0.0100672015374,0.101485986276,0.0261704000681,0.0,0.0,0.0,0.0,0.0,0.0
1609054405973615733,36,1609054405973615733,1.32750070095,-1.10601663589,-3.85145568848,0.99444693472,0.0100491601867,0.101444327918,0.0261410929278,0.0,0.0,0.0,0.0,0.0,0.0
1609054406161258989,37,1609054406161258989,1.33096849918,-1.10553884506,-3.85183811188,0.994445460513,0.010047830561,0.101439472718,0.0262164173755,0.0,0.0,0.0,0.0,0.0,0.0
1609054406367122832,38,1609054406367122832,1.32981395721,-1.11055314541,-3.85161280632,0.994443393147,0.0100879097452,0.101475026013,0.0261417482079,0.0,0.0,0.0,0.0,0.0,0.0
1609054406559399998,39,1609054406559399998,1.32938027382,-1.11078715324,-3.85478568077,0.994445809846,0.00998066637498,0.101454229075,0.0261716828016,0.0,0.0,0.0,0.0,0.0,0.0
1609054406762711478,40,1609054406762711478,1.33297622204,-1.10311496258,-3.85322737694,0.994443789144,0.0100121982799,0.101470438944,0.0261735771041,0.0,0.0,0.0,0.0,0.0,0.0
1609054406968643356,41,1609054406968643356,1.32523095608,-1.11597216129,-3.85143780708,0.994449355883,0.00999892053825,0.101412461702,0.026191845732,0.0,0.0,0.0,0.0,0.0,0.0
1609054407159109897,42,1609054407159109897,1.32920253277,-1.10213649273,-3.85378503799,0.994446177273,0.0101698969149,0.101424774833,0.0261990220024,0.0,0.0,0.0,0.0,0.0,0.0
1609054407363734099,43,1609054407363734099,1.3286485672,-1.0981348753,-3.85245132446,0.994445317186,0.00998350893318,0.101452393503,0.0261964220408,0.0,0.0,0.0,0.0,0.0,0.0
1609054407568443203,44,1609054407568443203,1.33223116398,-1.10370349884,-3.85161805153,0.994447486296,0.0101585065145,0.101423164278,0.0261599597159,0.0,0.0,0.0,0.0,0.0,0.0
1609054407759235310,45,1609054407759235310,1.32735848427,-1.10160267353,-3.85265278816,0.994449363654,0.0100738780086,0.101394317864,0.0262330405185,0.0,0.0,0.0,0.0,0.0,0.0
1609054407962866481,46,1609054407962866481,1.33231580257,-1.10695981979,-3.85307979584,0.994446202977,0.0100307314123,0.101443883784,0.0261777053027,0.0,0.0,0.0,0.0,0.0,0.0
1609054408168604161,47,1609054408168604161,1.32613635063,-1.1070587635,-3.85186386108,0.994444609874,0.0101073204094,0.101448719541,0.0261900223464,0.0,0.0,0.0,0.0,0.0,0.0
1609054408359160091,48,1609054408359160091,1.33039355278,-1.11798751354,-3.85311436653,0.994442329718,0.0101771726878,0.101451347726,0.0262393228747,0.0,0.0,0.0,0.0,0.0,0.0
1609054408562790985,49,1609054408562790985,1.3329076767,-1.10164105892,-3.851760149,0.994438203798,0.00990166006451,0.101534959524,0.0261776230571,0.0,0.0,0.0,0.0,0.0,0.0
1609054408768761460,50,1609054408768761460,1.32881128788,-1.11769330502,-3.85186600685,0.994445599969,0.010041446624,0.101451473754,0.0261670885695,0.0,0.0,0.0,0.0,0.0,0.0
1609054408958965507,51,1609054408958965507,1.3289860487,-1.10420334339,-3.85579919815,0.994443734208,0.0100448849233,0.101471269613,0.0261599163819,0.0,0.0,0.0,0.0,0.0,0.0
1609054409162940106,52,1609054409162940106,1.32860267162,-1.10705316067,-3.85279655457,0.994441929475,0.00995675462579,0.101492771971,0.026178792518,0.0,0.0,0.0,0.0,0.0,0.0
1609054409368637588,53,1609054409368637588,1.32896530628,-1.12137937546,-3.85187387466,0.994449150635,0.00986226847894,0.101448865017,0.0261103475251,0.0,0.0,0.0,0.0,0.0,0.0
1609054409559236825,54,1609054409559236825,1.33309471607,-1.11064517498,-3.85417556763,0.994445521671,0.00997108247785,0.101453350135,0.0261896866965,0.0,0.0,0.0,0.0,0.0,0.0
1609054409763786500,55,1609054409763786500,1.33025085926,-1.11194491386,-3.85082006454,0.994446266904,0.00985023810994,0.101463269603,0.0261686830311,0.0,0.0,0.0,0.0,0.0,0.0
1609054409968606710,56,1609054409968606710,1.32742261887,-1.11000144482,-3.85085511208,0.994449325458,0.00999480396489,0.101426415425,0.0261404905209,0.0,0.0,0.0,0.0,0.0,0.0
1609054410158784351,57,1609054410158784351,1.32944905758,-1.11908531189,-3.85313296318,0.994447238786,0.0100150813444,0.101426173685,0.0262129492499,0.0,0.0,0.0,0.0,0.0,0.0
1609054410362285944,58,1609054410362285944,1.32866740227,-1.11261296272,-3.85421276093,0.994438611324,0.0100443741228,0.101526965762,0.0261387467202,0.0,0.0,0.0,0.0,0.0,0.0
1609054410568568290,59,1609054410568568290,1.32741129398,-1.11134231091,-3.85203814507,0.994450957869,0.0099433554546,0.101407856919,0.02616999484,0.0,0.0,0.0,0.0,0.0,0.0
1609054410758918744,60,1609054410758918744,0.682496845722,-1.20488834381,-2.07006645203,0.997930385088,0.0181826428271,0.0539703570017,0.0298586433576,0.0,0.0,0.0,0.0,0.0,0.0
1609054410962547304,61,1609054410962547304,0.678202986717,-1.19404053688,-2.07004570961,0.997964155988,0.0178280472469,0.0536778221981,0.0294685510212,0.0,0.0,0.0,0.0,0.0,0.0
1609054411169037104,62,1609054411169037104,0.679603755474,-1.20023441315,-2.07070922852,0.997963576298,0.0179756527079,0.0536456050919,0.0294571781761,0.0,0.0,0.0,0.0,0.0,0.0
1609054411359087212,63,1609054411359087212,0.684662282467,-1.19975447655,-2.07217931747,0.997958859512,0.0179274109262,0.0537313626476,0.0294900547157,0.0,0.0,0.0,0.0,0.0,0.0
1609054411562402753,64,1609054411562402753,0.684508502483,-1.19818329811,-2.07441234589,0.997961234956,0.0179499779216,0.053720759134,0.0294151636936,0.0,0.0,0.0,0.0,0.0,0.0
1609054411768463280,65,1609054411768463280,0.681660234928,-1.20666003227,-2.06825065613,0.997961959584,0.0180135021593,0.0536448440136,0.0294901962306,0.0,0.0,0.0,0.0,0.0,0.0
1609054411959164311,66,1609054411959164311,0.685672163963,-1.1996243,-2.06993198395,0.997958337044,0.0178935334165,0.0537436397356,0.0295059345655,0.0,0.0,0.0,0.0,0.0,0.0
1609054412165399955,67,1609054412165399955,0.682123959064,-1.19341409206,-2.07036542892,0.997962736599,0.0178648179034,0.0537022814892,0.0294497810345,0.0,0.0,0.0,0.0,0.0,0.0
1609054412370381286,68,1609054412370381286,0.682328462601,-1.20140087605,-2.06782746315,0.99796051934,0.0179613658006,0.0537184584113,0.029436684655,0.0,0.0,0.0,0.0,0.0,0.0
1609054412559495823,69,1609054412559495823,0.681338787079,-1.2012847662,-2.07327127457,0.997961053627,0.017901263197,0.0537389952168,0.0294176921764,0.0,0.0,0.0,0.0,0.0,0.0
1609054412772087362,70,1609054412772087362,0.682194530964,-1.19226944447,-2.07056570053,0.997966103603,0.0179833575194,0.0536170298051,0.0294188549478,0.0,0.0,0.0,0.0,0.0,0.0
1609054412959221224,71,1609054412959221224,0.684939324856,-1.20023155212,-2.07204198837,0.997965536882,0.0179536738628,0.0536301820683,0.0294322333707,0.0,0.0,0.0,0.0,0.0,0.0
1609054413168034749,72,1609054413168034749,0.682228326797,-1.19873845577,-2.06920003891,0.997960011904,0.018013902527,0.0537084448635,0.0294400561607,0.0,0.0,0.0,0.0,0.0,0.0
1609054413371543736,73,1609054413371543736,0.683309316635,-1.20421993732,-2.07024621964,0.997962349213,0.0178943511137,0.053706613313,0.0294370759049,0.0,0.0,0.0,0.0,0.0,0.0
1609054413558970137,74,1609054413558970137,0.684427142143,-1.20274245739,-2.0708861351,0.997958717119,0.0179600488445,0.0537410407448,0.0294573608975,0.0,0.0,0.0,0.0,0.0,0.0
1609054413765676697,75,1609054413765676697,0.683476507664,-1.19661545753,-2.07021307945,0.997963111397,0.0178010070763,0.053728828896,0.0294272897849,0.0,0.0,0.0,0.0,0.0,0.0
1609054413971652732,76,1609054413971652732,0.678943574429,-1.19620609283,-2.06888985634,0.997956867276,0.0181002619815,0.0537244834839,0.0294644098527,0.0,0.0,0.0,0.0,0.0,0.0
1609054414159121769,77,1609054414159121769,0.686305820942,-1.19898295403,-2.06931090355,0.997958684791,0.0179247201779,0.0537567643271,0.0294512842849,0.0,0.0,0.0,0.0,0.0,0.0
1609054414365254160,78,1609054414365254160,0.679004430771,-1.19948542118,-2.07141137123,0.997954998817,0.0180553676918,0.0537748378153,0.0294633815525,0.0,0.0,0.0,0.0,0.0,0.0
1609054414558851147,79,1609054414558851147,0.683372020721,-1.19753992558,-2.07229685783,0.997959040527,0.0177409484465,0.0538134650296,0.0294469550312,0.0,0.0,0.0,0.0,0.0,0.0
1609054414762165949,80,1609054414762165949,0.680076181889,-1.19130909443,-2.07169032097,0.997961348837,0.0179967436647,0.0536885363948,0.0294415438521,0.0,0.0,0.0,0.0,0.0,0.0
1609054414969217361,81,1609054414969217361,0.68287140131,-1.20449006557,-2.06904029846,0.997962325964,0.018022083884,0.05364993687,0.0294632775295,0.0,0.0,0.0,0.0,0.0,0.0
1609054415159574122,82,1609054415159574122,0.684918582439,-1.20057892799,-2.07252120972,0.997963601248,0.0179419824984,0.0536533117597,0.0294628237842,0.0,0.0,0.0,0.0,0.0,0.0
1609054415362461812,83,1609054415362461812,0.680706620216,-1.20046401024,-2.07171320915,0.997957054275,0.0181126294321,0.0537165809419,0.0294648843364,0.0,0.0,0.0,0.0,0.0,0.0
1609054415568372752,84,1609054415568372752,0.678146362305,-1.19927847385,-2.07120585442,0.997964748725,0.0178760607608,0.0536557304265,0.029459622308,0.0,0.0,0.0,0.0,0.0,0.0
1609054415760653975,85,1609054415760653975,0.679687798023,-1.19507932663,-2.07296395302,0.997959854469,0.0180120682003,0.0536922632571,0.0294760094552,0.0,0.0,0.0,0.0,0.0,0.0
1609054415967223671,86,1609054415967223671,0.678122639656,-1.19535958767,-2.0686943531,0.99796314226,0.0179082691973,0.0536648418116,0.0294778787972,0.0,0.0,0.0,0.0,0.0,0.0
1609054416177806489,87,1609054416177806489,0.67873698473,-1.19979095459,-2.06902837753,0.997962867237,0.0179904534667,0.053683176706,0.0294036687879,0.0,0.0,0.0,0.0,0.0,0.0
1609054416364276692,88,1609054416364276692,0.684551179409,-1.19655990601,-2.07107305527,0.997961730342,0.0179494001563,0.0536884269457,0.0294577089826,0.0,0.0,0.0,0.0,0.0,0.0
1609054416570194690,89,1609054416570194690,0.679403543472,-1.19948792458,-2.06907343864,0.997968769235,0.0178437242766,0.0536233616683,0.0294019084181,0.0,0.0,0.0,0.0,0.0,0.0
1609054416761210135,90,1609054416761210135,0.682783722878,-1.20485627651,-2.07251405716,0.997961862389,0.017908452842,0.0537008210737,0.0294555656928,0.0,0.0,0.0,0.0,0.0,0.0
1609054416965483995,91,1609054416965483995,0.680109322071,-1.2036485672,-2.06966638565,0.997961224916,0.018022486197,0.0536640829245,0.029474561208,0.0,0.0,0.0,0.0,0.0,0.0
1609054417171415966,92,1609054417171415966,0.680137932301,-1.19726908207,-2.07023215294,0.997962872491,0.017789606114,0.0537450984285,0.0294125727885,0.0,0.0,0.0,0.0,0.0,0.0
1609054417361926306,93,1609054417361926306,0.680165171623,-1.20499682426,-2.07296705246,0.997963564208,0.017844493128,0.0536970357689,0.0294436228813,0.0,0.0,0.0,0.0,0.0,0.0
1609054417566003109,94,1609054417566003109,0.677820026875,-1.19840764999,-2.0702226162,0.997966403325,0.0177021950491,0.0536882857395,0.0294492461686,0.0,0.0,0.0,0.0,0.0,0.0
1609054417770444998,95,1609054417770444998,0.67885184288,-1.20520186424,-2.07133674622,0.99796482464,0.0179603252882,0.0536410164188,0.0294325815109,0.0,0.0,0.0,0.0,0.0,0.0
1609054417959754237,96,1609054417959754237,0.679564833641,-1.19939208031,-2.07303833961,0.997963665697,0.0178506979339,0.053682341564,0.0294632098722,0.0,0.0,0.0,0.0,0.0,0.0
1609054418164486437,97,1609054418164486437,0.680433630943,-1.20064997673,-2.07157468796,0.997963081545,0.0178342010111,0.0537003139194,0.0294602347713,0.0,0.0,0.0,0.0,0.0,0.0
1609054418370117393,98,1609054418370117393,0.684349477291,-1.201187253,-2.06894683838,0.997963344953,0.0178566876111,0.0536943193547,0.0294486146682,0.0,0.0,0.0,0.0,0.0,0.0
1609054418559254265,99,1609054418559254265,0.680264592171,-1.20357823372,-2.07136106491,0.997963073409,0.0178598337544,0.0537026805913,0.0294406614581,0.0,0.0,0.0,0.0,0.0,0.0
1609054418763825347,100,1609054418763825347,0.681757152081,-1.19390845299,-2.07106232643,0.997965544073,0.0177955633181,0.0536703514725,0.0294547813194,0.0,0.0,0.0,0.0,0.0,0.0
1609054418969802209,101,1609054418969802209,0.680238366127,-1.20087265968,-2.06863307953,0.997965279111,0.0178501976268,0.0536697877535,0.029431717873,0.0,0.0,0.0,0.0,0.0,0.0
1609054419159015470,102,1609054419159015470,0.682109892368,-1.19773328304,-2.07095003128,0.997960888164,0.0178858973086,0.0537139666055,0.0294782998818,0.0,0.0,0.0,0.0,0.0,0.0
1609054419363985634,103,1609054419363985634,0.683796644211,-1.19719445705,-2.07010054588,0.997955806106,0.0181009858398,0.0537434277979,0.0294653582976,0.0,0.0,0.0,0.0,0.0,0.0
1609054419570042276,104,1609054419570042276,0.67580807209,-1.20131349564,-2.07018995285,0.997965131318,0.017813384298,0.0536704202521,0.0294578682811,0.0,0.0,0.0,0.0,0.0,0.0
1609054419759082571,105,1609054419759082571,0.680327534676,-1.19662487507,-2.07206654549,0.997961927057,0.0177981467001,0.0537135596254,0.0294969766392,0.0,0.0,0.0,0.0,0.0,0.0
1609054419963737498,106,1609054419963737498,0.67896270752,-1.20787668228,-2.07048034668,0.997961785962,0.0179443451409,0.0536856443683,0.0294639750399,0.0,0.0,0.0,0.0,0.0,0.0
1609054420170028341,107,1609054420170028341,0.676528692245,-1.18914198875,-2.07204389572,0.997968253978,0.0178481713191,0.0536236636146,0.0294161440953,0.0,0.0,0.0,0.0,0.0,0.0
1609054420359045304,108,1609054420359045304,0.681367337704,-1.20068824291,-2.07270288467,0.997961924788,0.0179464128357,0.0536947211843,0.0294414649284,0.0,0.0,0.0,0.0,0.0,0.0
1609054420563678093,109,1609054420563678093,0.68202239275,-1.19724607468,-2.0714700222,0.997956865119,0.0179881116524,0.0537557908547,0.0294760606231,0.0,0.0,0.0,0.0,0.0,0.0
1609054420770562775,110,1609054420770562775,0.893198490143,-0.852467298508,-2.10078382492,0.998363749504,0.00543523147291,0.0479604544774,0.0306606709186,0.0,0.0,0.0,0.0,0.0,0.0
1609054420959661687,111,1609054420959661687,0.931508898735,-0.931579470634,-2.52042961121,0.997648525322,0.00754331310104,0.0596474630223,0.0329043842753,0.0,0.0,0.0,0.0,0.0,0.0
1609054421165136447,112,1609054421165136447,1.33306980133,-1.11625313759,-3.85379528999,0.994445295334,0.0103973958747,0.101425277809,0.0261411891279,0.0,0.0,0.0,0.0,0.0,0.0
1609054421370331939,113,1609054421370331939,1.33759081364,-1.12070465088,-3.85090994835,0.994492383912,0.0103099983054,0.101012608434,0.0259818246686,0.0,0.0,0.0,0.0,0.0,0.0
1609054421559391851,114,1609054421559391851,1.33386862278,-1.11816179752,-3.85368514061,0.994486461668,0.0104079759313,0.101053488173,0.0260104618096,0.0,0.0,0.0,0.0,0.0,0.0
1609054421764627931,115,1609054421764627931,1.33105802536,-1.12263274193,-3.85130119324,0.994491351597,0.0104121435511,0.101009774031,0.0259916220454,0.0,0.0,0.0,0.0,0.0,0.0
1609054421970602235,116,1609054421970602235,1.3340280056,-1.11691248417,-3.8502175808,0.994490212323,0.0104243438642,0.101024679449,0.0259723851783,0.0,0.0,0.0,0.0,0.0,0.0
1609054422159576646,117,1609054422159576646,1.3388916254,-1.11738872528,-3.85174465179,0.994487822329,0.0104032344628,0.101047710236,0.025982767535,0.0,0.0,0.0,0.0,0.0,0.0
1609054422364330202,118,1609054422364330202,1.33301687241,-1.11811602116,-3.85255742073,0.994485595652,0.0103889567476,0.101070347108,0.0259856605351,0.0,0.0,0.0,0.0,0.0,0.0
1609054422570088427,119,1609054422570088427,1.32973456383,-1.11707365513,-3.85212802887,0.994495119046,0.0103115180646,0.100993676998,0.0259501058934,0.0,0.0,0.0,0.0,0.0,0.0
1609054422759146050,120,1609054422759146050,1.33296132088,-1.11961901188,-3.85544586182,0.99448412136,0.0103866643159,0.101079155406,0.0260087275672,0.0,0.0,0.0,0.0,0.0,0.0
1609054422964282152,121,1609054422964282152,1.33776783943,-1.11822283268,-3.8527507782,0.99448637574,0.0104022552923,0.10105754196,0.0260002839571,0.0,0.0,0.0,0.0,0.0,0.0
1609054423170310202,122,1609054423170310202,1.3329488039,-1.11391699314,-3.85180735588,0.994496545004,0.0103899931403,0.100967254966,0.0259669683105,0.0,0.0,0.0,0.0,0.0,0.0
1609054423359496344,123,1609054423359496344,1.33379864693,-1.11740207672,-3.85475468636,0.994485218094,0.0104324226183,0.101065500385,0.0260015419399,0.0,0.0,0.0,0.0,0.0,0.0
1609054423564407043,124,1609054423564407043,1.33483707905,-1.11663389206,-3.85316944122,0.994492200368,0.0104449708661,0.100995337103,0.0260020744162,0.0,0.0,0.0,0.0,0.0,0.0
1609054423770085821,125,1609054423770085821,1.33392190933,-1.11754047871,-3.85109686852,0.994492009297,0.0104286414592,0.101005840373,0.0259751245012,0.0,0.0,0.0,0.0,0.0,0.0
1609054423959341954,126,1609054423959341954,1.33746623993,-1.11227822304,-3.85295629501,0.994485293048,0.0104701417502,0.101062189568,0.0259963820895,0.0,0.0,0.0,0.0,0.0,0.0
1609054424163917367,127,1609054424163917367,1.33468878269,-1.11724376678,-3.850928545,0.994491782173,0.0104709484422,0.100999090491,0.0259930404088,0.0,0.0,0.0,0.0,0.0,0.0
1609054424370056073,128,1609054424370056073,1.33320105076,-1.11969566345,-3.85096907616,0.994494973973,0.0105766254847,0.100956735836,0.0259926763905,0.0,0.0,0.0,0.0,0.0,0.0
1609054424559176902,129,1609054424559176902,1.33243381977,-1.1244571209,-3.85325193405,0.994489131678,0.0102956178109,0.101044814397,0.0259867795486,0.0,0.0,0.0,0.0,0.0,0.0
1609054424764034686,130,1609054424764034686,1.33536815643,-1.11927568913,-3.85243320465,0.99448334663,0.0105378860584,0.101068302702,0.0260196929782,0.0,0.0,0.0,0.0,0.0,0.0
1609054424970034022,131,1609054424970034022,1.33231496811,-1.11985194683,-3.85024905205,0.994495350603,0.0103550376511,0.100986561793,0.02595159266,0.0,0.0,0.0,0.0,0.0,0.0
1609054425159103112,132,1609054425159103112,1.33574950695,-1.1157989502,-3.85360646248,0.994489113027,0.0104755905024,0.101029018436,0.0259769803717,0.0,0.0,0.0,0.0,0.0,0.0
1609054425363741586,133,1609054425363741586,1.33699524403,-1.1197078228,-3.85306811333,0.994482615273,0.0104160657009,0.101088951679,0.0260164821575,0.0,0.0,0.0,0.0,0.0,0.0
1609054425570206488,134,1609054425570206488,1.33603453636,-1.11841845512,-3.85154724121,0.994490652661,0.0104493664535,0.101014132926,0.0259864860927,0.0,0.0,0.0,0.0,0.0,0.0
1609054425759110552,135,1609054425759110552,1.33388257027,-1.11442053318,-3.85405755043,0.994486932248,0.0103935336531,0.101053076412,0.025999842172,0.0,0.0,0.0,0.0,0.0,0.0
1609054425963974233,136,1609054425963974233,1.33434534073,-1.11662173271,-3.85158896446,0.994491386319,0.0103015359113,0.101031004664,0.0259518205796,0.0,0.0,0.0,0.0,0.0,0.0
1609054426169999674,137,1609054426169999674,1.33338737488,-1.1191110611,-3.85225296021,0.994493814025,0.0103761250776,0.100990772254,0.0259856463183,0.0,0.0,0.0,0.0,0.0,0.0
1609054426359135618,138,1609054426359135618,1.33657979965,-1.11916017532,-3.85463857651,0.994483686465,0.0103827651257,0.101082632786,0.026013398316,0.0,0.0,0.0,0.0,0.0,0.0
1609054426563951500,139,1609054426563951500,1.3336083889,-1.11565005779,-3.8524620533,0.994491809374,0.0103868008992,0.101008934163,0.0259875099653,0.0,0.0,0.0,0.0,0.0,0.0
1609054426770044065,140,1609054426770044065,1.333999753,-1.12253522873,-3.85097050667,0.99449392252,0.0105094476354,0.100976262407,0.0259843031599,0.0,0.0,0.0,0.0,0.0,0.0
1609054426958932039,141,1609054426958932039,1.33191657066,-1.11699914932,-3.85281205177,0.994488421398,0.0102717259423,0.101055810591,0.0259806562294,0.0,0.0,0.0,0.0,0.0,0.0
1609054427163532107,142,1609054427163532107,1.33483457565,-1.11805927753,-3.85303544998,0.994487862569,0.0103811418471,0.101043253567,0.0260073836612,0.0,0.0,0.0,0.0,0.0,0.0
1609054427369786359,143,1609054427369786359,1.33534669876,-1.12775468826,-3.85098004341,0.99449258797,0.010399412048,0.101007018989,0.0259601004678,0.0,0.0,0.0,0.0,0.0,0.0
1609054427558803279,144,1609054427558803279,1.33571505547,-1.12174618244,-3.85353970528,0.994484023368,0.0103834569283,0.101073752809,0.0260347379712,0.0,0.0,0.0,0.0,0.0,0.0
1609054427763384251,145,1609054427763384251,1.33551180363,-1.11640357971,-3.85249948502,0.994491395431,0.0103254888968,0.101024416039,0.025967596297,0.0,0.0,0.0,0.0,0.0,0.0
1609054427969795328,146,1609054427969795328,1.33170080185,-1.12043297291,-3.85251164436,0.994487855688,0.0104064025909,0.101049439473,0.0259734952628,0.0,0.0,0.0,0.0,0.0,0.0
1609054428159039492,147,1609054428159039492,1.33551955223,-1.12459623814,-3.85297060013,0.994482187861,0.0103712843302,0.101089980954,0.0260466934583,0.0,0.0,0.0,0.0,0.0,0.0
1609054428363430424,148,1609054428363430424,1.33578646183,-1.12431657314,-3.85296750069,0.994485379925,0.0104164282268,0.101062560113,0.026013190552,0.0,0.0,0.0,0.0,0.0,0.0
1609054428569565704,149,1609054428569565704,1.33357286453,-1.12625026703,-3.85180616379,0.994484973786,0.0103172948551,0.101075930947,0.026016274217,0.0,0.0,0.0,0.0,0.0,0.0
1609054428758571557,150,1609054428758571557,1.33876526356,-1.11523890495,-3.85230779648,0.994479540584,0.0105064693008,0.101101470403,0.0260489950835,0.0,0.0,0.0,0.0,0.0,0.0
1609054428963313596,151,1609054428963313596,1.33694458008,-1.12003922462,-3.85287570953,0.994486995843,0.0104337181472,0.101041868589,0.0260248614959,0.0,0.0,0.0,0.0,0.0,0.0
1609054429169764344,152,1609054429169764344,1.33464610577,-1.11802184582,-3.85021686554,0.994491926592,0.0105205901084,0.100992772951,0.0259920168359,0.0,0.0,0.0,0.0,0.0,0.0
1609054429358830269,153,1609054429358830269,1.33298587799,-1.11977171898,-3.85535287857,0.994477399079,0.0103761991605,0.10114081894,0.0260302123696,0.0,0.0,0.0,0.0,0.0,0.0
1609054429563561379,154,1609054429563561379,1.33421671391,-1.11901390553,-3.85241150856,0.994487830398,0.0104395409728,0.101025593143,0.0260538040471,0.0,0.0,0.0,0.0,0.0,0.0
1609054429769555659,155,1609054429769555659,1.33413505554,-1.12240219116,-3.85076332092,0.99448444273,0.0104994617571,0.10106873219,0.0259916495069,0.0,0.0,0.0,0.0,0.0,0.0
1609054429959448502,156,1609054429959448502,1.33501839638,-1.12180554867,-3.85443806648,0.994482746911,0.0103575724306,0.101097287565,0.0260024082964,0.0,0.0,0.0,0.0,0.0,0.0
1609054430163857165,157,1609054430163857165,1.33251106739,-1.12250554562,-3.8518383503,0.994493375755,0.0104124853667,0.100990720638,0.0259880755957,0.0,0.0,0.0,0.0,0.0,0.0
1609054430369770589,158,1609054430369770589,1.33595693111,-1.12062513828,-3.85001468658,0.994488819445,0.0104769751772,0.101031389834,0.0259784383283,0.0,0.0,0.0,0.0,0.0,0.0
1609054430558634588,159,1609054430558634588,1.34003889561,-1.11953294277,-3.85247421265,0.994481157449,0.0103419675558,0.101105515363,0.0260373951959,0.0,0.0,0.0,0.0,0.0,0.0
1609054430763450256,160,1609054430763450256,1.33595108986,-1.11923611164,-3.8519115448,0.994493995049,0.0103840408594,0.100985850999,0.0259946803223,0.0,0.0,0.0,0.0,0.0,0.0
1609054430969798261,161,1609054430969798261,1.3371989727,-1.1159927845,-3.84993672371,0.994489273867,0.0104951212305,0.101026840463,0.0259714092945,0.0,0.0,0.0,0.0,0.0,0.0
1609054431158975950,162,1609054431158975950,1.3393676281,-1.11726534367,-3.8520963192,0.994484347147,0.010386983475,0.1010804782,0.025994822188,0.0,0.0,0.0,0.0,0.0,0.0
1609054431363705732,163,1609054431363705732,1.33153808117,-1.12951540947,-3.85213708878,0.99444723768,0.010318504026,0.101407112083,0.0261690191524,0.0,0.0,0.0,0.0,0.0,0.0
1609054431570143473,164,1609054431570143473,1.331184268,-1.12944233418,-3.85236096382,0.994450570593,0.0103576757251,0.101378001546,0.0261396634181,0.0,0.0,0.0,0.0,0.0,0.0
1609054431758923357,165,1609054431758923357,1.33626019955,-1.11223053932,-3.85409259796,0.994445691927,0.0101904873141,0.101442775885,0.0261396824092,0.0,0.0,0.0,0.0,0.0,0.0
1609054431963661709,166,1609054431963661709,1.33239531517,-1.11969816685,-3.85483264923,0.994443397749,0.0103744829777,0.101447459912,0.0261364047639,0.0,0.0,0.0,0.0,0.0,0.0
1609054432169985272,167,1609054432169985272,1.33199417591,-1.11991655827,-3.85318803787,0.994441890063,0.0104580722021,0.101454121639,0.0261345980638,0.0,0.0,0.0,0.0,0.0,0.0
1609054432359347251,168,1609054432359347251,1.33279585838,-1.12902915478,-3.85401177406,0.994443700186,0.0104472839468,0.101420512012,0.0262004038442,0.0,0.0,0.0,0.0,0.0,0.0
1609054432563478580,169,1609054432563478580,1.33623850346,-1.12177634239,-3.85499048233,0.994436837927,0.0103504860973,0.101514314196,0.0261359297754,0.0,0.0,0.0,0.0,0.0,0.0
1609054432769861297,170,1609054432769861297,1.33707475662,-1.1185297966,-3.85194683075,0.994443580774,0.0102835212942,0.101469385141,0.0260802171273,0.0,0.0,0.0,0.0,0.0,0.0
1609054432958740458,171,1609054432958740458,1.3300267458,-1.11627173424,-3.85622119904,0.994443297436,0.010225404808,0.101461864955,0.0261430533844,0.0,0.0,0.0,0.0,0.0,0.0
1609054433163552955,172,1609054433163552955,1.33316588402,-1.12635374069,-3.85362696648,0.994448062992,0.0102856186371,0.101412782585,0.0261285971395,0.0,0.0,0.0,0.0,0.0,0.0
1609054433370133157,173,1609054433370133157,1.33245241642,-1.11822879314,-3.85309481621,0.994448356784,0.0103395452892,0.101402998066,0.0261341056274,0.0,0.0,0.0,0.0,0.0,0.0
1609054433558340092,174,1609054433558340092,1.33607363701,-1.11766171455,-3.85488629341,0.994441258811,0.0102818930134,0.10146985006,0.0261674412138,0.0,0.0,0.0,0.0,0.0,0.0
1609054433763217567,175,1609054433763217567,1.33399653435,-1.118663311,-3.85405421257,0.994446257349,0.0102834459625,0.101429006312,0.0261351996872,0.0,0.0,0.0,0.0,0.0,0.0
1609054433969532801,176,1609054433969532801,1.3305696249,-1.12008929253,-3.85259890556,0.994445383321,0.0103330598344,0.101434249181,0.0261285391754,0.0,0.0,0.0,0.0,0.0,0.0
1609054434158254919,177,1609054434158254919,1.33476853371,-1.11942362785,-3.8540725708,0.994446838461,0.010274423544,0.101419646231,0.02615295499,0.0,0.0,0.0,0.0,0.0,0.0
1609054434363345695,178,1609054434363345695,1.3345913887,-1.12492144108,-3.8529086113,0.994447223755,0.0105189162728,0.101380290043,0.0261936701652,0.0,0.0,0.0,0.0,0.0,0.0
1609054434570358342,179,1609054434570358342,1.33322787285,-1.1144002676,-3.85181665421,0.9944509338,0.010356252447,0.101391686128,0.026073248439,0.0,0.0,0.0,0.0,0.0,0.0
1609054434758611326,180,1609054434758611326,1.33140647411,-1.1187069416,-3.85458660126,0.994438483259,0.0103374962869,0.101494275024,0.0261562864549,0.0,0.0,0.0,0.0,0.0,0.0
1609054434963961236,181,1609054434963961236,1.33392333984,-1.12261724472,-3.85272073746,0.994438472539,0.0105074093708,0.10147523491,0.0261628626477,0.0,0.0,0.0,0.0,0.0,0.0
1609054435169839333,182,1609054435169839333,1.33287620544,-1.12392187119,-3.85257220268,0.994440360237,0.0103171945343,0.101484959547,0.0261290721979,0.0,0.0,0.0,0.0,0.0,0.0
1609054435358224928,183,1609054435358224928,1.32984483242,-1.12099587917,-3.85530042648,0.9944441113,0.010211709266,0.101452018075,0.0261556594707,0.0,0.0,0.0,0.0,0.0,0.0
1609054435563092230,184,1609054435563092230,1.33299446106,-1.11584162712,-3.85334706306,0.994440417476,0.0103932175055,0.101467478495,0.0261646312542,0.0,0.0,0.0,0.0,0.0,0.0
1609054435769314897,185,1609054435769314897,1.33027732372,-1.11491012573,-3.85278272629,0.99444887078,0.0103164694395,0.101406705177,0.0261092705178,0.0,0.0,0.0,0.0,0.0,0.0
1609054435958314314,186,1609054435958314314,1.33321237564,-1.11284327507,-3.8564145565,0.994440026919,0.0103231907747,0.101485387717,0.0261377250964,0.0,0.0,0.0,0.0,0.0,0.0
1609054436163186275,187,1609054436163186275,1.33295249939,-1.12230217457,-3.85466361046,0.994440796805,0.0103478300324,0.10147173973,0.0261516748858,0.0,0.0,0.0,0.0,0.0,0.0
1609054436369604491,188,1609054436369604491,1.32925438881,-1.11708426476,-3.85189509392,0.994452933848,0.0103171591977,0.101365602637,0.0261138505141,0.0,0.0,0.0,0.0,0.0,0.0
1609054436558665388,189,1609054436558665388,1.33404076099,-1.11960232258,-3.85439896584,0.994443090098,0.0104892459155,0.101422728213,0.0261982151784,0.0,0.0,0.0,0.0,0.0,0.0
1609054436763519863,190,1609054436763519863,1.3344347477,-1.12707400322,-3.85335016251,0.994440541199,0.0103025874035,0.101480519087,0.0261451899551,0.0,0.0,0.0,0.0,0.0,0.0
1609054436969692221,191,1609054436969692221,1.3306555748,-1.12813353539,-3.85138368607,0.994444782421,0.0105055725556,0.101421607736,0.0261316885243,0.0,0.0,0.0,0.0,0.0,0.0
1609054437158395180,192,1609054437158395180,1.33571004868,-1.12784290314,-3.85222625732,0.994442794007,0.0103811269031,0.101436442802,0.026199422203,0.0,0.0,0.0,0.0,0.0,0.0
1609054437363242183,193,1609054437363242183,1.32951116562,-1.11913335323,-3.85388469696,0.994448270546,0.0101155148814,0.101434847134,0.0261014435077,0.0,0.0,0.0,0.0,0.0,0.0
1609054437569462134,194,1609054437569462134,1.33615291119,-1.12028884888,-3.85100579262,0.994447655892,0.0103191083298,0.101414558933,0.0261239914738,0.0,0.0,0.0,0.0,0.0,0.0
1609054437758491568,195,1609054437758491568,1.33524596691,-1.1254799366,-3.8528585434,0.994440308643,0.0104018807873,0.101467764563,0.0261642155589,0.0,0.0,0.0,0.0,0.0,0.0
1609054437963513865,196,1609054437963513865,1.32934033871,-1.10732722282,-3.85539484024,0.994448363416,0.0102085344433,0.101415289132,0.0261376635265,0.0,0.0,0.0,0.0,0.0,0.0
1609054438169387592,197,1609054438169387592,1.33066523075,-1.11753463745,-3.85362267494,0.994451531148,0.0103954463263,0.101363510942,0.0261443214179,0.0,0.0,0.0,0.0,0.0,0.0
1609054438358404273,198,1609054438358404273,1.33587145805,-1.13629055023,-3.85302996635,0.994446834464,0.010404845991,0.10139371303,0.0262020526393,0.0,0.0,0.0,0.0,0.0,0.0
1609054438563384300,199,1609054438563384300,1.33801341057,-1.11824083328,-3.85173535347,0.994444770413,0.0104653775779,0.101415875151,0.0261704936543,0.0,0.0,0.0,0.0,0.0,0.0
1609054438769472825,200,1609054438769472825,1.3296751976,-1.12276744843,-3.85214734077,0.994447763551,0.0104778407057,0.101385714666,0.0261686316969,0.0,0.0,0.0,0.0,0.0,0.0
1609054438959124715,201,1609054438959124715,1.33261299133,-1.1216506958,-3.85290241241,0.994438618751,0.0105826861977,0.101457965347,0.0261939221396,0.0,0.0,0.0,0.0,0.0,0.0
1609054439163609916,202,1609054439163609916,1.33233118057,-1.11998486519,-3.85441255569,0.994447006151,0.0104208743881,0.101397519855,0.0261744207482,0.0,0.0,0.0,0.0,0.0,0.0
1609054439369615161,203,1609054439369615161,1.32913935184,-1.12793564796,-3.85197782516,0.994449096717,0.0103358619747,0.101394770446,0.0261393290443,0.0,0.0,0.0,0.0,0.0,0.0
1609054439558717100,204,1609054439558717100,1.33677875996,-1.12347090244,-3.85281133652,0.994444835951,0.0104522077218,0.101419442186,0.0261594409619,0.0,0.0,0.0,0.0,0.0,0.0
1609054439763615741,205,1609054439763615741,1.33323144913,-1.12650930882,-3.85321307182,0.994442749273,0.0103716912548,0.101444332532,0.0261742972383,0.0,0.0,0.0,0.0,0.0,0.0
1609054439969754193,206,1609054439969754193,1.33812880516,-1.12037944794,-3.8519859314,0.994445317727,0.0103506324513,0.101427600725,0.0261498808769,0.0,0.0,0.0,0.0,0.0,0.0
1609054440158883719,207,1609054440158883719,1.34184253216,-1.12292420864,-3.8576695919,0.994433115614,0.00996411178689,0.101558802419,0.0262546128713,0.0,0.0,0.0,0.0,0.0,0.0
1609054440363366742,208,1609054440363366742,1.33046650887,-1.11819803715,-3.85500645638,0.994433646991,0.0111471743942,0.101475636667,0.0260798274323,0.0,0.0,0.0,0.0,0.0,0.0
1609054440569514932,209,1609054440569514932,1.33354306221,-1.12559568882,-3.85287451744,0.99444945784,0.0100693191015,0.101433805636,0.0260781074452,0.0,0.0,0.0,0.0,0.0,0.0
1609054440758429401,210,1609054440758429401,1.34099209309,-1.11618351936,-3.85484266281,0.994446767681,0.00994484429399,0.101449546468,0.0261670755361,0.0,0.0,0.0,0.0,0.0,0.0
1609054440963321717,211,1609054440963321717,1.33006751537,-1.12712430954,-3.84983539581,0.994440796433,0.0109934014274,0.10138812511,0.0262125085068,0.0,0.0,0.0,0.0,0.0,0.0
1609054441169772940,212,1609054441169772940,1.33258914948,-1.12895894051,-3.85349488258,0.994438348358,0.0103306091079,0.101494333594,0.0261639079371,0.0,0.0,0.0,0.0,0.0,0.0
1609054441358738997,213,1609054441358738997,1.34138441086,-1.11689269543,-3.85600757599,0.994432257613,0.0100989362244,0.101587783122,0.0261231473108,0.0,0.0,0.0,0.0,0.0,0.0
1609054441563460553,214,1609054441563460553,1.3356038332,-1.12952518463,-3.85109710693,0.9944438427,0.0108631116808,0.101356799745,0.0262723365033,0.0,0.0,0.0,0.0,0.0,0.0
1609054441769731201,215,1609054441769731201,1.33379542828,-1.12309241295,-3.85160374641,0.994448614208,0.0105409206983,0.101382817433,0.026122155718,0.0,0.0,0.0,0.0,0.0,0.0
1609054441958755058,216,1609054441958755058,1.33721935749,-1.10072648525,-3.85294818878,0.994468915317,0.00942437901563,0.101328872316,0.025984941485,0.0,0.0,0.0,0.0,0.0,0.0
1609054442163394916,217,1609054442163394916,1.33571076393,-1.13468599319,-3.84759879112,0.994448611974,0.0113539059107,0.101316780667,0.0260376058772,0.0,0.0,0.0,0.0,0.0,0.0
1609054442369501910,218,1609054442369501910,1.32861065865,-1.1259458065,-3.85531949997,0.994461685118,0.0101785412953,0.101282163661,0.0261586974753,0.0,0.0,0.0,0.0,0.0,0.0
1609054442558454301,219,1609054442558454301,1.32752430439,-1.12270891666,-3.85887336731,0.994426674944,0.0101768770709,0.101593444904,0.0262829086353,0.0,0.0,0.0,0.0,0.0,0.0
1609054442763474209,220,1609054442763474209,1.32028925419,-1.13521814346,-3.85153102875,0.994445783214,0.0105578164055,0.101405082894,0.0261366777681,0.0,0.0,0.0,0.0,0.0,0.0
1609054442969754606,221,1609054442969754606,1.3359746933,-1.11557602882,-3.85438323021,0.994483593549,0.0102983877535,0.101083760902,0.026046087094,0.0,0.0,0.0,0.0,0.0,0.0
1609054443158755375,222,1609054443158755375,1.31756842136,-1.11591351032,-3.85683655739,0.994449991995,0.0101735974829,0.101467227932,0.0258865407295,0.0,0.0,0.0,0.0,0.0,0.0
1609054443363558144,223,1609054443363558144,1.31539916992,-1.10857248306,-3.85733962059,0.994419880706,0.0102492837738,0.101721306277,0.0260159352894,0.0,0.0,0.0,0.0,0.0,0.0
1609054443569933647,224,1609054443569933647,1.33583343029,-1.1222038269,-3.8595032692,0.994459469581,0.0100251671217,0.101315292155,0.0261738602624,0.0,0.0,0.0,0.0,0.0,0.0
1609054443759008170,225,1609054443759008170,1.32929313183,-1.12134635448,-3.8629219532,0.994440463984,0.010870279414,0.101364881031,0.0263659157077,0.0,0.0,0.0,0.0,0.0,0.0
1609054443963888505,226,1609054443963888505,1.32341039181,-1.12547421455,-3.85866713524,0.994331625276,0.0102847778889,0.10249343494,0.0263427051248,0.0,0.0,0.0,0.0,0.0,0.0
1609054444170194671,227,1609054444170194671,1.34882903099,-1.07531309128,-3.84481167793,0.994350197204,0.0105154096894,0.102425197434,0.0258106646728,0.0,0.0,0.0,0.0,0.0,0.0
1609054444358662377,228,1609054444358662377,1.37153375149,-1.13910841942,-3.84925508499,0.99438594806,0.0111637191302,0.101620674979,0.0272982800334,0.0,0.0,0.0,0.0,0.0,0.0
1609054444563756929,229,1609054444563756929,1.39638233185,-1.13680505753,-3.85932207108,0.994431419904,0.0109126610152,0.101334487357,0.0268027351126,0.0,0.0,0.0,0.0,0.0,0.0
1609054444769763224,230,1609054444769763224,1.39437961578,-1.12123835087,-3.86272287369,0.994288241248,0.0120687109136,0.10215056991,0.0284692922302,0.0,0.0,0.0,0.0,0.0,0.0
1609054444958804730,231,1609054444958804730,1.27405524254,-1.00955033302,-3.75026059151,0.996223102128,0.0138170414905,0.0838235185714,0.0179509856183,0.0,0.0,0.0,0.0,0.0,0.0
1609054445163455780,232,1609054445163455780,1.3010289669,-1.0965025425,-3.60742330551,0.996460221565,0.015071998758,0.0816348247582,0.0132520593982,0.0,0.0,0.0,0.0,0.0,0.0
1609054445369446737,233,1609054445369446737,1.27844107151,-1.14493584633,-3.47814083099,0.996444388662,0.0139254965303,0.0821379953491,0.0125702255773,0.0,0.0,0.0,0.0,0.0,0.0
1609054445558634695,234,1609054445558634695,1.28750026226,-1.13677787781,-3.34368276596,0.996338138634,0.0138155383937,0.0836514829658,0.0110396466998,0.0,0.0,0.0,0.0,0.0,0.0
1609054445763387957,235,1609054445763387957,1.32700431347,-1.17374384403,-3.24059104919,0.995856458733,0.0141559157208,0.088510272731,0.0153445518233,0.0,0.0,0.0,0.0,0.0,0.0
1609054445969652298,236,1609054445969652298,1.33569562435,-1.17943692207,-3.26026391983,0.995457748,0.0118673785228,0.0895427336472,0.0300854802864,0.0,0.0,0.0,0.0,0.0,0.0
1609054446158236530,237,1609054446158236530,1.38024485111,-1.22466504574,-3.24630331993,0.994844516617,0.0123563706488,0.0940589262474,0.0358416831918,0.0,0.0,0.0,0.0,0.0,0.0
1609054446363287199,238,1609054446363287199,1.36127233505,-1.18329262733,-3.12147784233,0.995193248666,0.0103684679583,0.0850786167294,0.0473763829058,0.0,0.0,0.0,0.0,0.0,0.0
1609054446569512208,239,1609054446569512208,1.36803364754,-1.14520275593,-3.00600099564,0.995356949155,0.0104052445819,0.0835998878418,0.0465546281952,0.0,0.0,0.0,0.0,0.0,0.0
1609054446758571185,240,1609054446758571185,1.35359525681,-1.12837255001,-2.80074334145,0.995157831012,0.0115955933476,0.0882708673187,0.0416495807119,0.0,0.0,0.0,0.0,0.0,0.0
1609054446963318186,241,1609054446963318186,1.37491500378,-1.14672136307,-2.70441222191,0.995297809735,0.0124127556994,0.0862303063903,0.042338253309,0.0,0.0,0.0,0.0,0.0,0.0
1609054447169258257,242,1609054447169258257,1.37723755836,-1.11904895306,-2.46834397316,0.995955822029,0.0129657037103,0.081102638809,0.0364177576453,0.0,0.0,0.0,0.0,0.0,0.0
1609054447358384334,243,1609054447358384334,1.39770591259,-1.05794680119,-2.39744281769,0.99609931934,0.013636130215,0.0791717926442,0.0364969753863,0.0,0.0,0.0,0.0,0.0,0.0
1609054447563557950,244,1609054447563557950,1.36736249924,-0.91193318367,-2.11652684212,0.996307517989,0.014151133561,0.0792578249298,0.0298206674089,0.0,0.0,0.0,0.0,0.0,0.0
1609054447769091115,245,1609054447769091115,1.3947930336,-0.782114028931,-2.07362580299,0.996145471645,0.0141992908493,0.0804746907829,0.0318810853582,0.0,0.0,0.0,0.0,0.0,0.0
1609054447958140206,246,1609054447958140206,1.44445967674,-0.744356453419,-1.98755443096,0.996264328664,0.0151244678195,0.0794880948816,0.0301708580802,0.0,0.0,0.0,0.0,0.0,0.0
1609054448162996525,247,1609054448162996525,1.46054267883,-0.7208558321,-1.79208481312,0.995954919139,0.0158337770307,0.0849730589811,0.0245493338969,0.0,0.0,0.0,0.0,0.0,0.0
1609054448369208601,248,1609054448369208601,1.48943006992,-0.600902974606,-1.66044735909,0.995032718229,0.0174156795391,0.0970719262305,0.0135508264902,0.0,0.0,0.0,0.0,0.0,0.0
1609054448558521459,249,1609054448558521459,1.49890315533,-0.595899403095,-1.54647386074,0.995659135778,0.018459187767,0.0910908127813,0.00496060029593,0.0,0.0,0.0,0.0,0.0,0.0
1609054448763595445,250,1609054448763595445,1.53256917,-0.538958609104,-1.44712328911,0.995552261485,0.0182539953961,0.0922868874206,0.00506129572265,0.0,0.0,0.0,0.0,0.0,0.0
1609054448969513356,251,1609054448969513356,1.53912186623,-0.502904117107,-1.35732698441,0.995298787005,0.0183542721945,0.0949284341878,0.00566018216022,0.0,0.0,0.0,0.0,0.0,0.0
1609054449158587803,252,1609054449158587803,1.52092897892,-0.493874400854,-1.1710613966,0.995533068138,0.0172736267656,0.0923329026365,0.00949563866389,0.0,0.0,0.0,0.0,0.0,0.0
1609054449363279352,253,1609054449363279352,1.53028357029,-0.511958897114,-1.0737388134,0.996545086217,0.0162145023271,0.0803958642317,0.0130952688002,0.0,0.0,0.0,0.0,0.0,0.0
1609054449569569062,254,1609054449569569062,1.53280282021,-0.531360208988,-1.00646579266,0.996832420378,0.0155959209508,0.0767144553114,0.0140280176209,0.0,0.0,0.0,0.0,0.0,0.0
1609054449758654869,255,1609054449758654869,1.49580144882,-0.536151170731,-0.762486934662,0.997107281767,0.0129748845073,0.0715993676141,0.0219602271501,0.0,0.0,0.0,0.0,0.0,0.0
1609054449963614939,256,1609054449963614939,1.56712543964,-0.604580640793,-0.839266300201,0.99609265097,0.0117134123285,0.0817650098007,0.0312523571619,0.0,0.0,0.0,0.0,0.0,0.0
1609054450168955087,257,1609054450168955087,1.51575672626,-0.606848537922,-0.543368935585,0.99617852703,0.010573753007,0.0781826686272,0.0374700995132,0.0,0.0,0.0,0.0,0.0,0.0
1609054450358262038,258,1609054450358262038,1.55696606636,-0.658277511597,-0.515977025032,0.994799149106,0.0110212310733,0.0898696602748,0.0466543627764,0.0,0.0,0.0,0.0,0.0,0.0
1609054450562876168,259,1609054450562876168,1.53503155708,-0.676175713539,-0.293042421341,0.996283916826,0.0117957953959,0.0772471687677,0.0362227994686,0.0,0.0,0.0,0.0,0.0,0.0
1609054450769500223,260,1609054450769500223,1.5780838728,-0.709510087967,-0.359455615282,0.996396145093,0.012790587589,0.0813208864491,0.0204459370298,0.0,0.0,0.0,0.0,0.0,0.0
1609054450957855765,261,1609054450957855765,1.58688616753,-0.738317847252,-0.282933443785,0.99664387956,0.0138671780233,0.0789080289959,0.0167988591673,0.0,0.0,0.0,0.0,0.0,0.0
1609054451163155515,262,1609054451163155515,1.64326012135,-0.744789004326,-0.326254785061,0.996044036328,0.0134178728899,0.0846885377281,0.0233257360225,0.0,0.0,0.0,0.0,0.0,0.0
1609054451368754796,263,1609054451368754796,1.68671214581,-0.785460948944,-0.383778214455,0.995327159877,0.0130653658021,0.0913408734049,0.0284602507467,0.0,0.0,0.0,0.0,0.0,0.0
1609054451557836003,264,1609054451557836003,1.68472075462,-0.809155106544,-0.273755371571,0.995794197289,0.012238563295,0.0869739195303,0.0260705108606,0.0,0.0,0.0,0.0,0.0,0.0
1609054451762607959,265,1609054451762607959,1.72061908245,-0.92009472847,-0.263880759478,0.996562426243,0.0105461492504,0.0800547092666,0.018529783076,0.0,0.0,0.0,0.0,0.0,0.0
1609054451968914319,266,1609054451968914319,1.73847937584,-0.912793934345,-0.214770913124,0.997397736814,0.0117310514897,0.0691447470156,0.0167075129656,0.0,0.0,0.0,0.0,0.0,0.0
1609054452158104593,267,1609054452158104593,1.78963923454,-0.976715326309,-0.203867673874,0.997582691269,0.0125883824739,0.0666717020584,0.0150063603664,0.0,0.0,0.0,0.0,0.0,0.0
1609054452362906117,268,1609054452362906117,1.83942985535,-1.06722509861,-0.178202658892,0.997751715035,0.0130806064758,0.0645443821656,0.0124272124623,0.0,0.0,0.0,0.0,0.0,0.0
1609054452568904167,269,1609054452568904167,1.93545472622,-1.14148199558,-0.212626636028,0.997193784287,0.0135473199864,0.0734342545408,0.00533263175845,0.0,0.0,0.0,0.0,0.0,0.0
1609054452757812793,270,1609054452757812793,1.98500728607,-1.23402070999,-0.131036669016,0.997074911537,0.0134728677786,0.074561516317,0.0100340870363,0.0,0.0,0.0,0.0,0.0,0.0
1609054452962571129,271,1609054452962571129,2.11481833458,-1.36841654778,-0.205451712012,0.996316755386,0.0133563747122,0.0830248868766,0.0167749322396,0.0,0.0,0.0,0.0,0.0,0.0
1609054453168723155,272,1609054453168723155,2.21013736725,-1.48263132572,-0.200608864427,0.994523408862,0.0133569920877,0.100996521443,0.0233341518755,0.0,0.0,0.0,0.0,0.0,0.0
1609054453357691326,273,1609054453357691326,2.27443146706,-1.60790920258,-0.197246536613,0.992620753981,0.0118044008556,0.117890383779,0.0258176741555,0.0,0.0,0.0,0.0,0.0,0.0
1609054453562634550,274,1609054453562634550,2.33759570122,-1.76416695118,-0.164343491197,0.991402250652,0.0125997680239,0.126554017876,0.0307718021406,0.0,0.0,0.0,0.0,0.0,0.0
1609054453768543399,275,1609054453768543399,2.34141087532,-1.86835467815,-0.144593730569,0.992775628453,0.011492738421,0.114535215307,0.0338548810047,0.0,0.0,0.0,0.0,0.0,0.0
1609054453957399121,276,1609054453957399121,2.34684848785,-1.99629449844,-0.115179091692,0.992446487804,0.0115841887608,0.116606654892,0.036313405932,0.0,0.0,0.0,0.0,0.0,0.0
1609054454162273978,277,1609054454162273978,2.29770684242,-2.11219120026,-0.114122472703,0.993109812605,0.0100552904658,0.109855608624,0.0395415793301,0.0,0.0,0.0,0.0,0.0,0.0
1609054454368133574,278,1609054454368133574,2.27034974098,-2.19981122017,-0.138218343258,0.993533296492,0.00988750422821,0.10541131193,0.0410156231165,0.0,0.0,0.0,0.0,0.0,0.0
1609054454557319325,279,1609054454557319325,2.19072532654,-2.27657699585,-0.111043430865,0.994959612378,0.00938644668064,0.0950793332437,0.0304497084507,0.0,0.0,0.0,0.0,0.0,0.0
1609054454762211329,280,1609054454762211329,2.14780831337,-2.40462708473,-0.0483051277697,0.99603576732,0.00903268562659,0.0860369102699,0.0207077492764,0.0,0.0,0.0,0.0,0.0,0.0
1609054454968322788,281,1609054454968322788,2.08542466164,-2.49571704865,-0.0667130351067,0.996285582236,0.00851632428231,0.0830276063696,0.0211879076253,0.0,0.0,0.0,0.0,0.0,0.0
1609054455157735168,282,1609054455157735168,2.03795051575,-2.5872631073,-0.100000694394,0.996224188141,0.00773144655057,0.0819750287634,0.0275261031869,0.0,0.0,0.0,0.0,0.0,0.0
1609054455362267482,283,1609054455362267482,1.976141572,-2.66850614548,-0.124412581325,0.9969773195,0.00804314908574,0.0744361630151,0.0207554761521,0.0,0.0,0.0,0.0,0.0,0.0
1609054455568209503,284,1609054455568209503,1.94210863113,-2.80837082863,-0.0757694169879,0.997247872231,0.00880116680711,0.0732387416006,0.00743690268078,0.0,0.0,0.0,0.0,0.0,0.0
1609054455757432664,285,1609054455757432664,1.91917181015,-2.92180299759,-0.109214536846,0.997082222792,0.00951692937695,0.0756001062576,0.00459270950095,0.0,0.0,0.0,0.0,0.0,0.0
1609054455962379894,286,1609054455962379894,1.89257669449,-3.03329348564,-0.114858143032,0.996877837085,0.00983182391326,0.0778680752047,0.00862994961917,0.0,0.0,0.0,0.0,0.0,0.0
1609054456168465238,287,1609054456168465238,1.87992620468,-3.19346857071,-0.13878428936,0.996638216163,0.00945056941918,0.0794705297049,0.0175324764074,0.0,0.0,0.0,0.0,0.0,0.0
1609054456357269659,288,1609054456357269659,1.89200496674,-3.32886075974,-0.136255756021,0.9961691584,0.00952087191235,0.082033201963,0.0287561232831,0.0,0.0,0.0,0.0,0.0,0.0
1609054456562389637,289,1609054456562389637,1.86947524548,-3.47212934494,-0.0682517588139,0.996671287013,0.0096618309821,0.077418243545,0.0236518547307,0.0,0.0,0.0,0.0,0.0,0.0
1609054456768123738,290,1609054456768123738,1.87877714634,-3.63338303566,-0.0844050645828,0.99665337139,0.00889394662555,0.0755473348452,0.0299258284607,0.0,0.0,0.0,0.0,0.0,0.0
1609054456957042383,291,1609054456957042383,1.88980865479,-3.76771235466,-0.0702934637666,0.996989707594,0.00821270581122,0.0681467864581,0.0360567595526,0.0,0.0,0.0,0.0,0.0,0.0
1609054457161826640,292,1609054457161826640,1.91249096394,-3.89463615417,-0.0575611554086,0.997533362909,0.00640799380392,0.057606210103,0.0395935860497,0.0,0.0,0.0,0.0,0.0,0.0
1609054457367985390,293,1609054457367985390,1.94999372959,-4.00444316864,-0.0313351228833,0.997272368625,0.0052599987111,0.0575465079363,0.0459190005942,0.0,0.0,0.0,0.0,0.0,0.0
1609054457556803100,294,1609054457556803100,2.01804661751,-4.10161733627,-0.0345103405416,0.997131771936,0.00493354435708,0.0610869734313,0.0444102602127,0.0,0.0,0.0,0.0,0.0,0.0
1609054457761773673,295,1609054457761773673,2.09728240967,-4.16764068604,0.0267873872072,0.996657841929,0.00461202804199,0.0698048189753,0.0421801205182,0.0,0.0,0.0,0.0,0.0,0.0
1609054457967999738,296,1609054457967999738,2.16834950447,-4.24456644058,0.0124896531925,0.994936126437,0.00524305679997,0.0933711529529,0.0368299125926,0.0,0.0,0.0,0.0,0.0,0.0
1609054458157274169,297,1609054458157274169,2.24245762825,-4.30321311951,0.0205583702773,0.994741242741,0.00434774513198,0.0938954199629,0.0406768633528,0.0,0.0,0.0,0.0,0.0,0.0
1609054458362356149,298,1609054458362356149,2.29937624931,-4.35829162598,0.0224472861737,0.995667069166,0.00486486768989,0.0825050673795,0.0426184736603,0.0,0.0,0.0,0.0,0.0,0.0
1609054458568301216,299,1609054458568301216,2.35634970665,-4.40919160843,0.0303878597915,0.995700777828,0.0060788068536,0.0767982461457,0.0514299380585,0.0,0.0,0.0,0.0,0.0,0.0
1609054458757371326,300,1609054458757371326,2.42579674721,-4.44041919708,-0.00567456148565,0.996152193931,0.00737674172333,0.0770046586637,0.041190687696,0.0,0.0,0.0,0.0,0.0,0.0
1609054458961797420,301,1609054458961797420,2.48503184319,-4.44826602936,0.0221011880785,0.995661513773,0.00924758602226,0.0881946555569,0.0281839471262,0.0,0.0,0.0,0.0,0.0,0.0
1609054459167844930,302,1609054459167844930,2.53226184845,-4.47507667542,-0.0312670990825,0.994872447923,0.0102249475632,0.0966978191319,0.0278171635049,0.0,0.0,0.0,0.0,0.0,0.0
1609054459356956454,303,1609054459356956454,2.56396746635,-4.49444580078,0.0641777068377,0.995894077819,0.0104351454241,0.0874266797273,0.0210397047795,0.0,0.0,0.0,0.0,0.0,0.0
1609054459561967864,304,1609054459561967864,2.60072994232,-4.53401660919,0.0474664419889,0.996154653245,0.0100138796806,0.0831842512362,0.0256126800116,0.0,0.0,0.0,0.0,0.0,0.0
1609054459768166451,305,1609054459768166451,2.63392043114,-4.57544088364,0.0497252456844,0.995733743682,0.010300218387,0.0874004679964,0.027737616852,0.0,0.0,0.0,0.0,0.0,0.0
1609054459957158412,306,1609054459957158412,2.6591989994,-4.59528827667,0.0714166387916,0.995368812775,0.010276900488,0.0895154190112,0.0335007705896,0.0,0.0,0.0,0.0,0.0,0.0
1609054460161773636,307,1609054460161773636,2.66246032715,-4.63258314133,0.137872755527,0.995874721905,0.0100856682455,0.0831021732427,0.0350120888875,0.0,0.0,0.0,0.0,0.0,0.0
1609054460367700194,308,1609054460367700194,2.68524599075,-4.65781450272,0.126902550459,0.996378434968,0.0103825647497,0.0762987154835,0.0360655333389,0.0,0.0,0.0,0.0,0.0,0.0
1609054460556774563,309,1609054460556774563,2.72008419037,-4.67368650436,0.133157402277,0.997204879471,0.00903115823822,0.0647252558237,0.0362147455935,0.0,0.0,0.0,0.0,0.0,0.0
1609054460761933251,310,1609054460761933251,2.75699806213,-4.66692066193,0.154184684157,0.997519984465,0.00880243119678,0.0583235878879,0.0384025636288,0.0,0.0,0.0,0.0,0.0,0.0
1609054460967524709,311,1609054460967524709,2.81400084496,-4.67863702774,0.184943184257,0.997901380384,0.00869085730946,0.0559745889206,0.0313711558946,0.0,0.0,0.0,0.0,0.0,0.0
1609054461156824333,312,1609054461156824333,2.89961123466,-4.69749546051,0.207504436374,0.99823226579,0.00947673697186,0.0530928839452,0.0249735993803,0.0,0.0,0.0,0.0,0.0,0.0
1609054461361913208,313,1609054461361913208,2.99881005287,-4.69514942169,0.274690330029,0.998162767657,0.0104498682085,0.0578875890663,0.014522966296,0.0,0.0,0.0,0.0,0.0,0.0
1609054461568006592,314,1609054461568006592,3.10770606995,-4.71362543106,0.330613642931,0.997861804446,0.0113081364859,0.0638097310566,0.00850079399334,0.0,0.0,0.0,0.0,0.0,0.0
1609054461757127063,315,1609054461757127063,3.25956130028,-4.73846006393,0.279414862394,0.996909092001,0.0101910109505,0.075089319529,0.0207364334768,0.0,0.0,0.0,0.0,0.0,0.0
1609054461961886275,316,1609054461961886275,3.39134502411,-4.7640581131,0.310254096985,0.993846498268,0.0102770089136,0.101808341969,0.0424096978845,0.0,0.0,0.0,0.0,0.0,0.0
1609054462167883753,317,1609054462167883753,3.47756123543,-4.77965164185,0.373207747936,0.992941114953,0.0113180439756,0.110792109708,0.0408038300115,0.0,0.0,0.0,0.0,0.0,0.0
1609054462356827112,318,1609054462356827112,3.58096051216,-4.78440189362,0.36553889513,0.99396059003,0.0122217486713,0.101399174427,0.0401395285497,0.0,0.0,0.0,0.0,0.0,0.0
1609054462561572076,319,1609054462561572076,3.63817071915,-4.77224874496,0.425323367119,0.994855636365,0.0123782278279,0.0949286923867,0.0331298299068,0.0,0.0,0.0,0.0,0.0,0.0
1609054462767501658,320,1609054462767501658,3.70479989052,-4.76684617996,0.379201591015,0.995503197124,0.0120272839064,0.0852611615003,0.0394875081272,0.0,0.0,0.0,0.0,0.0,0.0
1609054462957588900,321,1609054462957588900,3.77207064629,-4.74559640884,0.356795996428,0.994880348512,0.0105846233167,0.087700448419,0.0490885856433,0.0,0.0,0.0,0.0,0.0,0.0
1609054463161652154,322,1609054463161652154,3.82414364815,-4.69863653183,0.374710351229,0.994965868716,0.0104900911194,0.0857427000812,0.050804207115,0.0,0.0,0.0,0.0,0.0,0.0
1609054463367853774,323,1609054463367853774,3.86031317711,-4.64641189575,0.382034361362,0.995174764462,0.0109982601069,0.0862064582435,0.0455485785724,0.0,0.0,0.0,0.0,0.0,0.0
1609054463556855852,324,1609054463556855852,3.90203857422,-4.56365871429,0.366954118013,0.995551444771,0.0104642521837,0.0829170816636,0.043503767749,0.0,0.0,0.0,0.0,0.0,0.0
1609054463761745404,325,1609054463761745404,3.94054341316,-4.49424028397,0.41054263711,0.99557113492,0.010208048857,0.0840968881721,0.0407630279981,0.0,0.0,0.0,0.0,0.0,0.0
1609054463967453608,326,1609054463967453608,3.95704126358,-4.40356969833,0.481137931347,0.995576276199,0.0106029641162,0.088856275255,0.0286359524036,0.0,0.0,0.0,0.0,0.0,0.0
1609054464156628612,327,1609054464156628612,3.98015832901,-4.31637239456,0.478792250156,0.995373540613,0.00945631218488,0.0921682601942,0.0254382511327,0.0,0.0,0.0,0.0,0.0,0.0
1609054464361947976,328,1609054464361947976,3.99913144112,-4.23220920563,0.501348435879,0.995506382962,0.0074811559932,0.0885930207868,0.0325937180382,0.0,0.0,0.0,0.0,0.0,0.0
1609054464567597376,329,1609054464567597376,4.02110099792,-4.14476013184,0.494180649519,0.995524067479,0.00610947490294,0.086193601986,0.038277517725,0.0,0.0,0.0,0.0,0.0,0.0
1609054464756510815,330,1609054464756510815,4.02637720108,-4.06162548065,0.507743954659,0.994352353105,0.00675022810809,0.0978521181845,0.0405314108068,0.0,0.0,0.0,0.0,0.0,0.0
1609054464961384553,331,1609054464961384553,4.03117179871,-3.97442293167,0.468847453594,0.993379597529,0.00756687127968,0.1065855039,0.0421811335752,0.0,0.0,0.0,0.0,0.0,0.0
1609054465167441560,332,1609054465167441560,4.0098361969,-3.87069058418,0.440039932728,0.99307871531,0.00735015688436,0.107778947859,0.0460905498961,0.0,0.0,0.0,0.0,0.0,0.0
1609054465356470327,333,1609054465356470327,3.96962118149,-3.7545144558,0.427881062031,0.994138033402,0.00687063103536,0.0950008609304,0.0511585906308,0.0,0.0,0.0,0.0,0.0,0.0
1609054465561417909,334,1609054465561417909,3.92742872238,-3.63255596161,0.438957989216,0.995212547185,0.0071075749461,0.0809565238199,0.0542909712178,0.0,0.0,0.0,0.0,0.0,0.0
1609054465767416952,335,1609054465767416952,3.89962482452,-3.49895572662,0.377239137888,0.994769062188,0.00519797380826,0.0756457348369,0.0684486433905,0.0,0.0,0.0,0.0,0.0,0.0
1609054465956411991,336,1609054465956411991,3.88222026825,-3.33920264244,0.301865458488,0.993197615683,0.00331690079205,0.0790169265704,0.0854623875524,0.0,0.0,0.0,0.0,0.0,0.0
1609054466161575586,337,1609054466161575586,3.85236930847,-3.12037491798,0.300273925066,0.993982080415,0.00574404579609,0.0810751020365,0.0734401632782,0.0,0.0,0.0,0.0,0.0,0.0
1609054466367066987,338,1609054466367066987,3.83623504639,-2.88342142105,0.310584783554,0.995534725854,0.00780211223312,0.0830176141648,0.0442471739315,0.0,0.0,0.0,0.0,0.0,0.0
1609054466556195709,339,1609054466556195709,3.80627202988,-2.62996292114,0.319394886494,0.995580476356,0.00982472192734,0.091932306947,0.0164754628707,0.0,0.0,0.0,0.0,0.0,0.0
1609054466761578771,340,1609054466761578771,3.79971408844,-2.39350032806,0.260068029165,0.99597987837,0.0107292046592,0.0887575865952,0.00557286913692,0.0,0.0,0.0,0.0,0.0,0.0
1609054466967234434,341,1609054466967234434,3.77478027344,-2.19647049904,0.250653624535,-0.996372951626,-0.0118526137189,-0.0842475726764,0.00167431007407,0.0,0.0,0.0,0.0,0.0,0.0
1609054467156517457,342,1609054467156517457,3.7557349205,-2.01396822929,0.280773490667,0.995706025297,0.0108811869164,0.0919229002264,0.00113638565553,0.0,0.0,0.0,0.0,0.0,0.0
1609054467361036240,343,1609054467361036240,3.72516226768,-1.87489521503,0.234153851867,0.995553470296,0.00961965013732,0.0930175609352,0.0113350549388,0.0,0.0,0.0,0.0,0.0,0.0
1609054467567277101,344,1609054467567277101,3.68564319611,-1.73869717121,0.22906896472,0.995248988812,0.00925383892647,0.0949403271819,0.0194974616024,0.0,0.0,0.0,0.0,0.0,0.0
1609054467756273299,345,1609054467756273299,3.64514303207,-1.63670730591,0.186739876866,0.994756220849,0.00831724739176,0.0972664907577,0.0304977745783,0.0,0.0,0.0,0.0,0.0,0.0
1609054467961076112,346,1609054467961076112,3.58938121796,-1.51542878151,0.193992346525,0.995153770352,0.00876175295249,0.0921699773328,0.0331194854688,0.0,0.0,0.0,0.0,0.0,0.0
1609054468166821056,347,1609054468166821056,3.53128266335,-1.40371179581,0.145352631807,0.995791710876,0.00887526393229,0.0840675871816,0.0353940535309,0.0,0.0,0.0,0.0,0.0,0.0
1609054468356030731,348,1609054468356030731,3.48147296906,-1.26896548271,0.136205464602,0.996050608004,0.00782359103303,0.0791775603992,0.0394067462119,0.0,0.0,0.0,0.0,0.0,0.0
1609054468561103384,349,1609054468561103384,3.42154622078,-1.15332078934,0.126706570387,0.996306501953,0.00814753903519,0.0753342561398,0.0403945742055,0.0,0.0,0.0,0.0,0.0,0.0
1609054468767294697,350,1609054468767294697,3.37016391754,-1.03049623966,0.126785710454,0.996395812334,0.0078562672086,0.0747580739493,0.0393051473492,0.0,0.0,0.0,0.0,0.0,0.0
1609054468956447690,351,1609054468956447690,3.3295006752,-0.887067198753,0.105143554509,0.996214744369,0.00824064021519,0.0772396765283,0.0390167569207,0.0,0.0,0.0,0.0,0.0,0.0
1609054469161201648,352,1609054469161201648,3.29074048996,-0.748696565628,0.105704449117,0.995905351745,0.00841892870734,0.0812089364112,0.0388170149935,0.0,0.0,0.0,0.0,0.0,0.0
1609054469366983584,353,1609054469366983584,3.25319838524,-0.61274600029,0.101203888655,0.996068360295,0.00791202899688,0.0805328241669,0.0360511532069,0.0,0.0,0.0,0.0,0.0,0.0
1609054469556363989,354,1609054469556363989,3.22590351105,-0.463834017515,0.0642821416259,0.996014479005,0.00695971618228,0.0806847723631,0.0373722821409,0.0,0.0,0.0,0.0,0.0,0.0
1609054469760852359,355,1609054469760852359,3.20433044434,-0.307460576296,0.0577747933567,0.996121970649,0.00710306460789,0.0799603018901,0.0360127225433,0.0,0.0,0.0,0.0,0.0,0.0
1609054469966814589,356,1609054469966814589,3.17022442818,-0.156267136335,0.0577580705285,0.996181815978,0.00821102867046,0.0815759407959,0.0299955731172,0.0,0.0,0.0,0.0,0.0,0.0
1609054470156543712,357,1609054470156543712,3.1371409893,-0.0133025953546,0.0701286420226,0.996048453903,0.00965699614396,0.082237157067,0.0321133912932,0.0,0.0,0.0,0.0,0.0,0.0
1609054470361131288,358,1609054470361131288,3.13054943085,0.134727120399,-0.00978773087263,0.995641433874,0.00910324661012,0.0860200311767,0.0348686147025,0.0,0.0,0.0,0.0,0.0,0.0
1609054470567127620,359,1609054470567127620,3.10578250885,0.28018668294,-0.0188554562628,0.996031615474,0.0087595632797,0.083127857153,0.0305622380218,0.0,0.0,0.0,0.0,0.0,0.0
1609054470756157214,360,1609054470756157214,3.07322096825,0.430409133434,-0.0171052999794,0.996023222076,0.00955956043801,0.0856624890413,0.0225453733808,0.0,0.0,0.0,0.0,0.0,0.0
1609054470961360567,361,1609054470961360567,3.03186416626,0.556059539318,-0.00581563729793,0.995463873851,0.0100696780197,0.0922786613327,0.0208548820511,0.0,0.0,0.0,0.0,0.0,0.0
1609054471167112747,362,1609054471167112747,3.00449848175,0.668730080128,-0.0949671119452,0.995598709449,0.00919749497865,0.0880596812186,0.0307263465672,0.0,0.0,0.0,0.0,0.0,0.0
1609054471355699142,363,1609054471355699142,2.95518326759,0.792360782623,-0.0807266905904,0.996349043906,0.00924583236544,0.0796475964211,0.0293148030085,0.0,0.0,0.0,0.0,0.0,0.0
