%time,field.header.seq,field.header.stamp,field.pose.pose.position.x,field.pose.pose.position.y,field.pose.pose.position.z,field.pose.pose.orientation.x,field.pose.pose.orientation.y,field.pose.pose.orientation.z,field.pose.pose.orientation.w,field.twist.twist.linear.x,field.twist.twist.linear.y,field.twist.twist.linear.z,field.twist.twist.angular.x,field.twist.twist.angular.y,field.twist.twist.angular.z
1609060339777889976,25,1609060339777889976,0.141475275159,0.388347268105,-1.44534623623,-0.926669588696,0.37312522704,-0.0434515645128,0.0131529416654,0.0,0.0,0.0,0.0,0.0,0.0
1609060339949380657,26,1609060339949380657,0.14678427577,0.381217569113,-1.44677877426,-0.926604778407,0.37330309686,-0.0433629736595,0.0129628323784,0.0,0.0,0.0,0.0,0.0,0.0
1609060340155597263,27,1609060340155597263,0.144089862704,0.382784843445,-1.44677615166,-0.926611205565,0.373283419564,-0.0433938055114,0.0129668825701,0.0,0.0,0.0,0.0,0.0,0.0
1609060340361977076,28,1609060340361977076,0.145823791623,0.387457996607,-1.44366431236,-0.926644660751,0.373199521062,-0.0433842321612,0.0130230019951,0.0,0.0,0.0,0.0,0.0,0.0
1609060340567844283,29,1609060340567844283,0.142952039838,0.385930120945,-1.44399380684,-0.926623148272,0.37325285736,-0.0433713279339,0.0130680324587,0.0,0.0,0.0,0.0,0.0,0.0
1609060340773963477,30,1609060340773963477,0.143565222621,0.384490728378,-1.44181275368,-0.92669381196,0.373076723286,-0.0433506088256,0.0131553080884,0.0,0.0,0.0,0.0,0.0,0.0
1609060340948875071,31,1609060340948875071,0.144055888057,0.384185045958,-1.44758212566,-0.926614776689,0.373275355755,-0.043392568147,0.0129479510527,0.0,0.0,0.0,0.0,0.0,0.0
1609060341152105770,32,1609060341152105770,0.146670818329,0.389595985413,-1.44633305073,-0.926617762451,0.373270633395,-0.0433630563937,0.0129692673195,0.0,0.0,0.0,0.0,0.0,0.0
1609060341358510043,33,1609060341358510043,0.146761670709,0.388388037682,-1.44425415993,-0.926601709576,0.37330958293,-0.0433586580855,0.0130097606912,0.0,0.0,0.0,0.0,0.0,0.0
1609060341564483632,34,1609060341564483632,0.14247892797,0.386474907398,-1.44460868835,-0.926639905283,0.37321218349,-0.0433808576319,0.0130097357243,0.0,0.0,0.0,0.0,0.0,0.0
1609060341770805032,35,1609060341770805032,0.144187554717,0.389713346958,-1.44397068024,-0.92666415794,0.373147007941,-0.0433979489414,0.0130945363568,0.0,0.0,0.0,0.0,0.0,0.0
1609060341977236956,36,1609060341977236956,0.145659461617,0.388109952211,-1.44414770603,-0.92669226909,0.373073714428,-0.0434068469541,0.0131638766935,0.0,0.0,0.0,0.0,0.0,0.0
1609060342149164773,37,1609060342149164773,0.143106713891,0.38557612896,-1.44718039036,-0.92659973434,0.373312996563,-0.04338459515,0.0129659485656,0.0,0.0,0.0,0.0,0.0,0.0
1609060342355244394,38,1609060342355244394,0.145044893026,0.388203889132,-1.44565486908,-0.926606716902,0.373297404997,-0.043362248887,0.0129905729716,0.0,0.0,0.0,0.0,0.0,0.0
1609060342561306407,39,1609060342561306407,0.144851610065,0.388736188412,-1.44352424145,-0.926609344246,0.373292459466,-0.0433372403969,0.0130286782466,0.0,0.0,0.0,0.0,0.0,0.0
1609060342767347597,40,1609060342767347597,0.145106002688,0.388946801424,-1.4435120821,-0.926685288671,0.373098301182,-0.0433692340308,0.0130821617441,0.0,0.0,0.0,0.0,0.0,0.0
1609060342973705505,41,1609060342973705505,0.142459720373,0.387853682041,-1.44386959076,-0.926682034289,0.373103593602,-0.043380718227,0.0131236067329,0.0,0.0,0.0,0.0,0.0,0.0
1609060343148822791,42,1609060343148822791,0.144979476929,0.388014882803,-1.44770526886,-0.926618986832,0.373267706671,-0.0433681551885,0.0129489580715,0.0,0.0,0.0,0.0,0.0,0.0
1609060343351909783,43,1609060343351909783,0.144546836615,0.3857678473,-1.44614195824,-0.926604051141,0.373301465771,-0.0433913773853,0.0129667432873,0.0,0.0,0.0,0.0,0.0,0.0
1609060343558024748,44,1609060343558024748,0.14380787313,0.389521241188,-1.44514846802,-0.92659932002,0.373311469414,-0.043387544071,0.0130295035393,0.0,0.0,0.0,0.0,0.0,0.0
1609060343764807264,45,1609060343764807264,0.144527152181,0.388587325811,-1.44396042824,-0.92663132212,0.37323318635,-0.0433730557534,0.0130445202237,0.0,0.0,0.0,0.0,0.0,0.0
1609060343970663476,46,1609060343970663476,0.142630308867,0.385633677244,-1.44412302971,-0.926686709496,0.373090246792,-0.043405489099,0.013090978138,0.0,0.0,0.0,0.0,0.0,0.0
1609060344176668217,47,1609060344176668217,0.142889201641,0.390403270721,-1.4437328577,-0.92668814198,0.37308177478,-0.0434276368983,0.0131574006914,0.0,0.0,0.0,0.0,0.0,0.0
1609060344348703735,48,1609060344348703735,0.145001024008,0.385563880205,-1.44737613201,-0.926583497612,0.373350696525,-0.0434007471653,0.0129867048618,0.0,0.0,0.0,0.0,0.0,0.0
1609060344555062012,49,1609060344555062012,0.141748026013,0.388610899448,-1.44490790367,-0.926594095767,0.373328880704,-0.0433591286054,0.0129967107138,0.0,0.0,0.0,0.0,0.0,0.0
1609060344761461636,50,1609060344761461636,0.144004940987,0.385362684727,-1.44496667385,-0.926634753006,0.37322377696,-0.0433866695498,0.0130247356009,0.0,0.0,0.0,0.0,0.0,0.0
1609060344967698140,51,1609060344967698140,0.141861349344,0.386748582125,-1.44422292709,-0.926659502709,0.373162763621,-0.0433666592972,0.0130786370668,0.0,0.0,0.0,0.0,0.0,0.0
1609060345173685640,52,1609060345173685640,0.139055028558,0.390800595284,-1.44516050816,-0.926629944753,0.373229347511,-0.0434063384266,0.0131411349381,0.0,0.0,0.0,0.0,0.0,0.0
1609060345348872333,53,1609060345348872333,0.142934665084,0.387796282768,-1.44735527039,-0.926563159679,0.373405677261,-0.0433674621067,0.0129682129027,0.0,0.0,0.0,0.0,0.0,0.0
1609060345552400626,54,1609060345552400626,0.143947765231,0.387164533138,-1.44627904892,-0.926565618693,0.373398804125,-0.0433687171997,0.0129862120259,0.0,0.0,0.0,0.0,0.0,0.0
1609060345758053534,55,1609060345758053534,0.143736630678,0.391028136015,-1.44482386112,-0.926598251505,0.373316520585,-0.0433672119038,0.0130284572158,0.0,0.0,0.0,0.0,0.0,0.0
1609060345964406162,56,1609060345964406162,0.142473772168,0.389589726925,-1.4434094429,-0.926608162022,0.373290877211,-0.043367675668,0.0130567902911,0.0,0.0,0.0,0.0,0.0,0.0
1609060346171197720,57,1609060346171197720,0.142560005188,0.384793311357,-1.44367849827,-0.926645579057,0.373192383886,-0.0433977249971,0.0131168932441,0.0,0.0,0.0,0.0,0.0,0.0
1609060346376943352,58,1609060346376943352,0.143992111087,0.38909843564,-1.44316983223,-0.926683496537,0.373098931114,-0.0433709181539,0.013185154766,0.0,0.0,0.0,0.0,0.0,0.0
1609060346548856367,59,1609060346548856367,0.148302346468,0.386268824339,-1.44728600979,-0.92663102131,0.373235353478,-0.0433884275126,0.0129524367385,0.0,0.0,0.0,0.0,0.0,0.0
1609060346755150447,60,1609060346755150447,0.144136413932,0.388466149569,-1.44706344604,-0.926578568587,0.373359321684,-0.0434318197303,0.0129865384566,0.0,0.0,0.0,0.0,0.0,0.0
1609060346961341625,61,1609060346961341625,0.141822114587,0.381154239178,-1.44576191902,-0.926654084273,0.373176648544,-0.0433915002022,0.0129836355518,0.0,0.0,0.0,0.0,0.0,0.0
1609060347167481037,62,1609060347167481037,0.141532197595,0.386512964964,-1.44372618198,-0.926648782931,0.373188716826,-0.0433751854792,0.013069353888,0.0,0.0,0.0,0.0,0.0,0.0
1609060347373665176,63,1609060347373665176,0.144670784473,0.385894954205,-1.44310057163,-0.926666909326,0.373138500561,-0.0433923761176,0.013160556781,0.0,0.0,0.0,0.0,0.0,0.0
1609060347548682833,64,1609060347548682833,0.143496349454,0.378276765347,-1.44799876213,-0.926623274692,0.373253178342,-0.0434098069759,0.0129213124542,0.0,0.0,0.0,0.0,0.0,0.0
1609060347751874401,65,1609060347751874401,0.140404775739,0.381778746843,-1.44650375843,-0.926600321086,0.373312372022,-0.0433788389874,0.0129612571513,0.0,0.0,0.0,0.0,0.0,0.0
1609060347963306148,66,1609060347963306148,0.14713101089,0.388482272625,-1.4435750246,-0.926592076757,0.373331219897,-0.0433681563239,0.0130432571594,0.0,0.0,0.0,0.0,0.0,0.0
1609060348169837410,67,1609060348169837410,0.148151472211,0.392099648714,-1.44295024872,-0.926698038538,0.373061976008,-0.0433969545622,0.0131229478525,0.0,0.0,0.0,0.0,0.0,0.0
1609060348375344401,68,1609060348375344401,0.142423793674,0.388350576162,-1.44404482841,-0.926678648768,0.373107300271,-0.0434149094402,0.0131442017393,0.0,0.0,0.0,0.0,0.0,0.0
1609060348548521005,69,1609060348548521005,0.144571751356,0.384376108646,-1.44787037373,-0.926604821459,0.373298296479,-0.0434123153188,0.0129328099224,0.0,0.0,0.0,0.0,0.0,0.0
1609060348753650181,70,1609060348753650181,0.145931690931,0.384660243988,-1.44700539112,-0.926577434651,0.373367573505,-0.043392885483,0.0129603294917,0.0,0.0,0.0,0.0,0.0,0.0
1609060348960122681,71,1609060348960122681,0.14448659122,0.386760443449,-1.44439816475,-0.926643503035,0.373205677518,-0.043360180898,0.0130090454591,0.0,0.0,0.0,0.0,0.0,0.0
1609060349165938959,72,1609060349165938959,0.146709829569,0.391797989607,-1.44249379635,-0.926622477453,0.373256814102,-0.043347620397,0.0130812388937,0.0,0.0,0.0,0.0,0.0,0.0
1609060349372140482,73,1609060349372140482,0.14125624299,0.387883037329,-1.44379663467,-0.92667548983,0.373121733719,-0.0433671232046,0.0131149151308,0.0,0.0,0.0,0.0,0.0,0.0
1609060349578554231,74,1609060349578554231,0.144089445472,0.389835655689,-1.44251358509,-0.926670464622,0.373127181184,-0.0434004046511,0.0132046027927,0.0,0.0,0.0,0.0,0.0,0.0
1609060349750354990,75,1609060349750354990,0.142626777291,0.384793102741,-1.44629609585,-0.926632746529,0.373232840181,-0.0433695729039,0.0129645754459,0.0,0.0,0.0,0.0,0.0,0.0
1609060349956382969,76,1609060349956382969,0.142348319292,0.388171732426,-1.44542264938,-0.926648227529,0.373194861587,-0.0433618369196,0.0129772416724,0.0,0.0,0.0,0.0,0.0,0.0
1609060350162584723,77,1609060350162584723,0.143152445555,0.387697905302,-1.44369113445,-0.926630792177,0.373235475495,-0.0433636738867,0.0130478583645,0.0,0.0,0.0,0.0,0.0,0.0
1609060350369354968,78,1609060350369354968,0.1400103122,0.385399162769,-1.44429540634,-0.926694500942,0.373070478613,-0.0434097172488,0.013088787557,0.0,0.0,0.0,0.0,0.0,0.0
1609060350575234454,79,1609060350575234454,0.144034460187,0.387163668871,-1.44458913803,-0.926677325278,0.373111716818,-0.043408154866,0.0131344463232,0.0,0.0,0.0,0.0,0.0,0.0
1609060350749866487,80,1609060350749866487,0.144587829709,0.385689765215,-1.44670236111,-0.926564701488,0.373401912391,-0.0433640131377,0.0129779868911,0.0,0.0,0.0,0.0,0.0,0.0
1609060350955535317,81,1609060350955535317,0.142173781991,0.38363969326,-1.44563508034,-0.926602501839,0.373307332732,-0.0433758503339,0.0129604985664,0.0,0.0,0.0,0.0,0.0,0.0
1609060351159757301,82,1609060351159757301,0.145829439163,0.390606462955,-1.44387495518,-0.926629113343,0.373241605696,-0.0433551979902,0.0130198652293,0.0,0.0,0.0,0.0,0.0,0.0
1609060351365724358,83,1609060351365724358,0.145432934165,0.389110863209,-1.44384694099,-0.926656765085,0.37316944657,-0.043378146095,0.0130437843777,0.0,0.0,0.0,0.0,0.0,0.0
1609060351572281483,84,1609060351572281483,0.142940104008,0.388350665569,-1.44197046757,-0.926686133737,0.373090979572,-0.043392954829,0.0131522611324,0.0,0.0,0.0,0.0,0.0,0.0
1609060351778410223,85,1609060351778410223,0.145751565695,0.390104711056,-1.44225811958,-0.926697721966,0.373057063119,-0.0434229261683,0.0131988348828,0.0,0.0,0.0,0.0,0.0,0.0
1609060351951774844,86,1609060351951774844,0.144905656576,0.382191032171,-1.44490253925,-0.926638969229,0.373216263616,-0.0433810349537,0.0129586683565,0.0,0.0,0.0,0.0,0.0,0.0
1609060352156837224,87,1609060352156837224,0.144325047731,0.385692566633,-1.44758713245,-0.926628437281,0.373239323782,-0.0434087544513,0.0129547845096,0.0,0.0,0.0,0.0,0.0,0.0
1609060352362803767,88,1609060352362803767,0.141286835074,0.387447685003,-1.44331920147,-0.926626938206,0.373243020214,-0.0433782526051,0.0130572758697,0.0,0.0,0.0,0.0,0.0,0.0
1609060352568870822,89,1609060352568870822,0.145935386419,0.389247566462,-1.44312310219,-0.926660187151,0.373158046449,-0.0433881937624,0.0130933021763,0.0,0.0,0.0,0.0,0.0,0.0
1609060352775721310,90,1609060352775721310,0.139994367957,0.389257758856,-1.44390308857,-0.92665614047,0.373165130362,-0.043396524482,0.013150075092,0.0,0.0,0.0,0.0,0.0,0.0
1609060352950887840,91,1609060352950887840,0.144744262099,0.387090146542,-1.44698739052,-0.926568298412,0.373391677199,-0.0433768394775,0.012972801288,0.0,0.0,0.0,0.0,0.0,0.0
1609060353156775854,92,1609060353156775854,0.140381529927,0.382356971502,-1.44568836689,-0.926623248401,0.373254138381,-0.0433851494212,0.0129781552799,0.0,0.0,0.0,0.0,0.0,0.0
1609060353363960857,93,1609060353363960857,0.143657669425,0.386034667492,-1.44523119926,-0.926644233264,0.373199482591,-0.0433917604585,0.0130294388398,0.0,0.0,0.0,0.0,0.0,0.0
1609060353568959169,94,1609060353568959169,0.147518739104,0.393093764782,-1.44142913818,-0.92664592023,0.373192581095,-0.0433877518916,0.0131201723928,0.0,0.0,0.0,0.0,0.0,0.0
1609060353775416564,95,1609060353775416564,0.144420042634,0.387170672417,-1.44292664528,-0.9266750114,0.37311797635,-0.0433977641801,0.0131542022032,0.0,0.0,0.0,0.0,0.0,0.0
1609060353950100014,96,1609060353950100014,0.14351311326,0.386789023876,-1.44632971287,-0.926595162591,0.37332401205,-0.0433802184602,0.0129901245677,0.0,0.0,0.0,0.0,0.0,0.0
1609060354154399198,97,1609060354154399198,0.142935484648,0.382588386536,-1.44662451744,-0.926585034573,0.373347580962,-0.0434020719025,0.0129621622334,0.0,0.0,0.0,0.0,0.0,0.0
1609060354359743625,98,1609060354359743625,0.144793018699,0.384635746479,-1.44380807877,-0.926610578411,0.373284214717,-0.0433791562416,0.0130376310498,0.0,0.0,0.0,0.0,0.0,0.0
1609060354566198037,99,1609060354566198037,0.141861438751,0.384302854538,-1.44280052185,-0.92664207777,0.373205924412,-0.0433661108289,0.0130835057174,0.0,0.0,0.0,0.0,0.0,0.0
1609060354772094635,100,1609060354772094635,0.144159570336,0.385713428259,-1.44452154636,-0.926680857066,0.37310129204,-0.0434344082026,0.0130945488666,0.0,0.0,0.0,0.0,0.0,0.0
1609060354978046953,101,1609060354978046953,0.144131377339,0.388394862413,-1.44416809082,-0.92671948212,0.373004638936,-0.0434222962921,0.0131546560977,0.0,0.0,0.0,0.0,0.0,0.0
1609060355150753704,102,1609060355150753704,0.145156055689,0.386113911867,-1.44690954685,-0.92662215343,0.373260042866,-0.0433741771997,0.0129230772175,0.0,0.0,0.0,0.0,0.0,0.0
1609060355356574252,103,1609060355356574252,0.144466027617,0.384939104319,-1.44473826885,-0.926646139394,0.373199289515,-0.0433682661344,0.0129775245799,0.0,0.0,0.0,0.0,0.0,0.0
1609060355565509194,104,1609060355565509194,0.143648445606,0.383901298046,-1.44427406788,-0.926667177602,0.373143658451,-0.0433781147097,0.0130419046377,0.0,0.0,0.0,0.0,0.0,0.0
1609060355769042116,105,1609060355769042116,0.141815572977,0.385582953691,-1.44344866276,-0.926666379211,0.373141199144,-0.0433999389562,0.0130962758102,0.0,0.0,0.0,0.0,0.0,0.0
1609060355975613145,106,1609060355975613145,0.138032972813,0.384320288897,-1.44538199902,-0.926675482992,0.373115224191,-0.043418850024,0.0131294387402,0.0,0.0,0.0,0.0,0.0,0.0
1609060356148900145,107,1609060356148900145,0.143571719527,0.38653999567,-1.44827389717,-0.926587836818,0.373343933416,-0.0433780913438,0.0129471708939,0.0,0.0,0.0,0.0,0.0,0.0
1609060356353475729,108,1609060356353475729,0.142803758383,0.385421335697,-1.44644927979,-0.926604466577,0.373302007954,-0.0433818229589,0.0129534093676,0.0,0.0,0.0,0.0,0.0,0.0
1609060356561446944,109,1609060356561446944,0.141779229045,0.385503619909,-1.44410169125,-0.926658107216,0.373167792607,-0.0433657543826,0.0130369566086,0.0,0.0,0.0,0.0,0.0,0.0
1609060356766591910,110,1609060356766591910,0.146310433745,0.386889219284,-1.44278037548,-0.92666247975,0.373153204481,-0.043390979345,0.0130597672922,0.0,0.0,0.0,0.0,0.0,0.0
1609060356972997728,111,1609060356972997728,0.145148098469,0.389241784811,-1.44384527206,-0.926697255424,0.373056973668,-0.0434482996615,0.0131505301792,0.0,0.0,0.0,0.0,0.0,0.0
1609060357178622324,112,1609060357178622324,0.142993971705,0.386427491903,-1.44464182854,-0.926713880798,0.373013165994,-0.0434684907683,0.013154901827,0.0,0.0,0.0,0.0,0.0,0.0
1609060357350047280,113,1609060357350047280,0.144566014409,0.380369305611,-1.44841253757,-0.926617367043,0.373269588965,-0.0433861210268,0.0129504266754,0.0,0.0,0.0,0.0,0.0,0.0
1609060357556615572,114,1609060357556615572,0.141870215535,0.382399082184,-1.44617569447,-0.926622795902,0.373255626412,-0.0433844824131,0.0129698940978,0.0,0.0,0.0,0.0,0.0,0.0
1609060357762833041,115,1609060357762833041,0.144558221102,0.385150045156,-1.44282948971,-0.926651336226,0.373184276968,-0.043363009329,0.0130554936956,0.0,0.0,0.0,0.0,0.0,0.0
1609060357968722321,116,1609060357968722321,0.142955169082,0.385301142931,-1.4453445673,-0.926688696018,0.373086346965,-0.0434085157125,0.0130514039573,0.0,0.0,0.0,0.0,0.0,0.0
1609060358175340636,117,1609060358175340636,0.140331968665,0.387377947569,-1.44531214237,-0.926699876859,0.373051834314,-0.0434366467527,0.013150089887,0.0,0.0,0.0,0.0,0.0,0.0
1609060358348743039,118,1609060358348743039,0.143549069762,0.382346361876,-1.44702398777,-0.926602239449,0.373304962951,-0.0433992958992,0.0129690246225,0.0,0.0,0.0,0.0,0.0,0.0
1609060358553434464,119,1609060358553434464,0.141284480691,0.382928878069,-1.44652462006,-0.926636499279,0.373224587886,-0.043367622235,0.0129404228472,0.0,0.0,0.0,0.0,0.0,0.0
1609060358759878339,120,1609060358759878339,0.139686912298,0.389844983816,-1.44544684887,-0.926624423862,0.373252119637,-0.0433662331172,0.0130154567263,0.0,0.0,0.0,0.0,0.0,0.0
1609060358965811671,121,1609060358965811671,0.141523808241,0.386771678925,-1.44439649582,-0.926647396252,0.373186369395,-0.0434211490878,0.0130820689872,0.0,0.0,0.0,0.0,0.0,0.0
1609060359172047118,122,1609060359172047118,0.142078906298,0.390741705894,-1.44277501106,-0.926683545825,0.373103430579,-0.0433513726075,0.0131184785667,0.0,0.0,0.0,0.0,0.0,0.0
1609060359378169856,123,1609060359378169856,0.142611548305,0.387076586485,-1.44436836243,-0.926711185627,0.373024245553,-0.0434298938646,0.0131580766749,0.0,0.0,0.0,0.0,0.0,0.0
1609060359550393558,124,1609060359550393558,0.145689621568,0.385698288679,-1.4444488287,-0.926595707871,0.373321671068,-0.0433857041673,0.0130001822637,0.0,0.0,0.0,0.0,0.0,0.0
1609060359756447078,125,1609060359756447078,0.145850986242,0.385388731956,-1.44430112839,-0.926653087835,0.37318419141,-0.0433501268444,0.012976154686,0.0,0.0,0.0,0.0,0.0,0.0
1609060359962715717,126,1609060359962715717,0.145877853036,0.387734442949,-1.44341742992,-0.926628627934,0.373238486906,-0.0433832219636,0.0130504343592,0.0,0.0,0.0,0.0,0.0,0.0
1609060360169003708,127,1609060360169003708,0.1427282691,0.388366162777,-1.44283688068,-0.926674465256,0.373125186449,-0.0433673264445,0.0130883794759,0.0,0.0,0.0,0.0,0.0,0.0
1609060360375067117,128,1609060360375067117,0.139845207334,0.386756926775,-1.44437599182,-0.926690858289,0.373078141732,-0.0434070419569,0.0131370481849,0.0,0.0,0.0,0.0,0.0,0.0
1609060360548471628,129,1609060360548471628,0.14488337934,0.38349801302,-1.44754302502,-0.926616127055,0.373272351171,-0.0433856763983,0.0129610191174,0.0,0.0,0.0,0.0,0.0,0.0
1609060360753682951,130,1609060360753682951,0.144310995936,0.384717434645,-1.44615101814,-0.926589011515,0.373339327366,-0.043383281336,0.0129784930294,0.0,0.0,0.0,0.0,0.0,0.0
1609060360959744412,131,1609060360959744412,0.140602320433,0.385455071926,-1.4439548254,-0.926604251894,0.373303358386,-0.0433492933661,0.0130384720739,0.0,0.0,0.0,0.0,0.0,0.0
1609060361166206969,132,1609060361166206969,0.141679748893,0.386564075947,-1.44312250614,-0.92662796564,0.373242133723,-0.0433590073388,0.0130736142529,0.0,0.0,0.0,0.0,0.0,0.0
1609060361372528107,133,1609060361372528107,0.140936493874,0.391390323639,-1.4439368248,-0.926687208105,0.37308700211,-0.0434082584032,0.0131388847623,0.0,0.0,0.0,0.0,0.0,0.0
1609060361579172601,134,1609060361579172601,0.143309861422,0.388448596001,-1.44419324398,-0.926688212195,0.373082742137,-0.0434063268187,0.0131952904668,0.0,0.0,0.0,0.0,0.0,0.0
1609060361750512111,135,1609060361750512111,0.14543132484,0.390207976103,-1.44444143772,-0.926573264018,0.373381225895,-0.0433593999206,0.0129772491334,0.0,0.0,0.0,0.0,0.0,0.0
1609060361955957272,136,1609060361955957272,0.14226308465,0.39019677043,-1.44439637661,-0.926592455092,0.373333062158,-0.0433561859807,0.0130033843436,0.0,0.0,0.0,0.0,0.0,0.0
1609060362162713517,137,1609060362162713517,0.142767220736,0.387657046318,-1.44340801239,-0.926654194651,0.373181267579,-0.0433360629943,0.0130280738559,0.0,0.0,0.0,0.0,0.0,0.0
1609060362369131973,138,1609060362369131973,0.139945432544,0.385477602482,-1.44359982014,-0.926675959974,0.373123322851,-0.0433513738058,0.0130885270859,0.0,0.0,0.0,0.0,0.0,0.0
1609060362575396488,139,1609060362575396488,0.142224922776,0.391461879015,-1.44377326965,-0.926675734837,0.373116279586,-0.043397691511,0.0131516061356,0.0,0.0,0.0,0.0,0.0,0.0
1609060362748673870,140,1609060362748673870,0.142046660185,0.386768996716,-1.44597387314,-0.926605038145,0.373304132431,-0.0433466027308,0.0129691952857,0.0,0.0,0.0,0.0,0.0,0.0
1609060362953424215,141,1609060362953424215,0.138808146119,0.387503653765,-1.44501328468,-0.926574680554,0.373378269078,-0.0433499846888,0.0129926272759,0.0,0.0,0.0,0.0,0.0,0.0
1609060363159607432,142,1609060363159607432,0.137840554118,0.380045861006,-1.44669091702,-0.926665020972,0.37314961714,-0.0433943771841,0.0129703570976,0.0,0.0,0.0,0.0,0.0,0.0
1609060363365814973,143,1609060363365814973,0.143907397985,0.388863772154,-1.4447479248,-0.926671575199,0.373132293832,-0.0433781216127,0.0130545618015,0.0,0.0,0.0,0.0,0.0,0.0
1609060363572238392,144,1609060363572238392,0.140826404095,0.390541195869,-1.44561719894,-0.926666752221,0.373137805997,-0.0434104072033,0.0131318167154,0.0,0.0,0.0,0.0,0.0,0.0
1609060363778607186,145,1609060363778607186,0.142020329833,0.387495398521,-1.44612836838,-0.92670779497,0.373026504028,-0.043484291765,0.0131531898784,0.0,0.0,0.0,0.0,0.0,0.0
1609060363950571155,146,1609060363950571155,0.145922005177,0.38414517045,-1.4469152689,-0.926626753112,0.373245762035,-0.0433867915051,0.0129633275993,0.0,0.0,0.0,0.0,0.0,0.0
1609060364156430113,147,1609060364156430113,0.143294662237,0.388326227665,-1.44779229164,-0.926614735298,0.373269565316,-0.0434376889652,0.0129665382617,0.0,0.0,0.0,0.0,0.0,0.0
1609060364362620430,148,1609060364362620430,0.138131529093,0.386321485043,-1.44327867031,-0.926645312243,0.373199225436,-0.0433610645573,0.0130622169798,0.0,0.0,0.0,0.0,0.0,0.0
1609060364568794895,149,1609060364568794895,0.142783358693,0.388331860304,-1.44375002384,-0.926647134339,0.373188657999,-0.043405174546,0.0130883454066,0.0,0.0,0.0,0.0,0.0,0.0
1609060364775324180,150,1609060364775324180,0.140431508422,0.386402666569,-1.44403886795,-0.926673538919,0.373117009969,-0.043430734145,0.0131765121122,0.0,0.0,0.0,0.0,0.0,0.0
1609060364948561481,151,1609060364948561481,0.142430379987,0.384093523026,-1.44709455967,-0.926585910687,0.373344320547,-0.0434214130421,0.0129286241102,0.0,0.0,0.0,0.0,0.0,0.0
1609060365153410656,152,1609060365153410656,0.142724141479,0.385001003742,-1.4439445734,-0.926574190079,0.373381799039,-0.0433289170957,0.0129964367921,0.0,0.0,0.0,0.0,0.0,0.0
1609060365359792912,153,1609060365359792912,0.141275018454,0.38883164525,-1.44348263741,-0.926623120364,0.373248949075,-0.043433264811,0.0129756051751,0.0,0.0,0.0,0.0,0.0,0.0
1609060365565434571,154,1609060365565434571,0.146581619978,0.376802265644,-1.44511520863,-0.926505948842,0.373559038466,-0.0432474939005,0.0130393946055,0.0,0.0,0.0,0.0,0.0,0.0
1609060365771614800,155,1609060365771614800,0.146834537387,0.38945633173,-1.4514182806,-0.927096768762,0.372100370331,-0.043246161591,0.0127540291274,0.0,0.0,0.0,0.0,0.0,0.0
1609060365978292552,156,1609060365978292552,0.138725578785,0.392616212368,-1.4154073,-0.926838649912,0.372765700119,-0.0430011407377,0.0129132389537,0.0,0.0,0.0,0.0,0.0,0.0
1609060366150029296,157,1609060366150029296,0.146150708199,0.393974989653,-1.45553171635,-0.926500846724,0.37340239141,-0.0442587611088,0.0144221070962,0.0,0.0,0.0,0.0,0.0,0.0
1609060366356507689,158,1609060366356507689,0.148580417037,0.382178962231,-1.45368659496,-0.92698078092,0.372306376546,-0.0437572026494,0.0134127179779,0.0,0.0,0.0,0.0,0.0,0.0
1609060366562590695,159,1609060366562590695,0.139738723636,0.374037235975,-1.43309378624,-0.926814467238,0.372780991283,-0.0435010665547,0.0125272928172,0.0,0.0,0.0,0.0,0.0,0.0
1609060366769158375,160,1609060366769158375,0.149192526937,0.393128782511,-1.45742344856,-0.926306017308,0.374085690389,-0.043180456004,0.0123493629542,0.0,0.0,0.0,0.0,0.0,0.0
1609060366974959187,161,1609060366974959187,0.14769884944,0.386382251978,-1.46877849102,-0.926893428282,0.372554623344,-0.0434573798103,0.0135307565129,0.0,0.0,0.0,0.0,0.0,0.0
1609060367148311474,162,1609060367148311474,0.1392018646,0.384964168072,-1.45411634445,-0.926563342679,0.373420319643,-0.0433593629316,0.0125539845476,0.0,0.0,0.0,0.0,0.0,0.0
1609060367353706136,163,1609060367353706136,0.146919071674,0.384913176298,-1.43220925331,-0.926786629691,0.372877206707,-0.0430670156135,0.0132046927562,0.0,0.0,0.0,0.0,0.0,0.0
1609060367559820946,164,1609060367559820946,0.141138330102,0.394954562187,-1.45250320435,-0.926831642313,0.372698111201,-0.0437235712728,0.0129411757508,0.0,0.0,0.0,0.0,0.0,0.0
1609060367765856119,165,1609060367765856119,0.134409695864,0.389014422894,-1.44510304928,-0.926571584786,0.37336165187,-0.0435640331879,0.0129749833003,0.0,0.0,0.0,0.0,0.0,0.0
1609060367972021210,166,1609060367972021210,0.146638810635,0.386308729649,-1.44821119308,-0.926752367602,0.37279102855,-0.0447764418274,0.012327547794,0.0,0.0,0.0,0.0,0.0,0.0
1609060368178050841,167,1609060368178050841,0.169393122196,0.381947159767,-1.436378479,-0.926824901746,0.372730748773,-0.0436342737264,0.0127843880927,0.0,0.0,0.0,0.0,0.0,0.0
1609060368350262096,168,1609060368350262096,0.192634940147,0.354869812727,-1.42029476166,-0.926913723873,0.372628181556,-0.0425548906522,0.0129718189615,0.0,0.0,0.0,0.0,0.0,0.0
1609060368556213906,169,1609060368556213906,0.191935673356,0.355859488249,-1.45862877369,-0.926933010463,0.37237478985,-0.0443568487708,0.0128327691959,0.0,0.0,0.0,0.0,0.0,0.0
1609060368762521847,170,1609060368762521847,0.11825080961,0.34950080514,-1.39188981056,-0.928102328723,0.370515164643,-0.0291024805024,0.0223075282454,0.0,0.0,0.0,0.0,0.0,0.0
1609060368968556822,171,1609060368968556822,0.114841610193,0.301311701536,-1.27461206913,-0.92857027576,0.369287808196,-0.026330600565,0.0262765516711,0.0,0.0,0.0,0.0,0.0,0.0
1609060369174860884,172,1609060369174860884,0.122767008841,0.33299908042,-1.10746777058,-0.928326387683,0.370105549035,-0.023337712397,0.0262173927916,0.0,0.0,0.0,0.0,0.0,0.0
1609060369348282448,173,1609060369348282448,0.106619037688,0.315203219652,-0.874263525009,-0.928445353971,0.369766474225,-0.0195823124694,0.029639707591,0.0,0.0,0.0,0.0,0.0,0.0
1609060369553020581,174,1609060369553020581,0.0418653637171,0.246451511979,-0.251789212227,-0.928124520905,0.370915358775,-0.0231465863442,0.0217003654262,0.0,0.0,0.0,0.0,0.0,0.0
1609060369759435466,175,1609060369759435466,0.067193120718,0.198795646429,-0.0187028162181,-0.928116563761,0.371555211315,-0.0228041818303,0.00513208606852,0.0,0.0,0.0,0.0,0.0,0.0
1609060369965663670,176,1609060369965663670,0.0536342486739,0.183214351535,0.274236112833,0.928131136976,-0.371469757602,0.00238515909071,0.0240233798412,0.0,0.0,0.0,0.0,0.0,0.0
1609060370171928191,177,1609060370171928191,0.14793010056,0.210859894753,0.486967086792,0.928973253066,-0.369993277843,0.00669404101086,0.00829814766003,0.0,0.0,0.0,0.0,0.0,0.0
1609060370378220329,178,1609060370378220329,0.152483165264,0.243076726794,0.586970627308,-0.929149173368,0.369435812859,-0.00114843111869,0.0140596910475,0.0,0.0,0.0,0.0,0.0,0.0
1609060370549949792,179,1609060370549949792,0.230542942882,0.211882144213,0.94191801548,-0.928014308758,0.369977333312,-0.0267070084153,0.0345391267606,0.0,0.0,0.0,0.0,0.0,0.0
1609060370756180793,180,1609060370756180793,0.303487569094,0.220231488347,1.08581900597,-0.927901529587,0.369773544162,-0.030376984805,0.0366540069187,0.0,0.0,0.0,0.0,0.0,0.0
1609060370962866791,181,1609060370962866791,0.370922982693,0.223464205861,1.44236004353,-0.928144192675,0.369215466686,-0.0368600819985,0.0294895086171,0.0,0.0,0.0,0.0,0.0,0.0
1609060371169297218,182,1609060371169297218,0.431781411171,0.209045901895,1.59687685966,-0.934762938139,0.353188426069,-0.0306811150247,0.0231269183578,0.0,0.0,0.0,0.0,0.0,0.0
1609060371375003478,183,1609060371375003478,0.459496051073,0.24698343873,1.73349452019,-0.941563598414,0.334874601998,-0.0286383725675,0.0222897890138,0.0,0.0,0.0,0.0,0.0,0.0
1609060371547983723,184,1609060371547983723,0.545768797398,0.231148868799,1.76433074474,-0.944846253996,0.325421676148,-0.0302366416403,0.0212611031234,0.0,0.0,0.0,0.0,0.0,0.0
1609060371752567829,185,1609060371752567829,0.590512096882,0.226497247815,1.84938752651,-0.945858244675,0.322650310907,-0.0282531843871,0.0212300594517,0.0,0.0,0.0,0.0,0.0,0.0
1609060371958683597,186,1609060371958683597,0.625655293465,0.225328490138,1.92488014698,-0.946095257892,0.322339350182,-0.0242404542354,0.0203348640941,0.0,0.0,0.0,0.0,0.0,0.0
1609060372165174084,187,1609060372165174084,0.655251026154,0.225250646472,2.03814482689,-0.946192324346,0.321705520937,-0.0270788265266,0.0221896439927,0.0,0.0,0.0,0.0,0.0,0.0
1609060372371685295,188,1609060372371685295,0.70155775547,0.257034361362,2.27507162094,-0.946281581901,0.321640677088,-0.00306553080825,0.033000683605,0.0,0.0,0.0,0.0,0.0,0.0
1609060372577653865,189,1609060372577653865,0.732432842255,0.236785322428,2.3554623127,-0.946209345138,0.32202407516,0.00702247036494,0.0306440059611,0.0,0.0,0.0,0.0,0.0,0.0
1609060372749867431,190,1609060372749867431,0.797919273376,0.221861213446,2.3540828228,-0.946183065359,0.321617843139,0.0148370982571,0.0328546848549,0.0,0.0,0.0,0.0,0.0,0.0
1609060372955929624,191,1609060372955929624,0.889305651188,0.184977382421,2.41158747673,-0.944936375163,0.320605561376,0.0460022960286,0.0468092904143,0.0,0.0,0.0,0.0,0.0,0.0
1609060373162320694,192,1609060373162320694,1.02671718597,0.108344458044,2.40650725365,-0.944844498869,0.320771382397,0.0461665020086,0.0473629315441,0.0,0.0,0.0,0.0,0.0,0.0
1609060373368451012,193,1609060373368451012,1.19868063927,-0.00900163967162,2.40370893478,-0.94588788018,0.321561487837,0.021990568783,0.0375598529483,0.0,0.0,0.0,0.0,0.0,0.0
1609060373574414222,194,1609060373574414222,1.40997505188,-0.126361563802,2.39843249321,-0.946411306845,0.322018420226,-0.000703839204176,0.0246835961855,0.0,0.0,0.0,0.0,0.0,0.0
1609060373747722775,195,1609060373747722775,1.61418640614,-0.264599859715,2.30169582367,-0.946445704902,0.321862486715,-0.00906435777354,0.023725613487,0.0,0.0,0.0,0.0,0.0,0.0
1609060373952886245,196,1609060373952886245,1.81866538525,-0.392281532288,2.35962963104,-0.945785508592,0.322145632956,-0.0370969370378,0.0183243053624,0.0,0.0,0.0,0.0,0.0,0.0
1609060374158811651,197,1609060374158811651,2.00779414177,-0.514921307564,2.37926435471,-0.945102118944,0.322241023937,-0.0521885756041,0.0148006701463,0.0,0.0,0.0,0.0,0.0,0.0
1609060374364966620,198,1609060374364966620,2.1735637188,-0.621264517307,2.38946771622,-0.945158262024,0.322112298791,-0.0520341049648,0.0145594854155,0.0,0.0,0.0,0.0,0.0,0.0
1609060374571134747,199,1609060374571134747,2.31772208214,-0.71929526329,2.41232013702,-0.945766901396,0.321727983599,-0.0427428537334,0.0137521361001,0.0,0.0,0.0,0.0,0.0,0.0
1609060374777678273,200,1609060374777678273,2.4402859211,-0.798896253109,2.44890475273,-0.946010350658,0.32172427627,-0.0373263354715,0.012831647837,0.0,0.0,0.0,0.0,0.0,0.0
1609060374949338298,201,1609060374949338298,2.56878423691,-0.865461409092,2.37027072906,-0.946738244852,0.320873770521,-0.0193449013599,0.0187748213713,0.0,0.0,0.0,0.0,0.0,0.0
1609060375155617872,202,1609060375155617872,2.68729448318,-0.927944540977,2.3563888073,-0.946917789942,0.320583365798,-0.00601484587382,0.0231695121853,0.0,0.0,0.0,0.0,0.0,0.0
1609060375361928541,203,1609060375361928541,2.8071873188,-1.02367186546,2.39464116096,-0.946850835948,0.320577812867,-0.0193078855189,0.0181814718527,0.0,0.0,0.0,0.0,0.0,0.0
1609060375568086136,204,1609060375568086136,2.93007779121,-1.0926027298,2.4182446003,-0.946880564708,0.320365504408,-0.0185866743028,0.0209206907641,0.0,0.0,0.0,0.0,0.0,0.0
1609060375774173582,205,1609060375774173582,3.04685401917,-1.16963803768,2.41785383224,-0.947033968064,0.319938793936,-0.0163065592087,0.0223590606558,0.0,0.0,0.0,0.0,0.0,0.0
1609060375947630840,206,1609060375947630840,3.17376565933,-1.2470356226,2.39606904984,-0.947028752247,0.319973674872,-0.0181684710992,0.0205741698201,0.0,0.0,0.0,0.0,0.0,0.0
1609060376152686297,207,1609060376152686297,3.28864955902,-1.32197868824,2.40741276741,-0.946876286822,0.32024448546,-0.0227919372419,0.0186894243612,0.0,0.0,0.0,0.0,0.0,0.0
1609060376358623956,208,1609060376358623956,3.39857387543,-1.38926196098,2.39981007576,-0.946676197771,0.32064340261,-0.0268132095692,0.0165238230573,0.0,0.0,0.0,0.0,0.0,0.0
1609060376564706204,209,1609060376564706204,3.51444411278,-1.46044194698,2.41529536247,-0.946214537019,0.321226227185,-0.0360205391901,0.0139384955475,0.0,0.0,0.0,0.0,0.0,0.0
1609060376770980127,210,1609060376770980127,3.60187840462,-1.50118970871,2.37913823128,-0.945992494742,0.321662756905,-0.0386742943767,0.0116434388019,0.0,0.0,0.0,0.0,0.0,0.0
1609060376977320841,211,1609060376977320841,3.68855929375,-1.54442715645,2.37057518959,-0.94586343133,0.321782163,-0.0405193334827,0.0125216796988,0.0,0.0,0.0,0.0,0.0,0.0
1609060377149168980,212,1609060377149168980,3.76697158813,-1.58133208752,2.33806729317,-0.945738520374,0.321839846801,-0.0423026639803,0.0144308250504,0.0,0.0,0.0,0.0,0.0,0.0
1609060377355552786,213,1609060377355552786,3.82748603821,-1.59731197357,2.29743337631,-0.945868238472,0.321785168331,-0.0393912009578,0.0153594980284,0.0,0.0,0.0,0.0,0.0,0.0
1609060377562023107,214,1609060377562023107,3.90990495682,-1.64086866379,2.26277518272,-0.945451189838,0.323342111298,-0.035026075854,0.0185768863277,0.0,0.0,0.0,0.0,0.0,0.0
1609060377768897015,215,1609060377768897015,3.93131637573,-1.6210360527,2.18363761902,-0.948422545088,0.315341666476,-0.0267286723729,0.0184360360989,0.0,0.0,0.0,0.0,0.0,0.0
1609060377974447146,216,1609060377974447146,3.96860170364,-1.61270797253,2.21001410484,-0.954475011925,0.296946813934,-0.0234223286301,0.0158567281176,0.0,0.0,0.0,0.0,0.0,0.0
1609060378147470575,217,1609060378147470575,4.02468585968,-1.60179245472,2.10117053986,-0.959170403912,0.281933219954,-0.0224485517152,0.00136318437527,0.0,0.0,0.0,0.0,0.0,0.0
1609060378352093212,218,1609060378352093212,4.10643768311,-1.58784484863,2.05036306381,0.960762193921,-0.276517400587,0.0191491220527,0.0103655694367,0.0,0.0,0.0,0.0,0.0,0.0
1609060378558464055,219,1609060378558464055,4.17363214493,-1.5460807085,2.05080246925,0.960537748895,-0.277046587872,0.0212178422811,0.0127367289428,0.0,0.0,0.0,0.0,0.0,0.0
1609060378764961785,220,1609060378764961785,4.26112604141,-1.46569240093,2.07724785805,-0.960707971897,0.276660018423,-0.0222260400846,-0.00233025356317,0.0,0.0,0.0,0.0,0.0,0.0
1609060378971199702,221,1609060378971199702,4.34597253799,-1.38377404213,2.06749653816,-0.960685053512,0.276122552423,-0.0288524019805,0.00284655962774,0.0,0.0,0.0,0.0,0.0,0.0
1609060379177326859,222,1609060379177326859,4.42865896225,-1.28834736347,2.09902405739,-0.960812308651,0.275383428127,-0.0308676617119,0.00713179631263,0.0,0.0,0.0,0.0,0.0,0.0
1609060379349433928,223,1609060379349433928,4.53868722916,-1.19032156467,2.14879560471,-0.960436217488,0.276866384924,-0.0285272578175,0.00966812275771,0.0,0.0,0.0,0.0,0.0,0.0
1609060379556017747,224,1609060379556017747,4.62623214722,-1.07238149643,2.19444680214,-0.963879922829,0.264467608339,-0.0295831023097,0.0108267522277,0.0,0.0,0.0,0.0,0.0,0.0
1609060379762424336,225,1609060379762424336,4.71396827698,-0.944183409214,2.2405128479,-0.970222153728,0.239399642446,-0.0342085263591,0.0136587091632,0.0,0.0,0.0,0.0,0.0,0.0
1609060379968636545,226,1609060379968636545,4.79536914825,-0.794237136841,2.2686560154,-0.978840641013,0.200467014971,-0.039095547483,0.0124705083201,0.0,0.0,0.0,0.0,0.0,0.0
1609060380173817318,227,1609060380173817318,4.87324905396,-0.644764363766,2.29838728905,-0.985301417549,0.165618534765,-0.0409261924625,0.00875581452735,0.0,0.0,0.0,0.0,0.0,0.0
1609060380347068808,228,1609060380347068808,4.96363210678,-0.511482477188,2.30103707314,-0.988726168245,0.1438857387,-0.0411688983454,0.00475186642789,0.0,0.0,0.0,0.0,0.0,0.0
1609060380551879337,229,1609060380551879337,5.02659463882,-0.354918986559,2.31631207466,-0.991354676583,0.125043331213,-0.0396993659049,0.00200770607885,0.0,0.0,0.0,0.0,0.0,0.0
1609060380758412461,230,1609060380758412461,5.0918097496,-0.198374778032,2.31527447701,-0.993170504342,0.109509555255,-0.040218865467,0.00156507963577,0.0,0.0,0.0,0.0,0.0,0.0
1609060380964830135,231,1609060380964830135,5.15133523941,-0.0378376841545,2.34740424156,-0.99459235575,0.0953067852707,-0.0410184474811,0.00448882300215,0.0,0.0,0.0,0.0,0.0,0.0
1609060381170979270,232,1609060381170979270,5.18539571762,0.14207161963,2.38449954987,-0.996092691829,0.0774662345805,-0.0421407966957,0.00474183922531,0.0,0.0,0.0,0.0,0.0,0.0
1609060381377138459,233,1609060381377138459,5.22111749649,0.336309283972,2.3652780056,-0.997663006899,0.0535458964661,-0.0419514942777,0.00643690646773,0.0,0.0,0.0,0.0,0.0,0.0
1609060381549093800,234,1609060381549093800,5.23235988617,0.516191899776,2.42653083801,-0.998761112178,0.0283404686002,-0.0392329901249,0.0115685403795,0.0,0.0,0.0,0.0,0.0,0.0
1609060381755083611,235,1609060381755083611,5.26878213882,0.699117362499,2.42477989197,-0.999156874062,0.00274308652914,-0.0393925805382,0.0112357059728,0.0,0.0,0.0,0.0,0.0,0.0
1609060381961951380,236,1609060381961951380,5.27129840851,0.888501346111,2.45454359055,-0.998712856903,-0.0265849021497,-0.0414114316314,0.0122868126305,0.0,0.0,0.0,0.0,0.0,0.0
1609060382167634405,237,1609060382167634405,5.27750873566,1.05557692051,2.46725797653,-0.997368514596,-0.0570889860543,-0.043834653826,0.00868428968194,0.0,0.0,0.0,0.0,0.0,0.0
1609060382373821627,238,1609060382373821627,5.26491975784,1.23126840591,2.47954726219,-0.994959276829,-0.0888012940604,-0.0461421817928,0.0064239151071,0.0,0.0,0.0,0.0,0.0,0.0
1609060382547301867,239,1609060382547301867,5.24718046188,1.40171194077,2.50613260269,-0.991672992465,-0.118300760241,-0.0495249054404,0.0116999950027,0.0,0.0,0.0,0.0,0.0,0.0
1609060382752234347,240,1609060382752234347,5.22296142578,1.5560874939,2.47441244125,-0.988182650644,-0.143678166282,-0.0525608418783,0.00943352535892,0.0,0.0,0.0,0.0,0.0,0.0
1609060382958293804,241,1609060382958293804,5.16420125961,1.70314025879,2.51229786873,0.984296916714,0.168364148331,0.052645423202,-0.00644613994902,0.0,0.0,0.0,0.0,0.0,0.0
1609060383164656258,242,1609060383164656258,5.10885334015,1.86453640461,2.47729158401,0.980193604146,0.19145846257,0.05060328351,0.00186096731534,0.0,0.0,0.0,0.0,0.0,0.0
1609060383370837674,243,1609060383370837674,5.01526880264,2.00619530678,2.50155568123,0.975079776627,0.214675213371,0.0556910815147,0.00569959789408,0.0,0.0,0.0,0.0,0.0,0.0
1609060383577065294,244,1609060383577065294,4.91424179077,2.15119624138,2.53211140633,0.970093282041,0.236235878339,0.0556760161906,0.00343731669861,0.0,0.0,0.0,0.0,0.0,0.0
1609060383749146192,245,1609060383749146192,4.79394292831,2.29417157173,2.51788377762,0.965008923188,0.256486000245,0.0542586194927,0.00535836327824,0.0,0.0,0.0,0.0,0.0,0.0
1609060383955292594,246,1609060383955292594,4.67232656479,2.43745517731,2.47558403015,0.959928497573,0.275848684117,0.0490366565781,0.00633950542579,0.0,0.0,0.0,0.0,0.0,0.0
1609060384161934239,247,1609060384161934239,4.51907634735,2.57683753967,2.49099946022,0.954190899037,0.29575710841,0.0452116425801,0.0018353187754,0.0,0.0,0.0,0.0,0.0,0.0
1609060384367834038,248,1609060384367834038,4.36906290054,2.72297024727,2.4654841423,0.94766951964,0.315980166407,0.0455470602277,0.00211690519963,0.0,0.0,0.0,0.0,0.0,0.0
1609060384573875086,249,1609060384573875086,4.19706487656,2.86207485199,2.48713302612,0.940410937155,0.336972151433,0.0455601957897,0.00114323980629,0.0,0.0,0.0,0.0,0.0,0.0
1609060384747370707,250,1609060384747370707,4.01775121689,2.99361944199,2.53549075127,0.932428286294,0.358851650841,0.0423511202086,-0.00306042880571,0.0,0.0,0.0,0.0,0.0,0.0
1609060384952573736,251,1609060384952573736,3.83810019493,3.11538863182,2.52371239662,0.924212774156,0.379646529021,0.0409438027655,-0.00478185159876,0.0,0.0,0.0,0.0,0.0,0.0
1609060385158457316,252,1609060385158457316,3.65343379974,3.22234010696,2.54674363136,0.915089139015,0.40073011362,0.0435295763076,-0.0115073750448,0.0,0.0,0.0,0.0,0.0,0.0
1609060385364381392,253,1609060385364381392,3.48476719856,3.32941770554,2.50238537788,0.905832755125,0.421463775591,0.0421191684458,-0.00782823457103,0.0,0.0,0.0,0.0,0.0,0.0
1609060385570831140,254,1609060385570831140,3.29319953918,3.42008876801,2.50011086464,0.89595523227,0.442281833543,0.0405086237975,-0.00317062841821,0.0,0.0,0.0,0.0,0.0,0.0
1609060385776926758,255,1609060385776926758,3.1067636013,3.50405406952,2.50323057175,0.88569480045,0.462716176007,0.0379084671465,-0.00118702825077,0.0,0.0,0.0,0.0,0.0,0.0
1609060385948859018,256,1609060385948859018,2.92238640785,3.590102911,2.50329184532,0.874943071932,0.482601415762,0.0396294200263,-5.87447893808e-05,0.0,0.0,0.0,0.0,0.0,0.0
1609060386155135819,257,1609060386155135819,2.74002885818,3.66576623917,2.47872781754,0.864140923883,0.501607501828,0.0404400720565,0.00387018763893,0.0,0.0,0.0,0.0,0.0,0.0
1609060386361433314,258,1609060386361433314,2.55465745926,3.7381272316,2.44841861725,0.852992570847,0.520327698252,0.0405981880991,0.00381413627123,0.0,0.0,0.0,0.0,0.0,0.0
1609060386567705978,259,1609060386567705978,2.36067128181,3.79034924507,2.43916368484,0.841648996536,0.538420718524,0.0415237136542,0.00242439644321,0.0,0.0,0.0,0.0,0.0,0.0
1609060386773702616,260,1609060386773702616,2.1638174057,3.84291028976,2.43183779716,0.829268876163,0.556895667277,0.0461299080017,0.00723729122275,0.0,0.0,0.0,0.0,0.0,0.0
1609060386947416500,261,1609060386947416500,1.96334946156,3.89827108383,2.42748880386,0.815397651417,0.577218012665,0.0430395292092,0.00967650987981,0.0,0.0,0.0,0.0,0.0,0.0
1609060387152266025,262,1609060387152266025,1.75963234901,3.94092416763,2.38603687286,0.800152589646,0.597838764778,0.0476702334834,0.00849667298393,0.0,0.0,0.0,0.0,0.0,0.0
1609060387358243963,263,1609060387358243963,1.5282176733,3.97014665604,2.40533280373,0.784393523557,0.618369881442,0.0480669057719,0.00592135937088,0.0,0.0,0.0,0.0,0.0,0.0
1609060387564494346,264,1609060387564494346,1.30536651611,3.98411393166,2.38244390488,0.766954278975,0.639675111866,0.0509587339517,-0.000304393021001,0.0,0.0,0.0,0.0,0.0,0.0
1609060387770676229,265,1609060387770676229,1.08496177197,3.98999166489,2.34222865105,0.748924105591,0.660559426839,0.0507835683123,-0.0139626956188,0.0,0.0,0.0,0.0,0.0,0.0
1609060387977008553,266,1609060387977008553,0.861068248749,3.95237445831,2.31453132629,0.731056971488,0.680392672273,0.0483979148484,-0.0167080158771,0.0,0.0,0.0,0.0,0.0,0.0
1609060388149026236,267,1609060388149026236,0.641158938408,3.90432453156,2.31816291809,0.71343300756,0.699509956681,0.0385890526638,-0.014493075648,0.0,0.0,0.0,0.0,0.0,0.0
1609060388355165931,268,1609060388355165931,0.434266030788,3.8379547596,2.2634074688,0.695020721365,0.718122469667,0.0349530741603,-0.00495964095799,0.0,0.0,0.0,0.0,0.0,0.0
1609060388561589558,269,1609060388561589558,0.236408367753,3.7437953949,2.23875975609,0.673394698542,0.738776811384,0.0273078540102,-0.00163830571114,0.0,0.0,0.0,0.0,0.0,0.0
1609060388767305578,270,1609060388767305578,0.0484126508236,3.65457129478,2.2183072567,0.649476298272,0.759867823715,0.0278010977128,-0.00292017671046,0.0,0.0,0.0,0.0,0.0,0.0
1609060388973749943,271,1609060388973749943,-0.135611921549,3.55696487427,2.21483707428,0.630089712187,0.776093710564,0.0254128849242,0.00443760061168,0.0,0.0,0.0,0.0,0.0,0.0
1609060389147140231,272,1609060389147140231,-0.300001442432,3.45419311523,2.21204614639,0.612168676713,0.790281871861,0.0254750838,0.00742255779522,0.0,0.0,0.0,0.0,0.0,0.0
1609060389352076668,273,1609060389352076668,-0.453775137663,3.34933900833,2.23777842522,0.594517440438,0.803685292668,0.0249765079483,0.00389068306887,0.0,0.0,0.0,0.0,0.0,0.0
1609060389558116791,274,1609060389558116791,-0.603617072105,3.24204945564,2.17058992386,0.57790822618,0.815467322324,0.0312269717963,0.00774626149583,0.0,0.0,0.0,0.0,0.0,0.0
1609060389764330876,275,1609060389764330876,-0.746146380901,3.11918950081,2.17305350304,0.561100639383,0.826985804761,0.0337174017841,0.011121511757,0.0,0.0,0.0,0.0,0.0,0.0
1609060389970496415,276,1609060389970496415,-0.891492366791,2.98982930183,2.20651936531,0.544097268671,0.838440532733,0.0293829590125,0.0105960848471,0.0,0.0,0.0,0.0,0.0,0.0
1609060390177059809,277,1609060390177059809,-1.0339165926,2.85229659081,2.19588661194,0.525664047198,0.850233041607,0.0259532153036,0.0103689468683,0.0,0.0,0.0,0.0,0.0,0.0
1609060390348930542,278,1609060390348930542,-1.16795134544,2.71382379532,2.1626496315,0.50720620459,0.86139307296,0.0245835525396,0.0118105387963,0.0,0.0,0.0,0.0,0.0,0.0
1609060390555022532,279,1609060390555022532,-1.29942381382,2.56439971924,2.11763143539,0.487898856947,0.872422306539,0.025832896408,0.0129106895872,0.0,0.0,0.0,0.0,0.0,0.0
1609060390761117706,280,1609060390761117706,-1.4305536747,2.43190956116,2.07996201515,0.468617300113,0.882990542887,0.0251842840239,0.00955400675365,0.0,0.0,0.0,0.0,0.0,0.0
1609060390967364022,281,1609060390967364022,-1.55645883083,2.27431368828,2.06884717941,0.448959555766,0.893191065251,0.024050457486,0.00816172386747,0.0,0.0,0.0,0.0,0.0,0.0
1609060391173564062,282,1609060391173564062,-1.67531609535,2.11900568008,2.01689577103,0.429048465873,0.90296913566,0.0231279852051,0.00540835263281,0.0,0.0,0.0,0.0,0.0,0.0
1609060391346877503,283,1609060391346877503,-1.78278052807,1.95623731613,2.01256251335,0.408333363474,0.912564760052,0.022057160414,0.00170430630996,0.0,0.0,0.0,0.0,0.0,0.0
1609060391551889636,284,1609060391551889636,-1.89451372623,1.79431867599,1.92077565193,0.388258720744,0.920936414204,0.0336345939993,-2.90723944646e-05,0.0,0.0,0.0,0.0,0.0,0.0
1609060391758182624,285,1609060391758182624,-1.96800720692,1.60933017731,1.96723866463,0.367646833773,0.929570892425,0.0270643574437,-0.00113231132658,0.0,0.0,0.0,0.0,0.0,0.0
1609060391964345861,286,1609060391964345861,-2.06456184387,1.43981385231,1.95611405373,0.347547363528,0.937358342679,0.0226797428565,0.00746972417364,0.0,0.0,0.0,0.0,0.0,0.0
1609060392170504317,287,1609060392170504317,-2.12437009811,1.23894488811,1.98393619061,0.321021702737,0.946813985858,0.0185419592683,0.0120224083552,0.0,0.0,0.0,0.0,0.0,0.0
1609060392377005804,288,1609060392377005804,-2.18844842911,1.04342544079,1.96889102459,0.29121247094,0.956495565222,0.0144295736602,0.0101645404743,0.0,0.0,0.0,0.0,0.0,0.0
1609060392548677991,289,1609060392548677991,-2.25030088425,0.8588539958,1.95630335808,0.260916040481,0.965162602345,0.0162575112829,0.0109391124027,0.0,0.0,0.0,0.0,0.0,0.0
1609060392754830978,290,1609060392754830978,-2.29008364677,0.672099888325,1.96724116802,0.230578096299,0.972894445541,0.0127483528362,0.0121498494848,0.0,0.0,0.0,0.0,0.0,0.0
1609060392961104097,291,1609060392961104097,-2.337631464,0.484358817339,1.97069048882,0.199784080948,0.979708216945,0.0111132270226,0.011602880451,0.0,0.0,0.0,0.0,0.0,0.0
1609060393167438642,292,1609060393167438642,-2.36197185516,0.302597731352,2.00561141968,0.168127318833,0.985686774158,0.00691631673535,0.0103417829875,0.0,0.0,0.0,0.0,0.0,0.0
1609060393373538699,293,1609060393373538699,-2.38351511955,0.128637969494,1.99099123478,0.13634417779,0.990584689942,0.00686610825691,0.0102515263576,0.0,0.0,0.0,0.0,0.0,0.0
1609060393546804131,294,1609060393546804131,-2.39397215843,-0.0473751313984,2.02993607521,-0.104189055442,-0.994489905477,0.00188851865454,-0.0114412467843,0.0,0.0,0.0,0.0,0.0,0.0
1609060393751584267,295,1609060393751584267,-2.39540624619,-0.207668349147,2.04006505013,-0.0714232029879,-0.997379258467,0.00161987935743,-0.0114331467801,0.0,0.0,0.0,0.0,0.0,0.0
1609060393957853692,296,1609060393957853692,-2.3911087513,-0.359087049961,2.02126121521,0.0387869386443,0.999103289174,0.00975267541204,0.0138951889016,0.0,0.0,0.0,0.0,0.0,0.0
1609060394164215637,297,1609060394164215637,-2.3692817688,-0.505334615707,1.9965056181,0.00592069389989,0.99971212328,0.017769753426,0.0149950596246,0.0,0.0,0.0,0.0,0.0,0.0
1609060394370371601,298,1609060394370371601,-2.34847331047,-0.660419225693,2.05643510818,0.0260209477844,-0.999427221065,-0.0147132217167,-0.0158638323549,0.0,0.0,0.0,0.0,0.0,0.0
1609060394576795885,299,1609060394576795885,-2.31931018829,-0.808124601841,2.04552841187,0.0559549506929,-0.998257901775,-0.0126844836346,-0.0137589575064,0.0,0.0,0.0,0.0,0.0,0.0
1609060394748640149,300,1609060394748640149,-2.29441785812,-0.958164513111,2.0421962738,0.0841717806688,-0.996297173625,-0.0121945814092,-0.0125835349204,0.0,0.0,0.0,0.0,0.0,0.0
1609060394954925070,301,1609060394954925070,-2.24372053146,-1.11268663406,2.02362275124,0.112580758488,-0.993441937395,-0.0167373356299,-0.010888132939,0.0,0.0,0.0,0.0,0.0,0.0
1609060395161303957,302,1609060395161303957,-2.19272589684,-1.27210569382,2.02564001083,0.141565422872,-0.989681116171,-0.0174100292269,-0.0136897853961,0.0,0.0,0.0,0.0,0.0,0.0
1609060395367482627,303,1609060395367482627,-2.1276242733,-1.42751562595,2.01377129555,0.170608408499,-0.985139378357,-0.0120628100508,-0.0157373687095,0.0,0.0,0.0,0.0,0.0,0.0
1609060395573361013,304,1609060395573361013,-2.05715060234,-1.58727884293,1.99608492851,0.199739857764,-0.979655797569,-0.0111126211826,-0.0159692567148,0.0,0.0,0.0,0.0,0.0,0.0
1609060395746825869,305,1609060395746825869,-1.96661603451,-1.74426817894,1.99072444439,0.23274403461,-0.972399187094,-0.00981379288393,-0.0131804689618,0.0,0.0,0.0,0.0,0.0,0.0
1609060395951662764,306,1609060395951662764,-1.86850070953,-1.90586960316,1.95451188087,0.265527273564,-0.964007319572,-0.00919534870066,-0.0100299734297,0.0,0.0,0.0,0.0,0.0,0.0
1609060396158035548,307,1609060396158035548,-1.76227509975,-2.06683158875,1.94465231895,0.297526135843,-0.954617997004,-0.00843579215123,-0.0105600992849,0.0,0.0,0.0,0.0,0.0,0.0
1609060396364027506,308,1609060396364027506,-1.64302229881,-2.23071455956,1.93074524403,0.329548728377,-0.944073152915,-0.00718524916555,-0.00847878320549,0.0,0.0,0.0,0.0,0.0,0.0
1609060396570076826,309,1609060396570076826,-1.52376925945,-2.39242625237,1.97798454762,-0.36049530069,0.932754415849,-0.00173744647262,0.00305273213863,0.0,0.0,0.0,0.0,0.0,0.0
1609060396776465313,310,1609060396776465313,-1.37497425079,-2.53066754341,1.96972751617,-0.388687324717,0.921353751318,-0.00542457897065,-4.97891334095e-05,0.0,0.0,0.0,0.0,0.0,0.0
1609060396948603832,311,1609060396948603832,-1.21299529076,-2.66470694542,1.9549022913,-0.416413347638,0.909156534182,-0.0058299738714,0.000575905756206,0.0,0.0,0.0,0.0,0.0,0.0
1609060397154759345,312,1609060397154759345,-1.03750479221,-2.78136324883,1.94748389721,-0.444220016006,0.89591291867,-0.00290786047999,0.000404830793873,0.0,0.0,0.0,0.0,0.0,0.0
1609060397361516533,313,1609060397361516533,-0.842172503471,-2.88434648514,1.94062650204,-0.471632583604,0.881789075126,-0.00232373905384,0.00230939552476,0.0,0.0,0.0,0.0,0.0,0.0
1609060397567194918,314,1609060397567194918,-0.630393743515,-2.97596168518,1.9354763031,-0.498450583051,0.86691183355,-0.0012922720558,0.00303630379159,0.0,0.0,0.0,0.0,0.0,0.0
1609060397773248004,315,1609060397773248004,-0.408094376326,-3.05457091331,1.94668149948,-0.524682846289,0.851280933973,-0.00248546066851,0.00474391705564,0.0,0.0,0.0,0.0,0.0,0.0
1609060397946692533,316,1609060397946692533,-0.172195583582,-3.13237428665,1.93372309208,-0.550459442237,0.834815403968,-0.00162502052335,0.00866043060302,0.0,0.0,0.0,0.0,0.0,0.0
1609060398151864174,317,1609060398151864174,0.0731212347746,-3.20079874992,1.94384288788,-0.576325960626,0.817137604641,-0.00397408789292,0.0108962752873,0.0,0.0,0.0,0.0,0.0,0.0
1609060398358136675,318,1609060398358136675,0.322661906481,-3.26339650154,1.9522459507,-0.601090675076,0.799075085947,-0.00631098374916,0.0113656869243,0.0,0.0,0.0,0.0,0.0,0.0
1609060398564373480,319,1609060398564373480,0.586260199547,-3.30333614349,1.98623406887,-0.629497457576,0.776892061144,-0.00709383356816,0.0110160683856,0.0,0.0,0.0,0.0,0.0,0.0
1609060398770368566,320,1609060398770368566,0.842941880226,-3.3679497242,1.98525691032,-0.653235464999,0.757049409665,-0.00509691312627,0.0115602798115,0.0,0.0,0.0,0.0,0.0,0.0
1609060398976539194,321,1609060398976539194,1.11417400837,-3.38738679886,2.03906059265,-0.679832046235,0.73311179094,-0.0107209354768,0.0161416368162,0.0,0.0,0.0,0.0,0.0,0.0
1609060399148451217,322,1609060399148451217,1.38595950603,-3.40339303017,2.02517771721,-0.709054831665,0.704714455882,-0.0210717676177,0.013219756927,0.0,0.0,0.0,0.0,0.0,0.0
1609060399354843415,323,1609060399354843415,1.66315150261,-3.42524456978,2.05417776108,-0.73260646676,0.679898405719,-0.0288560447257,0.0139014907654,0.0,0.0,0.0,0.0,0.0,0.0
1609060399561131707,324,1609060399561131707,1.9206097126,-3.41497302055,2.05907201767,-0.755730994416,0.653924618374,-0.0306674138625,0.0176852280082,0.0,0.0,0.0,0.0,0.0,0.0
1609060399767572545,325,1609060399767572545,2.17199254036,-3.38083338737,2.06480026245,-0.78089899303,0.623369444643,-0.0337030986244,0.0217117321564,0.0,0.0,0.0,0.0,0.0,0.0
1609060399973519201,326,1609060399973519201,2.4014005661,-3.33635997772,2.05379295349,-0.805417413902,0.591139133816,-0.0369042968817,0.0222572847995,0.0,0.0,0.0,0.0,0.0,0.0
1609060400146791575,327,1609060400146791575,2.62137985229,-3.29774808884,2.11396670341,-0.825946868795,0.561480199754,-0.0455843326718,0.021767494755,0.0,0.0,0.0,0.0,0.0,0.0
1609060400352534142,328,1609060400352534142,2.81952118874,-3.2249341011,2.02224183083,-0.84688818115,0.528561151727,-0.0542321636065,0.0215032542852,0.0,0.0,0.0,0.0,0.0,0.0
1609060400558141935,329,1609060400558141935,2.96102142334,-3.1335067749,2.16762828827,-0.866914498681,0.49093363994,-0.0637879150404,0.0580905762211,0.0,0.0,0.0,0.0,0.0,0.0
1609060400764502299,330,1609060400764502299,3.08009767532,-3.06620264053,2.12725496292,-0.884930267904,0.453777861992,-0.0706732493328,0.0773909861807,0.0,0.0,0.0,0.0,0.0,0.0
1609060400970505645,331,1609060400970505645,3.13624215126,-3.00884342194,2.12514567375,-0.903908875499,0.417912280104,-0.0603808083957,0.0682072496908,0.0,0.0,0.0,0.0,0.0,0.0
1609060401177011855,332,1609060401177011855,3.14119172096,-2.95070934296,1.94638323784,-0.924643119775,0.377562061685,-0.043063685494,0.0250501421186,0.0,0.0,0.0,0.0,0.0,0.0
1609060401348084739,333,1609060401348084739,3.16639900208,-2.92760109901,1.97527050972,-0.937362819313,0.34727158008,-0.0272853309613,-0.00298418390621,0.0,0.0,0.0,0.0,0.0,0.0
1609060401553933960,334,1609060401553933960,3.15841221809,-2.87912273407,2.03519773483,-0.938033597109,0.345434293491,-0.0276705373844,0.00156873738156,0.0,0.0,0.0,0.0,0.0,0.0
1609060401760660385,335,1609060401760660385,3.13049578667,-2.8090262413,2.22944545746,-0.937374146185,0.345394353076,-0.0373492130315,0.0252485091473,0.0,0.0,0.0,0.0,0.0,0.0
1609060401967840768,336,1609060401967840768,3.09831428528,-2.74737524986,2.13801622391,-0.934193239913,0.343070801978,-0.0576310405294,0.0791459316624,0.0,0.0,0.0,0.0,0.0,0.0
1609060402173514998,337,1609060402173514998,3.00214099884,-2.73669242859,2.27566361427,-0.931845612863,0.341173750963,-0.0664117821015,0.104181095402,0.0,0.0,0.0,0.0,0.0,0.0
1609060402346836275,338,1609060402346836275,2.90836715698,-2.74100470543,2.11284613609,-0.9337286753,0.342431501986,-0.0625800870076,0.0835174238109,0.0,0.0,0.0,0.0,0.0,0.0
1609060402551523760,339,1609060402551523760,2.74736046791,-2.78637981415,2.0449359417,-0.936920432804,0.344223725866,-0.0402757054103,0.0454752317023,0.0,0.0,0.0,0.0,0.0,0.0
1609060402757700042,340,1609060402757700042,2.57334971428,-2.83892798424,2.06271648407,-0.938408264042,0.343446124757,0.00518619577755,0.0375205642336,0.0,0.0,0.0,0.0,0.0,0.0
1609060402963713786,341,1609060402963713786,2.42237186432,-2.91382336617,2.00318455696,-0.93856521543,0.342386120174,0.0240010216361,0.0359309345477,0.0,0.0,0.0,0.0,0.0,0.0
1609060403170068212,342,1609060403170068212,2.29858231544,-3.00181984901,2.065066576,-0.9383812952,0.3426450523,0.0228561208937,0.0388910104018,0.0,0.0,0.0,0.0,0.0,0.0
1609060403376242852,343,1609060403376242852,2.21593594551,-3.11755561829,2.03222608566,-0.93818788276,0.342235808555,0.0296619990849,0.0424065301122,0.0,0.0,0.0,0.0,0.0,0.0
1609060403548537259,344,1609060403548537259,2.15845632553,-3.24800419807,2.02733707428,-0.938278896393,0.341863697179,0.0322794588009,0.0414724206534,0.0,0.0,0.0,0.0,0.0,0.0
1609060403754666836,345,1609060403754666836,2.13513016701,-3.40514063835,1.98768532276,-0.938961374707,0.342799382672,0.00153683262786,0.0289440528293,0.0,0.0,0.0,0.0,0.0,0.0
1609060403960679668,346,1609060403960679668,2.12248063087,-3.56062960625,1.95211482048,-0.938571083634,0.343854783369,-0.0224121429117,0.0185985152861,0.0,0.0,0.0,0.0,0.0,0.0
1609060404166866698,347,1609060404166866698,2.10342240334,-3.71117210388,1.97237443924,-0.938112954854,0.343855958244,-0.0329013524516,0.0249932975354,0.0,0.0,0.0,0.0,0.0,0.0
1609060404372851708,348,1609060404372851708,2.06696462631,-3.85797572136,2.05421185493,-0.937579859288,0.343823811646,-0.0424842493927,0.0304020156711,0.0,0.0,0.0,0.0,0.0,0.0
1609060404546360312,349,1609060404546360312,2.02912425995,-3.99896621704,1.97122383118,-0.937486879367,0.344031767073,-0.0496413805787,0.0172112635566,0.0,0.0,0.0,0.0,0.0,0.0
1609060404751232095,350,1609060404751232095,1.96700644493,-4.1217007637,1.98232507706,-0.93748866629,0.344227542394,-0.0502013620139,0.0101105334961,0.0,0.0,0.0,0.0,0.0,0.0
1609060404957660929,351,1609060404957660929,1.89518404007,-4.23394012451,1.90504467487,-0.93774239371,0.344479057037,-0.0418198109475,0.0149828473608,0.0,0.0,0.0,0.0,0.0,0.0
1609060405163721840,352,1609060405163721840,1.78873240948,-4.32581186295,1.95078992844,-0.937929174275,0.343921980378,-0.038698499665,0.0225601768514,0.0,0.0,0.0,0.0,0.0,0.0
1609060405369907798,353,1609060405369907798,1.68102347851,-4.41533184052,1.95990157127,-0.937963665314,0.343504898342,-0.0383674295068,0.0275043218233,0.0,0.0,0.0,0.0,0.0,0.0
1609060405576164215,354,1609060405576164215,1.57199966908,-4.49918985367,1.841386199,-0.938052408466,0.343577924655,-0.0352172518819,0.0277782978535,0.0,0.0,0.0,0.0,0.0,0.0
1609060405747923914,355,1609060405747923914,1.43084669113,-4.59514522552,1.95038878918,-0.937782730293,0.343116379447,-0.0284026874417,0.0450331907098,0.0,0.0,0.0,0.0,0.0,0.0
1609060405954610240,356,1609060405954610240,1.30789387226,-4.69716215134,1.80554330349,-0.938487611989,0.342384758818,-0.00139836062239,0.0448522425243,0.0,0.0,0.0,0.0,0.0,0.0
1609060406161115597,357,1609060406161115597,1.18100059032,-4.82458543777,1.77829611301,-0.938772114826,0.34224297059,0.0127737925255,0.0375964856191,0.0,0.0,0.0,0.0,0.0,0.0
1609060406367168846,358,1609060406367168846,1.08598828316,-4.95676231384,1.69384551048,-0.93920215745,0.341724804517,0.0191680350238,0.0274963970876,0.0,0.0,0.0,0.0,0.0,0.0
1609060406573260964,359,1609060406573260964,1.0166810751,-5.11255884171,1.74464178085,-0.938561064469,0.34192056219,0.0241989828862,0.0400982124444,0.0,0.0,0.0,0.0,0.0,0.0
1609060406746731262,360,1609060406746731262,0.979176342487,-5.28175497055,1.71892917156,-0.939110595659,0.342190832196,0.0114233883988,0.029090027155,0.0,0.0,0.0,0.0,0.0,0.0
1609060406951523386,361,1609060406951523386,0.958447396755,-5.46156978607,1.73201394081,-0.939222985689,0.342495368762,-9.28063367635e-05,0.0236029006305,0.0,0.0,0.0,0.0,0.0,0.0
1609060407157805684,362,1609060407157805684,0.952103555202,-5.63276767731,1.73652017117,-0.938585045817,0.343671911792,-0.0295981219695,0.0084664035828,0.0,0.0,0.0,0.0,0.0,0.0
1609060407363810153,363,1609060407363810153,0.935476720333,-5.7930727005,1.78652834892,-0.938205229049,0.343725707282,-0.0349866601536,0.0199879951388,0.0,0.0,0.0,0.0,0.0,0.0
1609060407570118170,364,1609060407570118170,0.914117872715,-5.94250869751,1.70240902901,-0.938436080233,0.342932121965,-0.0335060905185,0.0247512613746,0.0,0.0,0.0,0.0,0.0,0.0
