%time,field.header.seq,field.header.stamp,field.pose.pose.position.x,field.pose.pose.position.y,field.pose.pose.position.z,field.pose.pose.orientation.x,field.pose.pose.orientation.y,field.pose.pose.orientation.z,field.pose.pose.orientation.w,field.twist.twist.linear.x,field.twist.twist.linear.y,field.twist.twist.linear.z,field.twist.twist.angular.x,field.twist.twist.angular.y,field.twist.twist.angular.z
1609046844601439017,14,1609046844601439017,-4.16625213623,-1.92798852921,-1.43910932541,-0.271331048403,0.84569362216,-0.0259994911217,0.458809095454,0.0,0.0,0.0,0.0,0.0,0.0
1609046844774305935,15,1609046844774305935,-4.16246366501,-1.93118000031,-1.44278657436,-0.27119876565,0.845808871401,-0.0258428738482,0.458683691056,0.0,0.0,0.0,0.0,0.0,0.0
1609046844979641388,16,1609046844979641388,-4.16294002533,-1.92825877666,-1.43955338001,-0.271267822371,0.845764382304,-0.0258783083211,0.458722891657,0.0,0.0,0.0,0.0,0.0,0.0
1609046845191053095,17,1609046845191053095,-4.16492986679,-1.93037390709,-1.44150745869,-0.271167981654,0.845797330437,-0.0258541305627,0.45872253649,0.0,0.0,0.0,0.0,0.0,0.0
1609046845396756990,18,1609046845396756990,-4.16536712646,-1.93070113659,-1.43968296051,-0.271177271065,0.845758195034,-0.0258892083047,0.458787218745,0.0,0.0,0.0,0.0,0.0,0.0
1609046845572151326,19,1609046845572151326,-4.16138744354,-1.92610704899,-1.43761312962,-0.271383230956,0.845714112081,-0.0259722067903,0.458742004897,0.0,0.0,0.0,0.0,0.0,0.0
1609046845775036629,20,1609046845775036629,-4.16538524628,-1.92895376682,-1.44444715977,-0.271184635702,0.845790540198,-0.0258531934515,0.45872526403,0.0,0.0,0.0,0.0,0.0,0.0
1609046845980954307,21,1609046845980954307,-4.16588115692,-1.92375791073,-1.43871843815,-0.271329367509,0.845734766824,-0.0259247830247,0.458738470305,0.0,0.0,0.0,0.0,0.0,0.0
1609046846187910556,22,1609046846187910556,-4.16281175613,-1.93076908588,-1.43932557106,-0.271186219609,0.84578516788,-0.0258295376086,0.458735565523,0.0,0.0,0.0,0.0,0.0,0.0
1609046846393627254,23,1609046846393627254,-4.16364336014,-1.93111693859,-1.43923521042,-0.271143838273,0.84579505131,-0.025861801631,0.45874057741,0.0,0.0,0.0,0.0,0.0,0.0
1609046846600000371,24,1609046846600000371,-4.16382598877,-1.93326056004,-1.44108843803,-0.271184710016,0.845765506149,-0.025903942294,0.458768511818,0.0,0.0,0.0,0.0,0.0,0.0
1609046846772045015,25,1609046846772045015,-4.16471385956,-1.92840623856,-1.44319665432,-0.271332974807,0.845749484116,-0.0259308703459,0.458708858497,0.0,0.0,0.0,0.0,0.0,0.0
1609046846983413870,26,1609046846983413870,-4.16273021698,-1.92976737022,-1.43733549118,-0.27120748049,0.845777769974,-0.0258920993437,0.458733109264,0.0,0.0,0.0,0.0,0.0,0.0
1609046847187813203,27,1609046847187813203,-4.1640162468,-1.92837691307,-1.43816554546,-0.271285790575,0.845741972948,-0.0258918029695,0.458752819681,0.0,0.0,0.0,0.0,0.0,0.0
1609046847393856510,28,1609046847393856510,-4.16324901581,-1.92621636391,-1.43589878082,-0.271426676511,0.845686612318,-0.02597558617,0.45876680563,0.0,0.0,0.0,0.0,0.0,0.0
1609046847599806493,29,1609046847599806493,-4.16600036621,-1.93479275703,-1.44315254688,-0.271145057998,0.845783079922,-0.0259095848763,0.45875923168,0.0,0.0,0.0,0.0,0.0,0.0
1609046847772095707,30,1609046847772095707,-4.16172170639,-1.93201100826,-1.440782547,-0.271085855993,0.845817640043,-0.0258806994867,0.458732130842,0.0,0.0,0.0,0.0,0.0,0.0
1609046847978022142,31,1609046847978022142,-4.16159915924,-1.93496990204,-1.43754696846,-0.271013336196,0.845827726429,-0.0258612547602,0.458757478752,0.0,0.0,0.0,0.0,0.0,0.0
1609046848184928021,32,1609046848184928021,-4.16167116165,-1.93411672115,-1.43858551979,-0.271096431825,0.84583041146,-0.0257995876166,0.458706900951,0.0,0.0,0.0,0.0,0.0,0.0
1609046848400095453,33,1609046848400095453,-4.16449785233,-1.93785774708,-1.44397270679,-0.270979022006,0.84582537324,-0.0258472451255,0.458782876244,0.0,0.0,0.0,0.0,0.0,0.0
1609046848571957061,34,1609046848571957061,-4.16294384003,-1.93785560131,-1.44589316845,-0.271039568361,0.84585499,-0.0258296634287,0.458693488903,0.0,0.0,0.0,0.0,0.0,0.0
1609046848777867728,35,1609046848777867728,-4.16384267807,-1.93443274498,-1.44459366798,-0.271083203311,0.845845132281,-0.0257882322531,0.458688212358,0.0,0.0,0.0,0.0,0.0,0.0
1609046848982772242,36,1609046848982772242,-4.1634926796,-1.93832862377,-1.44315314293,-0.270933303032,0.845884838062,-0.0257792391048,0.458704062415,0.0,0.0,0.0,0.0,0.0,0.0
1609046849188966696,37,1609046849188966696,-4.16265583038,-1.92981517315,-1.43392777443,-0.27135157861,0.845699532956,-0.0260026671356,0.458785878212,0.0,0.0,0.0,0.0,0.0,0.0
1609046849395053814,38,1609046849395053814,-4.16565275192,-1.93934261799,-1.44416844845,-0.271052163539,0.845826472131,-0.0258607158859,0.458736882164,0.0,0.0,0.0,0.0,0.0,0.0
1609046849601204139,39,1609046849601204139,-4.16248750687,-1.93655622005,-1.43976855278,-0.271035642331,0.845809290798,-0.0259167094281,0.458775161008,0.0,0.0,0.0,0.0,0.0,0.0
1609046849773547428,40,1609046849773547428,-4.16186904907,-1.93380343914,-1.44018876553,-0.271306285409,0.845753277791,-0.0259221688392,0.458718141964,0.0,0.0,0.0,0.0,0.0,0.0
1609046849979423774,41,1609046849979423774,-4.16155958176,-1.93378460407,-1.4386395216,-0.271099740292,0.845811189215,-0.0258617339576,0.458736889436,0.0,0.0,0.0,0.0,0.0,0.0
1609046850185678658,42,1609046850185678658,-4.16310882568,-1.93744778633,-1.44395124912,-0.270942554178,0.845874589292,-0.0257902621123,0.458716877721,0.0,0.0,0.0,0.0,0.0,0.0
1609046850392298635,43,1609046850392298635,-4.16448688507,-1.93939113617,-1.44295489788,-0.270862637951,0.845889319339,-0.0257660310405,0.458738272258,0.0,0.0,0.0,0.0,0.0,0.0
1609046850598149109,44,1609046850598149109,-4.16629552841,-1.93205881119,-1.44335067272,-0.271134328124,0.845777130779,-0.0258749373508,0.458778496425,0.0,0.0,0.0,0.0,0.0,0.0
1609046850771607102,45,1609046850771607102,-4.16225481033,-1.9348051548,-1.44354462624,-0.271077284314,0.845846106082,-0.0258234006531,0.458687936112,0.0,0.0,0.0,0.0,0.0,0.0
1609046850976317372,46,1609046850976317372,-4.16293668747,-1.93683302402,-1.44266414642,-0.271039170636,0.845854662916,-0.0258615478994,0.458692530508,0.0,0.0,0.0,0.0,0.0,0.0
1609046851183229762,47,1609046851183229762,-4.16251850128,-1.93682515621,-1.44000208378,-0.27109366367,0.845815751553,-0.0258551531858,0.458732439443,0.0,0.0,0.0,0.0,0.0,0.0
1609046851388114149,48,1609046851388114149,-4.16122102737,-1.93796634674,-1.44259500504,-0.270994870439,0.845879943181,-0.025766873649,0.458677414031,0.0,0.0,0.0,0.0,0.0,0.0
1609046851594684824,49,1609046851594684824,-4.15986919403,-1.93488419056,-1.4353158474,-0.271134884953,0.845770975837,-0.0259118431691,0.458787431146,0.0,0.0,0.0,0.0,0.0,0.0
1609046851800915878,50,1609046851800915878,-4.16035032272,-1.93512880802,-1.43484854698,-0.271124095416,0.845764377388,-0.0259406557667,0.458804343053,0.0,0.0,0.0,0.0,0.0,0.0
1609046851973047577,51,1609046851973047577,-4.16217422485,-1.93299198151,-1.44272863865,-0.27126155166,0.845771703296,-0.0259230507904,0.458710575345,0.0,0.0,0.0,0.0,0.0,0.0
1609046852179152248,52,1609046852179152248,-4.16297578812,-1.93353295326,-1.4399856329,-0.271147274698,0.845791874832,-0.0258666161775,0.458744131362,0.0,0.0,0.0,0.0,0.0,0.0
1609046852384957428,53,1609046852384957428,-4.16150188446,-1.9293409586,-1.43759357929,-0.271269024732,0.845750413668,-0.0258850667847,0.45874755293,0.0,0.0,0.0,0.0,0.0,0.0
1609046852591594325,54,1609046852591594325,-4.16251945496,-1.93443608284,-1.43873465061,-0.271133613876,0.84579654228,-0.0259167917977,0.458740768187,0.0,0.0,0.0,0.0,0.0,0.0
1609046852797986245,55,1609046852797986245,-4.16786193848,-1.93330204487,-1.44204819202,-0.271300619905,0.845723099263,-0.0259703654078,0.458774403311,0.0,0.0,0.0,0.0,0.0,0.0
1609046852971366306,56,1609046852971366306,-4.16115808487,-1.92824661732,-1.44039368629,-0.27128196925,0.845768589566,-0.0258960117704,0.458705769136,0.0,0.0,0.0,0.0,0.0,0.0
1609046853176168805,57,1609046853176168805,-4.16037273407,-1.92689275742,-1.4367749691,-0.271372840127,0.845722029464,-0.0259212830764,0.458736435881,0.0,0.0,0.0,0.0,0.0,0.0
1609046853381848010,58,1609046853381848010,-4.16256999969,-1.93316221237,-1.43844914436,-0.271119576097,0.845802593253,-0.0258425987319,0.458742093986,0.0,0.0,0.0,0.0,0.0,0.0
1609046853588275469,59,1609046853588275469,-4.16452741623,-1.92957246304,-1.43946886063,-0.27131191941,0.845741461002,-0.0259072355008,0.458737439804,0.0,0.0,0.0,0.0,0.0,0.0
1609046853794645926,60,1609046853794645926,-4.16344070435,-1.93451821804,-1.43867659569,-0.271129447732,0.845789974921,-0.0258693999066,0.458758013602,0.0,0.0,0.0,0.0,0.0,0.0
1609046854001017118,61,1609046854001017118,-4.16461658478,-1.93449831009,-1.44440495968,-0.271141094754,0.84578918793,-0.0258543630109,0.458753428576,0.0,0.0,0.0,0.0,0.0,0.0
1609046854173077576,62,1609046854173077576,-4.16488409042,-1.93015527725,-1.44511163235,-0.271263433206,0.845779007515,-0.0258635197672,0.45869935535,0.0,0.0,0.0,0.0,0.0,0.0
1609046854379001368,63,1609046854379001368,-4.16322278976,-1.93515324593,-1.44422698021,-0.271097540604,0.845851154516,-0.025792768957,0.458668377973,0.0,0.0,0.0,0.0,0.0,0.0
1609046854585064822,64,1609046854585064822,-4.16110134125,-1.93263220787,-1.43639552593,-0.271098283465,0.845792059757,-0.025862076309,0.45877299982,0.0,0.0,0.0,0.0,0.0,0.0
1609046854791400013,65,1609046854791400013,-4.16672563553,-1.93689262867,-1.44536280632,-0.271056005054,0.845831895318,-0.0257980393643,0.45872814188,0.0,0.0,0.0,0.0,0.0,0.0
1609046854998707007,66,1609046854998707007,-4.16292142868,-1.93598878384,-1.44020819664,-0.271055771502,0.845804505093,-0.0258931429464,0.458773422344,0.0,0.0,0.0,0.0,0.0,0.0
1609046855171255843,67,1609046855171255843,-4.16181850433,-1.93621385098,-1.44000685215,-0.271007389847,0.845839445888,-0.0258274891975,0.458741285727,0.0,0.0,0.0,0.0,0.0,0.0
1609046855376131327,68,1609046855376131327,-4.16196155548,-1.93141543865,-1.43700957298,-0.271231189214,0.845759862215,-0.0259680941133,0.458747812585,0.0,0.0,0.0,0.0,0.0,0.0
1609046855582283008,69,1609046855582283008,-4.16398000717,-1.93299591541,-1.44272267818,-0.271147100574,0.845818912047,-0.0258142879303,0.458697329852,0.0,0.0,0.0,0.0,0.0,0.0
1609046855788450363,70,1609046855788450363,-4.16582489014,-1.93566560745,-1.44260025024,-0.271058032069,0.845820169694,-0.025802015771,0.458748340347,0.0,0.0,0.0,0.0,0.0,0.0
1609046855994340223,71,1609046855994340223,-4.1661324501,-1.93144965172,-1.4430450201,-0.271253592146,0.845752311555,-0.0259137675698,0.458751559013,0.0,0.0,0.0,0.0,0.0,0.0
1609046856200646776,72,1609046856200646776,-4.16184425354,-1.93798148632,-1.4410790205,-0.270959225467,0.845847183,-0.0258200487012,0.458755889586,0.0,0.0,0.0,0.0,0.0,0.0
1609046856373088053,73,1609046856373088053,-4.16319894791,-1.93801283836,-1.4471821785,-0.271023313884,0.845875056003,-0.0258011217728,0.4586676957,0.0,0.0,0.0,0.0,0.0,0.0
1609046856578944130,74,1609046856578944130,-4.16416788101,-1.93436288834,-1.44420349598,-0.271185765311,0.845805738469,-0.0258458339849,0.458696987489,0.0,0.0,0.0,0.0,0.0,0.0
1609046856785253194,75,1609046856785253194,-4.16292858124,-1.9309540987,-1.43729948997,-0.271241242212,0.845763751927,-0.0258958730704,0.458738779926,0.0,0.0,0.0,0.0,0.0,0.0
1609046856991461267,76,1609046856991461267,-4.1620349884,-1.93428111076,-1.4397405386,-0.271167843746,0.845787188995,-0.0258489318662,0.458741609374,0.0,0.0,0.0,0.0,0.0,0.0
1609046857197767126,77,1609046857197767126,-4.16246795654,-1.94059967995,-1.44103109837,-0.270925038705,0.84584230199,-0.0258505304768,0.458783362428,0.0,0.0,0.0,0.0,0.0,0.0
1609046857370843306,78,1609046857370843306,-4.16484880447,-1.93416285515,-1.44408774376,-0.27109943117,0.84583321836,-0.0259127624242,0.458693572968,0.0,0.0,0.0,0.0,0.0,0.0
1609046857575943789,79,1609046857575943789,-4.16118860245,-1.93553638458,-1.44058442116,-0.270994241713,0.84587630888,-0.0257947133607,0.458682922939,0.0,0.0,0.0,0.0,0.0,0.0
1609046857782416001,80,1609046857782416001,-4.1628575325,-1.93117952347,-1.43928682804,-0.271266621018,0.845774440062,-0.025894357942,0.458704152026,0.0,0.0,0.0,0.0,0.0,0.0
1609046857988800774,81,1609046857988800774,-4.16038179398,-1.93412017822,-1.43735551834,-0.27120625402,0.845780133185,-0.0258653885662,0.45873098409,0.0,0.0,0.0,0.0,0.0,0.0
1609046858194612318,82,1609046858194612318,-4.16609716415,-1.92743396759,-1.43951892853,-0.271421601439,0.845701477118,-0.0259638073926,0.458743072513,0.0,0.0,0.0,0.0,0.0,0.0
1609046858400810625,83,1609046858400810625,-4.16164779663,-1.93797516823,-1.4395031929,-0.271050601336,0.845800177285,-0.0258965706509,0.458784262207,0.0,0.0,0.0,0.0,0.0,0.0
1609046858572797679,84,1609046858572797679,-4.16295671463,-1.93276810646,-1.44308292866,-0.271130771737,0.845830210824,-0.0258643198953,0.458683328703,0.0,0.0,0.0,0.0,0.0,0.0
1609046858778877714,85,1609046858778877714,-4.16565227509,-1.93167448044,-1.44449996948,-0.271279403968,0.845766150888,-0.0258691424781,0.458713298763,0.0,0.0,0.0,0.0,0.0,0.0
1609046858984929772,86,1609046858984929772,-4.164083004,-1.93735146523,-1.44237267971,-0.270996125251,0.845852901584,-0.0257981200718,0.458724782393,0.0,0.0,0.0,0.0,0.0,0.0
1609046859191257485,87,1609046859191257485,-4.16436052322,-1.93047559261,-1.43975257874,-0.27131311642,0.845743970805,-0.0259303013132,0.458730801428,0.0,0.0,0.0,0.0,0.0,0.0
1609046859397656094,88,1609046859397656094,-4.16182088852,-1.93375337124,-1.43523788452,-0.271137842599,0.845760375918,-0.0259559409972,0.458802730991,0.0,0.0,0.0,0.0,0.0,0.0
1609046859571021477,89,1609046859571021477,-4.1625995636,-1.93473148346,-1.44114601612,-0.271057691769,0.84582913888,-0.0259060819522,0.458726138858,0.0,0.0,0.0,0.0,0.0,0.0
1609046859776108206,90,1609046859776108206,-4.16328954697,-1.93262028694,-1.44253027439,-0.271235647395,0.845784194083,-0.0258669932259,0.458706027085,0.0,0.0,0.0,0.0,0.0,0.0
1609046859982322772,91,1609046859982322772,-4.16311788559,-1.93397033215,-1.44559586048,-0.271034403466,0.845863271232,-0.0257163250571,0.45868763788,0.0,0.0,0.0,0.0,0.0,0.0
1609046860188185901,92,1609046860188185901,-4.16201639175,-1.93406176567,-1.44103765488,-0.27119139461,0.845796904283,-0.0258390221974,0.458710332483,0.0,0.0,0.0,0.0,0.0,0.0
1609046860394419760,93,1609046860394419760,-4.1645283699,-1.93389940262,-1.44180762768,-0.271126508812,0.84579544137,-0.0258646974932,0.45874993733,0.0,0.0,0.0,0.0,0.0,0.0
1609046860600615390,94,1609046860600615390,-4.16689252853,-1.93561530113,-1.44424557686,-0.271073678595,0.845795354485,-0.0259101580919,0.458778751483,0.0,0.0,0.0,0.0,0.0,0.0
1609046860773055733,95,1609046860773055733,-4.16035652161,-1.9336411953,-1.43807041645,-0.271210544062,0.845783797247,-0.0259085491191,0.458719256393,0.0,0.0,0.0,0.0,0.0,0.0
1609046860979003697,96,1609046860979003697,-4.16424751282,-1.93341946602,-1.44333803654,-0.271078224423,0.845843914083,-0.025803926124,0.458692518631,0.0,0.0,0.0,0.0,0.0,0.0
1609046861185218895,97,1609046861185218895,-4.16196107864,-1.93205738068,-1.43759250641,-0.271238722439,0.845768868494,-0.0258995594317,0.458730628318,0.0,0.0,0.0,0.0,0.0,0.0
1609046861391306095,98,1609046861391306095,-4.16220569611,-1.93331980705,-1.43548965454,-0.271063586767,0.845795479594,-0.0258760623681,0.458786407845,0.0,0.0,0.0,0.0,0.0,0.0
1609046861597460114,99,1609046861597460114,-4.16292095184,-1.92850136757,-1.4388999939,-0.271354020124,0.845716269536,-0.0259407183867,0.458757088593,0.0,0.0,0.0,0.0,0.0,0.0
1609046861770995905,100,1609046861770995905,-4.16378211975,-1.93117809296,-1.44051599503,-0.271269363323,0.845768422112,-0.0259560342451,0.458710140466,0.0,0.0,0.0,0.0,0.0,0.0
1609046861975788150,101,1609046861975788150,-4.1625213623,-1.93077862263,-1.44004702568,-0.271276871265,0.845765172752,-0.025928306317,0.458713259682,0.0,0.0,0.0,0.0,0.0,0.0
1609046862182152888,102,1609046862182152888,-4.16410112381,-1.93003368378,-1.43990123272,-0.271259909083,0.845775785243,-0.0258837804478,0.458706237945,0.0,0.0,0.0,0.0,0.0,0.0
1609046862388201178,103,1609046862388201178,-4.16477203369,-1.93202233315,-1.43958497047,-0.271224117324,0.845773385849,-0.0259113831095,0.458730267365,0.0,0.0,0.0,0.0,0.0,0.0
1609046862594545619,104,1609046862594545619,-4.16230726242,-1.93436050415,-1.43482244015,-0.271148770917,0.845760680472,-0.0259324598016,0.458797038926,0.0,0.0,0.0,0.0,0.0,0.0
1609046862800507382,105,1609046862800507382,-4.16270875931,-1.93374109268,-1.44218850136,-0.271186806501,0.845774122636,-0.0258920553975,0.458752058226,0.0,0.0,0.0,0.0,0.0,0.0
1609046862973068432,106,1609046862973068432,-4.16442871094,-1.93182861805,-1.44611310959,-0.271124643471,0.845837194504,-0.0258253604712,0.458676268028,0.0,0.0,0.0,0.0,0.0,0.0
1609046863178802833,107,1609046863178802833,-4.16263866425,-1.93207418919,-1.44055485725,-0.271298804592,0.845760140393,-0.0259005464998,0.458711134856,0.0,0.0,0.0,0.0,0.0,0.0
1609046863384902770,108,1609046863384902770,-4.16385221481,-1.93312263489,-1.43925571442,-0.271207980125,0.845789374215,-0.0258722267938,0.458712539465,0.0,0.0,0.0,0.0,0.0,0.0
1609046863591070667,109,1609046863591070667,-4.16386079788,-1.933791399,-1.44366037846,-0.271107955241,0.845828719827,-0.025796960368,0.458703357472,0.0,0.0,0.0,0.0,0.0,0.0
1609046863797416181,110,1609046863797416181,-4.16484212875,-1.9326890707,-1.44169485569,-0.271157855299,0.845778117335,-0.0258964723343,0.458761557312,0.0,0.0,0.0,0.0,0.0,0.0
1609046863970772109,111,1609046863970772109,-4.16081476212,-1.93145620823,-1.43946874142,-0.271254652085,0.845777499698,-0.0259412926527,0.458702936618,0.0,0.0,0.0,0.0,0.0,0.0
1609046864175596137,112,1609046864175596137,-4.16026163101,-1.93382501602,-1.43940389156,-0.271105853896,0.845829403902,-0.0258449946059,0.458700634109,0.0,0.0,0.0,0.0,0.0,0.0
1609046864382097968,113,1609046864382097968,-4.16529655457,-1.93428254128,-1.44572818279,-0.271173486627,0.845813262542,-0.0258091664934,0.458692437243,0.0,0.0,0.0,0.0,0.0,0.0
1609046864588232566,114,1609046864588232566,-4.16356706619,-1.93754553795,-1.44430482388,-0.271096443877,0.845842357291,-0.0258148612052,0.458684006339,0.0,0.0,0.0,0.0,0.0,0.0
1609046864793971478,115,1609046864793971478,-4.16483068466,-1.93472695351,-1.4432926178,-0.271149703299,0.845790090197,-0.0258636871691,0.458746151385,0.0,0.0,0.0,0.0,0.0,0.0
1609046865000480809,116,1609046865000480809,-4.16358327866,-1.9366517067,-1.44192910194,-0.271059104367,0.845808656714,-0.0258872984857,0.458764128877,0.0,0.0,0.0,0.0,0.0,0.0
1609046865172594035,117,1609046865172594035,-4.16073417664,-1.93331801891,-1.44185364246,-0.271154783724,0.845823083989,-0.0258834715052,0.458681196211,0.0,0.0,0.0,0.0,0.0,0.0
1609046865378703126,118,1609046865378703126,-4.16421318054,-1.9305434227,-1.44215583801,-0.271267572493,0.845773841635,-0.0259104650601,0.458703783198,0.0,0.0,0.0,0.0,0.0,0.0
1609046865584841149,119,1609046865584841149,-4.16484308243,-1.93508589268,-1.441660285,-0.271168408489,0.845808922365,-0.0258885277416,0.458698970149,0.0,0.0,0.0,0.0,0.0,0.0
1609046865790968988,120,1609046865790968988,-4.16360473633,-1.93038010597,-1.43781936169,-0.2712766786,0.845750768548,-0.0258973004392,0.45874168219,0.0,0.0,0.0,0.0,0.0,0.0
1609046865997380601,121,1609046865997380601,-4.1656908989,-1.93090176582,-1.4417732954,-0.271358573286,0.845719159089,-0.0259615937121,0.458747887522,0.0,0.0,0.0,0.0,0.0,0.0
1609046866170928701,122,1609046866170928701,-4.16229057312,-1.92759382725,-1.43873298168,-0.271298958778,0.845752873226,-0.0259360070661,0.458722438881,0.0,0.0,0.0,0.0,0.0,0.0
1609046866376024976,123,1609046866376024976,-4.1659488678,-1.93129277229,-1.44460821152,-0.271229670214,0.845793285601,-0.0258877761635,0.45869162525,0.0,0.0,0.0,0.0,0.0,0.0
1609046866581962182,124,1609046866581962182,-4.16135454178,-1.93032336235,-1.4403963089,-0.27123977062,0.845788325113,-0.0258145161129,0.458698928159,0.0,0.0,0.0,0.0,0.0,0.0
1609046866788161396,125,1609046866788161396,-4.1642947197,-1.93062603474,-1.44022762775,-0.271203652842,0.84578504899,-0.0258837603187,0.458722422105,0.0,0.0,0.0,0.0,0.0,0.0
1609046866994258735,126,1609046866994258735,-4.16593790054,-1.92807090282,-1.43929481506,-0.271408926409,0.84569744644,-0.025986679123,0.458756707045,0.0,0.0,0.0,0.0,0.0,0.0
1609046867200194874,127,1609046867200194874,-4.1657166481,-1.92800748348,-1.43872463703,-0.271393522464,0.845668900958,-0.0260364063625,0.458815618153,0.0,0.0,0.0,0.0,0.0,0.0
1609046867372594907,128,1609046867372594907,-4.1644411087,-1.92840528488,-1.44250667095,-0.271313870035,0.845759886588,-0.0259070121345,0.458702327101,0.0,0.0,0.0,0.0,0.0,0.0
1609046867578359454,129,1609046867578359454,-4.16143369675,-1.93010509014,-1.43777704239,-0.271322868604,0.845750712,-0.0259439637859,0.458711832055,0.0,0.0,0.0,0.0,0.0,0.0
1609046867784730614,130,1609046867784730614,-4.16420221329,-1.92746150494,-1.43963754177,-0.271355158835,0.845727752575,-0.025912918895,0.45873681663,0.0,0.0,0.0,0.0,0.0,0.0
1609046867991075605,131,1609046867991075605,-4.16176605225,-1.9322925806,-1.43577814102,-0.271306125276,0.845729907015,-0.0259615291649,0.458759097754,0.0,0.0,0.0,0.0,0.0,0.0
1609046868197501161,132,1609046868197501161,-4.16512966156,-1.93429911137,-1.44183015823,-0.27120831364,0.845774097751,-0.0259280855578,0.458737354665,0.0,0.0,0.0,0.0,0.0,0.0
1609046868370687050,133,1609046868370687050,-4.16183996201,-1.92916512489,-1.44002604485,-0.271363830742,0.84573608355,-0.0259816057135,0.458712442072,0.0,0.0,0.0,0.0,0.0,0.0
1609046868575545803,134,1609046868575545803,-4.16462278366,-1.92935931683,-1.43962550163,-0.271480932866,0.845686190234,-0.0260229583004,0.458732794096,0.0,0.0,0.0,0.0,0.0,0.0
1609046868781983454,135,1609046868781983454,-4.16426515579,-1.93050718307,-1.44133925438,-0.271242117281,0.845768841597,-0.0258944174417,0.45872896087,0.0,0.0,0.0,0.0,0.0,0.0
1609046868987967063,136,1609046868987967063,-4.16425943375,-1.93145179749,-1.43778717518,-0.271252492222,0.845759887726,-0.025892591281,0.458739437473,0.0,0.0,0.0,0.0,0.0,0.0
1609046869194227296,137,1609046869194227296,-4.16102600098,-1.93002402782,-1.43662381172,-0.271397415929,0.845698583768,-0.0259814182556,0.458761718047,0.0,0.0,0.0,0.0,0.0,0.0
1609046869400494772,138,1609046869400494772,-4.16648435593,-1.92957293987,-1.43915748596,-0.271419595053,0.845668176622,-0.0260906392568,0.458798449227,0.0,0.0,0.0,0.0,0.0,0.0
1609046869572643468,139,1609046869572643468,-4.16517066956,-1.93253064156,-1.44501292706,-0.271185383226,0.845796085623,-0.0258759152158,0.458713316224,0.0,0.0,0.0,0.0,0.0,0.0
1609046869778297942,140,1609046869778297942,-4.16499328613,-1.92820930481,-1.44002771378,-0.271410657083,0.845715612812,-0.0259524797206,0.458724128714,0.0,0.0,0.0,0.0,0.0,0.0
1609046869985094649,141,1609046869985094649,-4.1650595665,-1.93219959736,-1.44195342064,-0.271271239216,0.84575819998,-0.0258909184902,0.458731557973,0.0,0.0,0.0,0.0,0.0,0.0
1609046870191456260,142,1609046870191456260,-4.16744613647,-1.93068063259,-1.44289779663,-0.271297497001,0.845740313421,-0.0259185179373,0.458747447736,0.0,0.0,0.0,0.0,0.0,0.0
1609046870397612787,143,1609046870397612787,-4.16427183151,-1.928997159,-1.43586885929,-0.271392282389,0.845672812611,-0.0260205052449,0.458810043894,0.0,0.0,0.0,0.0,0.0,0.0
1609046870570791018,144,1609046870570791018,-4.16322851181,-1.92688643932,-1.44271206856,-0.27142270746,0.845728706584,-0.0259446827464,0.458693298591,0.0,0.0,0.0,0.0,0.0,0.0
1609046870775317609,145,1609046870775317609,-4.1645693779,-1.93034172058,-1.44287896156,-0.271347678196,0.84576788165,-0.0259417128207,0.458665624876,0.0,0.0,0.0,0.0,0.0,0.0
1609046870982064659,146,1609046870982064659,-4.16450691223,-1.93191730976,-1.44230115414,-0.271215148678,0.84578795485,-0.0258777719052,0.45871060537,0.0,0.0,0.0,0.0,0.0,0.0
1609046871188114200,147,1609046871188114200,-4.16536664963,-1.93064522743,-1.44201683998,-0.271229440257,0.845781655172,-0.0258780036291,0.458713757633,0.0,0.0,0.0,0.0,0.0,0.0
1609046871394364628,148,1609046871394364628,-4.16311645508,-1.93244874477,-1.4413305521,-0.271239085865,0.845772674896,-0.0258732383705,0.458724880767,0.0,0.0,0.0,0.0,0.0,0.0
1609046871600325724,149,1609046871600325724,-4.1646938324,-1.92893779278,-1.43618500233,-0.271410804839,0.845663591436,-0.0260543167413,0.458814164686,0.0,0.0,0.0,0.0,0.0,0.0
1609046871772479632,150,1609046871772479632,-4.16200876236,-1.93450808525,-1.44201409817,-0.271132380772,0.845812557627,-0.0258658995065,0.458714840288,0.0,0.0,0.0,0.0,0.0,0.0
1609046871978432272,151,1609046871978432272,-4.16427850723,-1.93195915222,-1.44118487835,-0.271292748472,0.845766118363,-0.0259189511683,0.458702654916,0.0,0.0,0.0,0.0,0.0,0.0
1609046872184604151,152,1609046872184604151,-4.16376161575,-1.92998766899,-1.4406453371,-0.27129537885,0.845750760202,-0.0258833140675,0.458731428055,0.0,0.0,0.0,0.0,0.0,0.0
1609046872391087055,153,1609046872391087055,-4.16441059113,-1.93461155891,-1.44236040115,-0.271193021315,0.845793398178,-0.0258534682473,0.458715021521,0.0,0.0,0.0,0.0,0.0,0.0
1609046872598186204,154,1609046872598186204,-4.1626830101,-1.93016386032,-1.43894577026,-0.27129239949,0.845732697713,-0.025943142662,0.458763110272,0.0,0.0,0.0,0.0,0.0,0.0
1609046872770752512,155,1609046872770752512,-4.16605520248,-1.9287981987,-1.44565653801,-0.271368027565,0.84575393271,-0.025960379065,0.458678250672,0.0,0.0,0.0,0.0,0.0,0.0
1609046872975540201,156,1609046872975540201,-4.16431188583,-1.9288585186,-1.4429807663,-0.27144857621,0.845718916824,-0.0259425520308,0.458696161085,0.0,0.0,0.0,0.0,0.0,0.0
1609046873181701604,157,1609046873181701604,-4.16341257095,-1.92743325233,-1.4385330677,-0.271329264761,0.84574405,-0.0259251803794,0.458721393654,0.0,0.0,0.0,0.0,0.0,0.0
1609046873387748431,158,1609046873387748431,-4.16402196884,-1.93163859844,-1.43808674812,-0.271219072523,0.845767385838,-0.0258670000501,0.458746816949,0.0,0.0,0.0,0.0,0.0,0.0
1609046873593942529,159,1609046873593942529,-4.1629652977,-1.92908096313,-1.43412768841,-0.271291839203,0.845710063919,-0.0259890090311,0.458802568843,0.0,0.0,0.0,0.0,0.0,0.0
1609046873800377064,160,1609046873800377064,-4.16406011581,-1.93175756931,-1.43790078163,-0.271193173525,0.845746530639,-0.0259694802863,0.458794784886,0.0,0.0,0.0,0.0,0.0,0.0
1609046873972506889,161,1609046873972506889,-4.16032600403,-1.9294989109,-1.43722522259,-0.271278051041,0.845754416229,-0.0259401114629,0.458731726687,0.0,0.0,0.0,0.0,0.0,0.0
1609046874178454997,162,1609046874178454997,-4.16134881973,-1.92800760269,-1.43664622307,-0.271386263414,0.845721128936,-0.025983899211,0.458726612573,0.0,0.0,0.0,0.0,0.0,0.0
1609046874384667759,163,1609046874384667759,-4.16506910324,-1.92919671535,-1.44108510017,-0.271237325182,0.845775449246,-0.0258528285342,0.458721957331,0.0,0.0,0.0,0.0,0.0,0.0
1609046874590837452,164,1609046874590837452,-4.1616101265,-1.92686665058,-1.43606841564,-0.271249724781,0.845758050083,-0.025851270502,0.458746792185,0.0,0.0,0.0,0.0,0.0,0.0
1609046874797785503,165,1609046874797785503,-4.16106462479,-1.91662204266,-1.42326450348,-0.271466295599,0.845535072169,-0.0262747663178,0.459005586829,0.0,0.0,0.0,0.0,0.0,0.0
1609046874970544390,166,1609046874970544390,-4.16387891769,-1.92740249634,-1.43677639961,-0.271774317267,0.845548033888,-0.0262089952961,0.458803151066,0.0,0.0,0.0,0.0,0.0,0.0
1609046875175513916,167,1609046875175513916,-4.1630654335,-1.92632734776,-1.44025576115,-0.271194697396,0.845780096212,-0.0258437784653,0.4587391024,0.0,0.0,0.0,0.0,0.0,0.0
1609046875382138180,168,1609046875382138180,-4.16373682022,-1.92360842228,-1.43969190121,-0.27124417457,0.845791473636,-0.0258025550982,0.458691191366,0.0,0.0,0.0,0.0,0.0,0.0
1609046875588176456,169,1609046875588176456,-4.16015386581,-1.9267206192,-1.43579244614,-0.271800583159,0.845561094459,-0.0262015434973,0.458763945455,0.0,0.0,0.0,0.0,0.0,0.0
1609046875794065719,170,1609046875794065719,-4.16033792496,-1.92861175537,-1.43692970276,-0.2712587856,0.845709865441,-0.0260084880158,0.458821374046,0.0,0.0,0.0,0.0,0.0,0.0
1609046876000116023,171,1609046876000116023,-4.16508150101,-1.93618810177,-1.44355630875,-0.271087434353,0.845808877861,-0.0258582844921,0.458748617644,0.0,0.0,0.0,0.0,0.0,0.0
1609046876172136280,172,1609046876172136280,-4.16155576706,-1.93221271038,-1.43969941139,-0.271419732954,0.845705830628,-0.0261700653382,0.458724431752,0.0,0.0,0.0,0.0,0.0,0.0
1609046876378247764,173,1609046876378247764,-4.15978956223,-1.9341108799,-1.43635749817,-0.271051566249,0.845793667272,-0.0261648039191,0.458780474598,0.0,0.0,0.0,0.0,0.0,0.0
1609046876584642373,174,1609046876584642373,-4.16237974167,-1.92919564247,-1.44418811798,-0.271110864841,0.845709236142,-0.0258263185206,0.458920241589,0.0,0.0,0.0,0.0,0.0,0.0
1609046876790977042,175,1609046876790977042,-4.16335535049,-1.92729973793,-1.43571710587,-0.271306441886,0.845779774236,-0.0259892489872,0.458665397673,0.0,0.0,0.0,0.0,0.0,0.0
1609046876997346673,176,1609046876997346673,-4.15924501419,-1.92936468124,-1.43124032021,-0.271571263253,0.845583215085,-0.0261536517752,0.458861702302,0.0,0.0,0.0,0.0,0.0,0.0
1609046877170508719,177,1609046877170508719,-4.16131687164,-1.93572092056,-1.44394469261,-0.27118069811,0.845824963798,-0.0259171080212,0.458660509637,0.0,0.0,0.0,0.0,0.0,0.0
1609046877375077183,178,1609046877375077183,-4.16012811661,-1.93270862103,-1.4497770071,-0.271268025023,0.846440320546,-0.0256225126739,0.457488720296,0.0,0.0,0.0,0.0,0.0,0.0
1609046877581147954,179,1609046877581147954,-4.12358665466,-1.92054772377,-1.44031751156,-0.272254867771,0.845675424881,-0.0255300150989,0.458321482211,0.0,0.0,0.0,0.0,0.0,0.0
1609046877787448303,180,1609046877787448303,-4.10251283646,-1.90025353432,-1.47238647938,-0.274093282965,0.845767523324,-0.0239309187265,0.457140547154,0.0,0.0,0.0,0.0,0.0,0.0
1609046877993830575,181,1609046877993830575,-4.18450975418,-1.90725696087,-1.39414811134,-0.273526451241,0.845473975501,-0.0274888050595,0.457822457747,0.0,0.0,0.0,0.0,0.0,0.0
1609046878199885156,182,1609046878199885156,-4.24377584457,-1.90702533722,-1.37931084633,-0.272107139471,0.844272395022,-0.0292111938656,0.460769501818,0.0,0.0,0.0,0.0,0.0,0.0
1609046878373291435,183,1609046878373291435,-4.29862594604,-1.87885224819,-1.34976327419,-0.271428676652,0.843960740859,-0.0301870339225,0.461676818092,0.0,0.0,0.0,0.0,0.0,0.0
1609046878578385958,184,1609046878578385958,-4.36302137375,-1.85226690769,-1.34945380688,-0.270446440534,0.844075675834,-0.0318528176494,0.461931135859,0.0,0.0,0.0,0.0,0.0,0.0
1609046878784573191,185,1609046878784573191,-4.80998325348,-1.95138609409,-1.05195212364,-0.268720796951,0.83826071454,-0.0289545412396,0.47357126421,0.0,0.0,0.0,0.0,0.0,0.0
1609046878990589862,186,1609046878990589862,-4.91786050797,-1.94262337685,-1.07618916035,-0.270742809067,0.838296771983,-0.0273688693999,0.472448725694,0.0,0.0,0.0,0.0,0.0,0.0
1609046879196617206,187,1609046879196617206,-4.96205854416,-1.89722073078,-1.09955465794,-0.277059538731,0.844576424492,-0.0192822555622,0.45777381949,0.0,0.0,0.0,0.0,0.0,0.0
1609046879370003105,188,1609046879370003105,-4.98764610291,-1.83176720142,-1.13002729416,-0.279323187562,0.845221719169,-0.0166715130617,0.455303045222,0.0,0.0,0.0,0.0,0.0,0.0
1609046879574859602,189,1609046879574859602,-5.03881645203,-1.78943049908,-1.11117184162,-0.282437815865,0.845954764317,-0.0137595120694,0.452106284767,0.0,0.0,0.0,0.0,0.0,0.0
1609046879781322573,190,1609046879781322573,-5.01176452637,-1.76952409744,-1.10296487808,-0.282919922284,0.846722280366,-0.013782674671,0.450364003208,0.0,0.0,0.0,0.0,0.0,0.0
1609046879987748527,191,1609046879987748527,-5.2210316658,-1.82314515114,-0.964265108109,-0.277772911006,0.843973213918,-0.0216727684833,0.458346719423,0.0,0.0,0.0,0.0,0.0,0.0
1609046880194127340,192,1609046880194127340,-5.28155231476,-1.84648084641,-0.882429122925,-0.279558086163,0.843507047778,-0.0231622065168,0.458046557677,0.0,0.0,0.0,0.0,0.0,0.0
1609046880399975949,193,1609046880399975949,-5.39352607727,-1.88786232471,-0.803857803345,-0.276172226384,0.840744712802,-0.0284636163495,0.464830132215,0.0,0.0,0.0,0.0,0.0,0.0
1609046880572678866,194,1609046880572678866,-5.43430423737,-1.91397440434,-0.754275679588,-0.273118607554,0.839059566265,-0.0329831223593,0.469358481447,0.0,0.0,0.0,0.0,0.0,0.0
1609046880778031926,195,1609046880778031926,-5.51708555222,-1.949213624,-0.700233399868,-0.272715510397,0.839784511091,-0.0342110751116,0.468207035039,0.0,0.0,0.0,0.0,0.0,0.0
1609046880984266712,196,1609046880984266712,-5.58967876434,-1.99769735336,-0.661034226418,-0.273882484561,0.841143328287,-0.0323437093755,0.465209813302,0.0,0.0,0.0,0.0,0.0,0.0
1609046881190550691,197,1609046881190550691,-5.73366498947,-2.06120252609,-0.549799382687,-0.271072756894,0.84014525158,-0.0375319648545,0.468259402822,0.0,0.0,0.0,0.0,0.0,0.0
1609046881397031067,198,1609046881397031067,-5.841152668,-2.11873602867,-0.513477504253,-0.269454979997,0.841181928943,-0.0403663903689,0.467094777002,0.0,0.0,0.0,0.0,0.0,0.0
1609046881570033178,199,1609046881570033178,-5.90580224991,-2.14553403854,-0.476525187492,-0.269300106878,0.841953448355,-0.0418280018558,0.465663249031,0.0,0.0,0.0,0.0,0.0,0.0
1609046881774627461,200,1609046881774627461,-6.02041244507,-2.18673467636,-0.419090658426,-0.269192925037,0.843250596373,-0.042580790273,0.463303871262,0.0,0.0,0.0,0.0,0.0,0.0
1609046881981130032,201,1609046881981130032,-6.08519220352,-2.21236467361,-0.39944127202,-0.272498467642,0.843705541827,-0.0389274998703,0.460858105686,0.0,0.0,0.0,0.0,0.0,0.0
1609046882187800540,202,1609046882187800540,-6.21917104721,-2.23823785782,-0.320312410593,-0.283162862947,0.849728746865,-0.0232192960908,0.444117905616,0.0,0.0,0.0,0.0,0.0,0.0
1609046882393603802,203,1609046882393603802,-6.29562520981,-2.27795243263,-0.259018361568,-0.281986300831,0.856230469242,-0.0284574946078,0.431906564763,0.0,0.0,0.0,0.0,0.0,0.0
1609046882599828779,204,1609046882599828779,-6.4088716507,-2.311170578,-0.143669322133,-0.277845169888,0.855529443012,-0.0351580080431,0.435471409142,0.0,0.0,0.0,0.0,0.0,0.0
1609046882772043963,205,1609046882772043963,-6.41863393784,-2.31505155563,-0.0760668814182,-0.273604132299,0.841727947229,-0.0377390300795,0.463907972825,0.0,0.0,0.0,0.0,0.0,0.0
1609046882978346435,206,1609046882978346435,-6.42467164993,-2.31769800186,-0.0192042663693,-0.27133678591,0.837896697868,-0.0403956873316,0.471883100734,0.0,0.0,0.0,0.0,0.0,0.0
1609046883184346283,207,1609046883184346283,-6.41691350937,-2.30620646477,0.0129109518602,-0.269021369728,0.834125120703,-0.0427933814081,0.479616004893,0.0,0.0,0.0,0.0,0.0,0.0
1609046883390536696,208,1609046883390536696,-6.42018413544,-2.29740214348,0.0234436560422,-0.26840232237,0.833554859712,-0.0444507363398,0.480802060348,0.0,0.0,0.0,0.0,0.0,0.0
1609046883596648336,209,1609046883596648336,-6.39854717255,-2.27890539169,0.0141429128125,-0.270962066297,0.835663775494,-0.0417400885566,0.475923710234,0.0,0.0,0.0,0.0,0.0,0.0
1609046883770052309,210,1609046883770052309,-6.37810325623,-2.25140666962,-0.0303007084876,-0.275314470259,0.83952366626,-0.035546254942,0.467052909225,0.0,0.0,0.0,0.0,0.0,0.0
1609046883975076713,211,1609046883975076713,-6.38124418259,-2.23127698898,-0.0326568558812,-0.279701292109,0.842618219476,-0.0293948122429,0.459235961585,0.0,0.0,0.0,0.0,0.0,0.0
1609046884181233965,212,1609046884181233965,-6.39818382263,-2.22057986259,-0.0356189161539,-0.282464070729,0.843910224128,-0.0257003857941,0.455377944711,0.0,0.0,0.0,0.0,0.0,0.0
1609046884387361917,213,1609046884387361917,-6.40837717056,-2.22136068344,-0.0431186147034,-0.286004134246,0.840021397811,-0.0179468571138,0.460699030534,0.0,0.0,0.0,0.0,0.0,0.0
1609046884593482742,214,1609046884593482742,-6.38287401199,-2.23071932793,-0.0635555684566,-0.286955730583,0.838244507614,-0.0159968248288,0.463407656103,0.0,0.0,0.0,0.0,0.0,0.0
1609046884799394790,215,1609046884799394790,-6.36766147614,-2.26958227158,-0.0677266344428,-0.288419680323,0.838072721448,-0.0137448524834,0.462881497359,0.0,0.0,0.0,0.0,0.0,0.0
1609046884971427804,216,1609046884971427804,-6.34741210938,-2.30990719795,-0.0673926696181,-0.286016777811,0.83621737216,-0.0174373968286,0.467579775546,0.0,0.0,0.0,0.0,0.0,0.0
1609046885177844994,217,1609046885177844994,-6.35249996185,-2.37551999092,-0.0607549808919,-0.283234464106,0.834191377212,-0.0223437089337,0.472656051689,0.0,0.0,0.0,0.0,0.0,0.0
1609046885384090516,218,1609046885384090516,-6.31800937653,-2.44424748421,-0.0838418006897,-0.283968913411,0.83416836209,-0.0208918221005,0.472322275226,0.0,0.0,0.0,0.0,0.0,0.0
1609046885590152956,219,1609046885590152956,-6.31516218185,-2.54037380219,-0.0969082266092,-0.284556125695,0.834241475068,-0.0204612115223,0.4718583595,0.0,0.0,0.0,0.0,0.0,0.0
1609046885796312297,220,1609046885796312297,-6.33852863312,-2.64580321312,-0.104774676263,-0.28298673495,0.83441044702,-0.0236132873846,0.472355931904,0.0,0.0,0.0,0.0,0.0,0.0
1609046885969635964,221,1609046885969635964,-6.28773069382,-2.75538635254,-0.165377482772,-0.278985000339,0.839163907141,-0.0330288859552,0.465704197136,0.0,0.0,0.0,0.0,0.0,0.0
1609046886174525970,222,1609046886174525970,-6.33067178726,-2.85741591454,-0.163807764649,-0.276834789251,0.840840774433,-0.037399922763,0.463627584693,0.0,0.0,0.0,0.0,0.0,0.0
1609046886380737720,223,1609046886380737720,-6.33285474777,-2.98428058624,-0.17845633626,-0.270338781323,0.846895328915,-0.0507229817481,0.455096060516,0.0,0.0,0.0,0.0,0.0,0.0
1609046886587441136,224,1609046886587441136,-6.32452630997,-3.07055091858,-0.209085315466,-0.273994731922,0.848666787335,-0.0463115598807,0.450052008523,0.0,0.0,0.0,0.0,0.0,0.0
1609046886793569151,225,1609046886793569151,-6.30652952194,-3.14699673653,-0.224068254232,-0.280302140489,0.846328464734,-0.033988501755,0.451667600749,0.0,0.0,0.0,0.0,0.0,0.0
1609046886999634117,226,1609046886999634117,-6.30445289612,-3.20552253723,-0.203166797757,-0.281739184624,0.848187042727,-0.0343126429036,0.447240891394,0.0,0.0,0.0,0.0,0.0,0.0
1609046887171450999,227,1609046887171450999,-6.28475856781,-3.28409004211,-0.20579624176,-0.282233220114,0.84827519523,-0.0339203298968,0.446791913357,0.0,0.0,0.0,0.0,0.0,0.0
1609046887377473181,228,1609046887377473181,-6.25702524185,-3.3617837429,-0.203442245722,-0.281839358138,0.845558162678,-0.0321885276623,0.452285162724,0.0,0.0,0.0,0.0,0.0,0.0
1609046887583766906,229,1609046887583766906,-6.21696043015,-3.40918493271,-0.183807656169,-0.285450538648,0.838753427265,-0.0242050096815,0.463060250662,0.0,0.0,0.0,0.0,0.0,0.0
1609046887790081964,230,1609046887790081964,-6.17442274094,-3.50359559059,-0.183908089995,-0.288566979071,0.836744705525,-0.0172509492018,0.465069673402,0.0,0.0,0.0,0.0,0.0,0.0
1609046887996576282,231,1609046887996576282,-6.14860057831,-3.59804606438,-0.146227180958,-0.289617783923,0.83804770367,-0.0171246820484,0.46206528854,0.0,0.0,0.0,0.0,0.0,0.0
1609046888169492290,232,1609046888169492290,-6.11239957809,-3.68568778038,-0.122800923884,-0.289704245521,0.841050407129,-0.0191818462927,0.456440269442,0.0,0.0,0.0,0.0,0.0,0.0
1609046888374461409,233,1609046888374461409,-6.0840754509,-3.80983877182,-0.0891133248806,-0.288390276823,0.839889216097,-0.0204876029879,0.459344545023,0.0,0.0,0.0,0.0,0.0,0.0
1609046888580606803,234,1609046888580606803,-6.05075645447,-3.94238328934,-0.056447789073,-0.284670241329,0.838638000698,-0.0264638297247,0.463625736132,0.0,0.0,0.0,0.0,0.0,0.0
1609046888786798986,235,1609046888786798986,-6.00804662704,-4.07706975937,-0.0293975826353,-0.284987619871,0.83859050329,-0.0255791314495,0.463566319254,0.0,0.0,0.0,0.0,0.0,0.0
1609046888992994784,236,1609046888992994784,-5.93996620178,-4.2075676918,-0.0296743568033,-0.287026325845,0.838092860246,-0.0225470017455,0.463365815085,0.0,0.0,0.0,0.0,0.0,0.0
1609046889199128058,237,1609046889199128058,-5.91973638535,-4.35905885696,0.0247599817812,-0.277592385031,0.839223270188,-0.0402982181392,0.465857085556,0.0,0.0,0.0,0.0,0.0,0.0
1609046889371278979,238,1609046889371278979,-5.87745523453,-4.48996686935,0.0418414846063,-0.274712396697,0.839473308942,-0.0455828483425,0.466626045792,0.0,0.0,0.0,0.0,0.0,0.0
1609046889577658475,239,1609046889577658475,-5.83518457413,-4.62630462646,0.0564352087677,-0.273160522402,0.846150651397,-0.0504834502779,0.454822850557,0.0,0.0,0.0,0.0,0.0,0.0
1609046889784011695,240,1609046889784011695,-5.79226160049,-4.73122024536,0.0665815994143,-0.274535775844,0.848096990053,-0.0499155478038,0.450410969374,0.0,0.0,0.0,0.0,0.0,0.0
1609046889989964644,241,1609046889989964644,-5.75994157791,-4.81166982651,0.0946163982153,-0.274760656189,0.850575512981,-0.0513983336106,0.445405534125,0.0,0.0,0.0,0.0,0.0,0.0
1609046890196354098,242,1609046890196354098,-5.74506807327,-4.88927793503,0.144936323166,-0.272998511743,0.852899035548,-0.0548325792876,0.441620239568,0.0,0.0,0.0,0.0,0.0,0.0
1609046890369444732,243,1609046890369444732,-5.67581796646,-4.93802118301,0.178468540311,-0.272750493564,0.856219993115,-0.0555985717919,0.43520488332,0.0,0.0,0.0,0.0,0.0,0.0
1609046890574526505,244,1609046890574526505,-5.61766290665,-4.9555644989,0.237506702542,-0.271941279071,0.857136200486,-0.0572117701077,0.433696077818,0.0,0.0,0.0,0.0,0.0,0.0
1609046890781027435,245,1609046890781027435,-5.55961179733,-4.95668840408,0.309134840965,-0.270665178127,0.855723669572,-0.0590120746641,0.437029676026,0.0,0.0,0.0,0.0,0.0,0.0
1609046890987001310,246,1609046890987001310,-5.49451446533,-4.92163038254,0.389882534742,-0.269778929627,0.853370955164,-0.0596573956777,0.442061463094,0.0,0.0,0.0,0.0,0.0,0.0
1609046891193064744,247,1609046891193064744,-5.42506027222,-4.8651881218,0.478780001402,-0.26933773673,0.85448452928,-0.0600599061353,0.440120643084,0.0,0.0,0.0,0.0,0.0,0.0
1609046891399244920,248,1609046891399244920,-5.32832479477,-4.77429389954,0.570735633373,-0.270627246552,0.85461462365,-0.0576894304732,0.439393523028,0.0,0.0,0.0,0.0,0.0,0.0
1609046891571414956,249,1609046891571414956,-5.25207328796,-4.66873931885,0.675148248672,-0.270490798611,0.851290047416,-0.0576235715419,0.445891810914,0.0,0.0,0.0,0.0,0.0,0.0
1609046891777624935,250,1609046891777624935,-5.15239143372,-4.54203796387,0.766893684864,-0.271726958703,0.841743978396,-0.051923655081,0.463611333762,0.0,0.0,0.0,0.0,0.0,0.0
1609046891983798624,251,1609046891983798624,-5.08650684357,-4.40820598602,0.855188310146,-0.273934398574,0.834012712499,-0.0466693115213,0.476659958492,0.0,0.0,0.0,0.0,0.0,0.0
1609046892189644316,252,1609046892189644316,-5.022108078,-4.26713418961,0.931251585484,-0.274603692719,0.833643586025,-0.0464842104076,0.476938572153,0.0,0.0,0.0,0.0,0.0,0.0
1609046892395933306,253,1609046892395933306,-5.00906133652,-4.13492202759,1.01299893856,-0.273953536221,0.834086872615,-0.0493169264934,0.476252443231,0.0,0.0,0.0,0.0,0.0,0.0
1609046892569405415,254,1609046892569405415,-4.96472835541,-3.98756670952,1.05151152611,-0.27703175802,0.835340087175,-0.0450095748837,0.472688567639,0.0,0.0,0.0,0.0,0.0,0.0
1609046892774345536,255,1609046892774345536,-4.91381645203,-3.84534478188,1.06112825871,-0.28268900071,0.835576252407,-0.0345752384143,0.469791238934,0.0,0.0,0.0,0.0,0.0,0.0
1609046892980842725,256,1609046892980842725,-4.91151952744,-3.69827198982,1.1180588007,-0.288352138385,0.837027734113,-0.0256367983176,0.464306333347,0.0,0.0,0.0,0.0,0.0,0.0
1609046893187651888,257,1609046893187651888,-4.90522384644,-3.57589411736,1.15875959396,-0.286660897257,0.842651467851,-0.0316748790859,0.454709506991,0.0,0.0,0.0,0.0,0.0,0.0
1609046893393061140,258,1609046893393061140,-4.89638328552,-3.46320438385,1.19710278511,-0.283342565878,0.842342272241,-0.0372133021774,0.456937257071,0.0,0.0,0.0,0.0,0.0,0.0
1609046893599201013,259,1609046893599201013,-4.88177442551,-3.34664011002,1.21795654297,-0.284410533923,0.842335615285,-0.0359275285725,0.456388619608,0.0,0.0,0.0,0.0,0.0,0.0
1609046893771129797,260,1609046893771129797,-4.8777256012,-3.24037408829,1.26037395,-0.286273541098,0.843360790541,-0.0333780283449,0.453515097731,0.0,0.0,0.0,0.0,0.0,0.0
1609046893977174000,261,1609046893977174000,-4.86788320541,-3.13218617439,1.30197012424,-0.289320173279,0.8447125729,-0.0294271804347,0.449320094776,0.0,0.0,0.0,0.0,0.0,0.0
1609046894183556933,262,1609046894183556933,-4.86101198196,-3.02049350739,1.35368585587,-0.284602633134,0.839316158512,-0.0354217428884,0.461838746106,0.0,0.0,0.0,0.0,0.0,0.0
1609046894389720947,263,1609046894389720947,-4.88132858276,-2.92848491669,1.42186892033,-0.277578229854,0.83525347687,-0.0467333163493,0.472353631119,0.0,0.0,0.0,0.0,0.0,0.0
1609046894595901750,264,1609046894595901750,-4.85679149628,-2.81148266792,1.44337534904,-0.276840289361,0.838653490617,-0.0495856105026,0.4664343942,0.0,0.0,0.0,0.0,0.0,0.0
1609046894769493435,265,1609046894769493435,-4.88112306595,-2.71060490608,1.46962606907,-0.278409501792,0.840364407032,-0.0493007737575,0.462434045473,0.0,0.0,0.0,0.0,0.0,0.0
1609046894974465699,266,1609046894974465699,-4.91940736771,-2.59993433952,1.48244380951,-0.277116369957,0.839203167149,-0.0500930245811,0.465226021024,0.0,0.0,0.0,0.0,0.0,0.0
1609046895180540968,267,1609046895180540968,-4.95860004425,-2.47831463814,1.51914143562,-0.276863562224,0.837339986154,-0.0498091195171,0.468750858253,0.0,0.0,0.0,0.0,0.0,0.0
1609046895386811288,268,1609046895386811288,-5.00067043304,-2.35125494003,1.53154122829,-0.276477147354,0.834841764243,-0.0483058235303,0.473567485244,0.0,0.0,0.0,0.0,0.0,0.0
1609046895592780337,269,1609046895592780337,-5.04301166534,-2.21993970871,1.51993656158,-0.276261136895,0.836549662808,-0.0505660673699,0.4704333308,0.0,0.0,0.0,0.0,0.0,0.0
1609046895799031713,270,1609046895799031713,-5.09311342239,-2.08042359352,1.50240159035,-0.276220126309,0.83578831699,-0.0496649256058,0.471904361253,0.0,0.0,0.0,0.0,0.0,0.0
1609046895971296233,271,1609046895971296233,-5.15773677826,-1.9377989769,1.4699409008,-0.277326990886,0.836890948353,-0.0487044122425,0.469394461959,0.0,0.0,0.0,0.0,0.0,0.0
1609046896177464445,272,1609046896177464445,-5.20562553406,-1.78906619549,1.42352175713,-0.27991161851,0.838917181864,-0.0449586711689,0.464592472694,0.0,0.0,0.0,0.0,0.0,0.0
1609046896383397680,273,1609046896383397680,-5.26042461395,-1.63033986092,1.37020766735,-0.286159131976,0.844493538642,-0.0377853786965,0.451127342926,0.0,0.0,0.0,0.0,0.0,0.0
1609046896589899868,274,1609046896589899868,-5.3302488327,-1.49411988258,1.34336531162,-0.288391108611,0.847971612826,-0.0354140146093,0.443306395042,0.0,0.0,0.0,0.0,0.0,0.0
1609046896795866269,275,1609046896795866269,-5.42678260803,-1.35071325302,1.33816814423,-0.285211807851,0.844763720245,-0.0401270175274,0.451019183721,0.0,0.0,0.0,0.0,0.0,0.0
1609046896969116671,276,1609046896969116671,-5.45166921616,-1.19802844524,1.28412771225,-0.284131282911,0.842076785845,-0.0417602768482,0.456543732943,0.0,0.0,0.0,0.0,0.0,0.0
1609046897174033569,277,1609046897174033569,-5.5254945755,-1.06038892269,1.27445983887,-0.282211372169,0.841194658554,-0.0450019319247,0.459045873482,0.0,0.0,0.0,0.0,0.0,0.0
1609046897380114537,278,1609046897380114537,-5.59591388702,-0.919046521187,1.25440192223,-0.28200028173,0.84184727457,-0.04546226719,0.457932516497,0.0,0.0,0.0,0.0,0.0,0.0
1609046897586479458,279,1609046897586479458,-5.68458747864,-0.776709914207,1.24524891376,-0.28135395647,0.840466268194,-0.0464159006871,0.460762376253,0.0,0.0,0.0,0.0,0.0,0.0
1609046897792792228,280,1609046897792792228,-5.77031373978,-0.636495947838,1.23139572144,-0.280889057404,0.839961439938,-0.0484086671232,0.461760454994,0.0,0.0,0.0,0.0,0.0,0.0
1609046897998893106,281,1609046897998893106,-5.83162784576,-0.4769577384,1.20336425304,-0.280371791991,0.836865325109,-0.0481169503806,0.467688833491,0.0,0.0,0.0,0.0,0.0,0.0
1609046898171285605,282,1609046898171285605,-5.89740800858,-0.313561290503,1.15044033527,-0.278645957589,0.833143835753,-0.0496640209893,0.475143414439,0.0,0.0,0.0,0.0,0.0,0.0
1609046898377139866,283,1609046898377139866,-5.99537944794,-0.152062118053,1.09842717648,-0.28169990638,0.833812535282,-0.044568240591,0.472668478623,0.0,0.0,0.0,0.0,0.0,0.0
1609046898583143873,284,1609046898583143873,-6.085896492,-0.00655412161723,1.01249992847,-0.29127193561,0.835307323519,-0.029361398945,0.465360336786,0.0,0.0,0.0,0.0,0.0,0.0
1609046898789720218,285,1609046898789720218,-6.17532873154,0.133044958115,0.951739668846,-0.299126033751,0.83655708264,-0.0164335162064,0.45872192335,0.0,0.0,0.0,0.0,0.0,0.0
1609046898995713004,286,1609046898995713004,-6.24033498764,0.256420701742,0.871346712112,-0.30446245728,0.837964176379,-0.00911146252152,0.45280860467,0.0,0.0,0.0,0.0,0.0,0.0
1609046899169377391,287,1609046899169377391,-6.34455347061,0.339343905449,0.834158420563,-0.300929882759,0.838462221066,-0.016288064501,0.454045161259,0.0,0.0,0.0,0.0,0.0,0.0
1609046899374189157,288,1609046899374189157,-6.42473554611,0.403127789497,0.77409183979,-0.296637714432,0.844932193964,-0.0272721809886,0.44424304398,0.0,0.0,0.0,0.0,0.0,0.0
1609046899580386000,289,1609046899580386000,-6.49699640274,0.452570438385,0.732464432716,-0.296105097472,0.844475431291,-0.028228883079,0.445405598704,0.0,0.0,0.0,0.0,0.0,0.0
1609046899786857442,290,1609046899786857442,-6.53873825073,0.497511833906,0.680651068687,-0.302720702374,0.845383071072,-0.016908076124,0.439774665551,0.0,0.0,0.0,0.0,0.0,0.0
1609046899993048994,291,1609046899993048994,-6.58658790588,0.52505171299,0.669104993343,-0.305709210116,0.842659559455,-0.0117383698611,0.443090235034,0.0,0.0,0.0,0.0,0.0,0.0
1609046900199187449,292,1609046900199187449,-6.61181306839,0.54620206356,0.640294611454,-0.291145934246,0.834506456408,-0.033918550775,0.466564626926,0.0,0.0,0.0,0.0,0.0,0.0
1609046900371257727,293,1609046900371257727,-6.63197803497,0.544581472874,0.596410870552,-0.28608917127,0.83216719846,-0.0427177449652,0.473102456297,0.0,0.0,0.0,0.0,0.0,0.0
1609046900576601051,294,1609046900576601051,-6.64663505554,0.556916534901,0.545234918594,-0.284150168919,0.832401573928,-0.0469198721402,0.47346048074,0.0,0.0,0.0,0.0,0.0,0.0
1609046900783151634,295,1609046900783151634,-6.69664621353,0.565579593182,0.485614269972,-0.284378980214,0.833241980515,-0.046244165697,0.47190875671,0.0,0.0,0.0,0.0,0.0,0.0
1609046900989495563,296,1609046900989495563,-6.74158000946,0.583089411259,0.39943125844,-0.286078893902,0.833030250328,-0.0440032052522,0.471469178665,0.0,0.0,0.0,0.0,0.0,0.0
1609046901195859075,297,1609046901195859075,-6.79463243484,0.596865773201,0.318719506264,-0.287687965932,0.833481395782,-0.0430936789323,0.469773702946,0.0,0.0,0.0,0.0,0.0,0.0
1609046901368924167,298,1609046901368924167,-6.87444877625,0.611913204193,0.228624135256,-0.284909151427,0.840115792514,-0.0509089174077,0.458737956495,0.0,0.0,0.0,0.0,0.0,0.0
1609046901574251618,299,1609046901574251618,-6.96113348007,0.634427785873,0.153734713793,-0.283583389413,0.841826438872,-0.055189947134,0.455919705431,0.0,0.0,0.0,0.0,0.0,0.0
1609046901780411448,300,1609046901780411448,-6.99839925766,0.672048151493,0.030168203637,-0.29025784578,0.8474494472,-0.0455052886345,0.442164094098,0.0,0.0,0.0,0.0,0.0,0.0
1609046901986608345,301,1609046901986608345,-7.05750465393,0.718680083752,-0.03428870067,-0.306108858586,0.856166115693,-0.0221929872031,0.415673453992,0.0,0.0,0.0,0.0,0.0,0.0
1609046902192689442,302,1609046902192689442,-7.1532959938,0.73984926939,-0.0428045243025,-0.299818282512,0.85452420679,-0.032702660637,0.422880495494,0.0,0.0,0.0,0.0,0.0,0.0
1609046902398958920,303,1609046902398958920,-7.16140937805,0.772333502769,-0.0866227969527,-0.291814714369,0.847955826278,-0.0441173024255,0.440305294978,0.0,0.0,0.0,0.0,0.0,0.0
1609046902571432660,304,1609046902571432660,-7.18244314194,0.824067831039,-0.105714820325,-0.285662802662,0.841733711956,-0.0533615066214,0.455009528409,0.0,0.0,0.0,0.0,0.0,0.0
1609046902777120464,305,1609046902777120464,-7.19877624512,0.877940833569,-0.136993736029,-0.285185507771,0.840054773785,-0.0540332862442,0.458320419768,0.0,0.0,0.0,0.0,0.0,0.0
1609046902983414342,306,1609046902983414342,-7.25299072266,0.937875390053,-0.135753005743,-0.284348429918,0.839221729453,-0.0561486248112,0.460108890535,0.0,0.0,0.0,0.0,0.0,0.0
1609046903189714483,307,1609046903189714483,-7.27562189102,1.01412463188,-0.177901864052,-0.287872154508,0.843765716626,-0.0505941445281,0.450143611135,0.0,0.0,0.0,0.0,0.0,0.0
1609046903395641213,308,1609046903395641213,-7.27900457382,1.08377373219,-0.220180541277,-0.306268777436,0.84684884702,-0.0199463019605,0.434336978977,0.0,0.0,0.0,0.0,0.0,0.0
1609046903569037311,309,1609046903569037311,-7.33282279968,1.13756787777,-0.210446685553,-0.312844859168,0.844125434155,-0.00728254933221,0.435347344059,0.0,0.0,0.0,0.0,0.0,0.0
1609046903774067071,310,1609046903774067071,-7.28473091125,1.17481124401,-0.235464543104,-0.325286714601,0.835585072828,0.0180884342942,0.442333525653,0.0,0.0,0.0,0.0,0.0,0.0
1609046903980185518,311,1609046903980185518,-7.27495861053,1.14894115925,-0.205996975303,-0.330071723864,0.833418661325,0.0270347378053,0.442419614181,0.0,0.0,0.0,0.0,0.0,0.0
1609046904186127794,312,1609046904186127794,-7.21705150604,1.06490755081,-0.18525184691,-0.327789086311,0.83427980575,0.021674478247,0.442788592452,0.0,0.0,0.0,0.0,0.0,0.0
1609046904392213382,313,1609046904392213382,-7.17832279205,0.941581189632,-0.125902831554,-0.313568402096,0.832950947903,-0.00412493346767,0.455906306732,0.0,0.0,0.0,0.0,0.0,0.0
1609046904598399110,314,1609046904598399110,-7.11187553406,0.797623038292,-0.0932634621859,-0.294611307168,0.824881497253,-0.0346307411192,0.481222822555,0.0,0.0,0.0,0.0,0.0,0.0
1609046904770098832,315,1609046904770098832,-7.01125955582,0.657456934452,-0.126214757562,-0.290114102455,0.821298431796,-0.0409896461438,0.489512555911,0.0,0.0,0.0,0.0,0.0,0.0
1609046904976843531,316,1609046904976843531,-6.96550130844,0.505482554436,-0.152673229575,-0.292508421427,0.821477749744,-0.0375694841735,0.488059078318,0.0,0.0,0.0,0.0,0.0,0.0
1609046905183276311,317,1609046905183276311,-6.95129728317,0.339274644852,-0.177798956633,-0.292821165151,0.824758576185,-0.0389409025845,0.48219566812,0.0,0.0,0.0,0.0,0.0,0.0
1609046905390186195,318,1609046905390186195,-6.95649051666,0.179007723927,-0.2427328825,-0.29440708988,0.829969971601,-0.0401891396647,0.472079595749,0.0,0.0,0.0,0.0,0.0,0.0
1609046905595345190,319,1609046905595345190,-6.95723009109,0.0088276155293,-0.310717016459,-0.29412248781,0.831164269339,-0.04275899834,0.46992508722,0.0,0.0,0.0,0.0,0.0,0.0
1609046905768554583,320,1609046905768554583,-6.94992303848,-0.148398473859,-0.41224437952,-0.286861539522,0.829514274941,-0.0539335465286,0.476138317479,0.0,0.0,0.0,0.0,0.0,0.0
1609046905973527403,321,1609046905973527403,-6.97974348068,-0.2940800488,-0.512342631817,-0.284520277695,0.828574912601,-0.0588146871313,0.478594461278,0.0,0.0,0.0,0.0,0.0,0.0
1609046906179836216,322,1609046906179836216,-7.03568649292,-0.428978800774,-0.624954104424,-0.284537232615,0.828908444602,-0.0602169429934,0.477831846469,0.0,0.0,0.0,0.0,0.0,0.0
1609046906385796453,323,1609046906385796453,-7.09777832031,-0.55017465353,-0.744479417801,-0.281473071246,0.827972940983,-0.0653593900558,0.480584924124,0.0,0.0,0.0,0.0,0.0,0.0
1609046906591999570,324,1609046906591999570,-7.23194074631,-0.666694223881,-0.871743679047,-0.275007529327,0.826001027248,-0.0753775871432,0.486221535059,0.0,0.0,0.0,0.0,0.0,0.0
1609046906798525857,325,1609046906798525857,-7.27255296707,-0.738814294338,-1.09354186058,-0.283509540901,0.827556068977,-0.0617027310942,0.480589290239,0.0,0.0,0.0,0.0,0.0,0.0
1609046906970996401,326,1609046906970996401,-7.42170190811,-0.816797912121,-1.25541591644,-0.292125496607,0.832018854209,-0.0486646682702,0.469083223463,0.0,0.0,0.0,0.0,0.0,0.0
1609046907176812821,327,1609046907176812821,-7.56849956512,-0.877517282963,-1.4377528429,-0.292826867774,0.837530988556,-0.0513497700467,0.458429350974,0.0,0.0,0.0,0.0,0.0,0.0
1609046907382723702,328,1609046907382723702,-7.68903112411,-0.934180498123,-1.63480877876,-0.293098279876,0.842956946246,-0.0524895269305,0.448064542976,0.0,0.0,0.0,0.0,0.0,0.0
1609046907589057179,329,1609046907589057179,-7.84230566025,-0.99050194025,-1.80138731003,-0.292330717571,0.845742598403,-0.0551929696912,0.442962690199,0.0,0.0,0.0,0.0,0.0,0.0
1609046907795925922,330,1609046907795925922,-7.93661022186,-1.01430213451,-1.98721635342,-0.296088714046,0.85249201685,-0.0515743980147,0.427701900968,0.0,0.0,0.0,0.0,0.0,0.0
1609046907968671575,331,1609046907968671575,-8.04011917114,-1.03311181068,-2.13300323486,-0.300984451603,0.858374151162,-0.0447221588516,0.413040076769,0.0,0.0,0.0,0.0,0.0,0.0
1609046908173414534,332,1609046908173414534,-8.11351680756,-1.03760719299,-2.25620007515,-0.309147508039,0.864289331898,-0.0340976940984,0.395308887198,0.0,0.0,0.0,0.0,0.0,0.0
1609046908379726941,333,1609046908379726941,-8.1950969696,-1.04946208,-2.30205464363,-0.310339240425,0.865488378512,-0.0325450392544,0.391867634454,0.0,0.0,0.0,0.0,0.0,0.0
1609046908585939594,334,1609046908585939594,-8.21799087524,-1.04194736481,-2.31880831718,-0.313978535065,0.865846100907,-0.0252054935804,0.388706434416,0.0,0.0,0.0,0.0,0.0,0.0
1609046908792146698,335,1609046908792146698,-8.17051315308,-1.04074144363,-2.32997131348,-0.320399545918,0.856513699749,-0.0102723872242,0.404503264733,0.0,0.0,0.0,0.0,0.0,0.0
1609046908998276861,336,1609046908998276861,-8.15235042572,-1.06582987309,-2.27065634727,-0.305328833771,0.834818916283,-0.0286994047643,0.457195827245,0.0,0.0,0.0,0.0,0.0,0.0
1609046909170136385,337,1609046909170136385,-8.12320804596,-1.09659564495,-2.22431921959,-0.294395191121,0.829189112207,-0.0465737693568,0.472871834275,0.0,0.0,0.0,0.0,0.0,0.0
1609046909376399142,338,1609046909376399142,-8.08481216431,-1.12575876713,-2.2192928791,-0.291435969593,0.830007706378,-0.0525625596938,0.472640942259,0.0,0.0,0.0,0.0,0.0,0.0
1609046909582694179,339,1609046909582694179,-8.06653881073,-1.14458954334,-2.20732927322,-0.292003709197,0.831367772969,-0.052765529239,0.469869406121,0.0,0.0,0.0,0.0,0.0,0.0
1609046909789050089,340,1609046909789050089,-8.04935741425,-1.15587246418,-2.22612094879,-0.293209612887,0.831682320904,-0.0509622783682,0.468759518505,0.0,0.0,0.0,0.0,0.0,0.0
1609046909995364540,341,1609046909995364540,-8.05699920654,-1.16878759861,-2.24460959435,-0.293372674368,0.831242120296,-0.0507282627019,0.469463155896,0.0,0.0,0.0,0.0,0.0,0.0
1609046910168687573,342,1609046910168687573,-8.06579017639,-1.17864978313,-2.28141522408,-0.293734817046,0.83031157636,-0.05024489569,0.470933109767,0.0,0.0,0.0,0.0,0.0,0.0
1609046910373386018,343,1609046910373386018,-8.10040569305,-1.18334209919,-2.33051228523,-0.293176818128,0.828585211434,-0.0505160418894,0.474280539573,0.0,0.0,0.0,0.0,0.0,0.0
1609046910579475252,344,1609046910579475252,-8.1155796051,-1.17747664452,-2.40501880646,-0.29579831354,0.829505541631,-0.0459031812261,0.471504837794,0.0,0.0,0.0,0.0,0.0,0.0
1609046910785908742,345,1609046910785908742,-8.14957809448,-1.17453670502,-2.48365592957,-0.299214979231,0.831007466363,-0.0407657237335,0.467156443626,0.0,0.0,0.0,0.0,0.0,0.0
1609046910991967121,346,1609046910991967121,-8.23905658722,-1.19171202183,-2.54220271111,-0.299907930255,0.829828103365,-0.0395692230596,0.468908124073,0.0,0.0,0.0,0.0,0.0,0.0
1609046911198266083,347,1609046911198266083,-8.30952358246,-1.21520280838,-2.63581061363,-0.299250181696,0.828397048604,-0.0393228101874,0.471870082986,0.0,0.0,0.0,0.0,0.0,0.0
1609046911370352407,348,1609046911370352407,-8.34549045563,-1.22554731369,-2.74661827087,-0.303701735047,0.831011597674,-0.0323478474712,0.464907084721,0.0,0.0,0.0,0.0,0.0,0.0
1609046911576382023,349,1609046911576382023,-8.42147636414,-1.26447868347,-2.8457736969,-0.308114155798,0.831366138938,-0.0253688277874,0.461792629435,0.0,0.0,0.0,0.0,0.0,0.0
1609046911782707236,350,1609046911782707236,-8.45692253113,-1.31154203415,-2.98323750496,-0.312418399523,0.831698310039,-0.0178395246674,0.458644106119,0.0,0.0,0.0,0.0,0.0,0.0
1609046911989147930,351,1609046911989147930,-8.50374221802,-1.37968564034,-3.09534454346,-0.318190077755,0.836580165994,-0.00994680219714,0.445858454457,0.0,0.0,0.0,0.0,0.0,0.0
1609046912195684108,352,1609046912195684108,-8.61110877991,-1.49206805229,-3.15108060837,-0.309580422774,0.833034215858,-0.0264019136213,0.457730156317,0.0,0.0,0.0,0.0,0.0,0.0
1609046912368831181,353,1609046912368831181,-8.632563591,-1.5977768898,-3.28082251549,-0.298121058442,0.831959429241,-0.0457213302709,0.465700442956,0.0,0.0,0.0,0.0,0.0,0.0
