%time,field.header.seq,field.header.stamp,field.pose.pose.position.x,field.pose.pose.position.y,field.pose.pose.position.z,field.pose.pose.orientation.x,field.pose.pose.orientation.y,field.pose.pose.orientation.z,field.pose.pose.orientation.w,field.twist.twist.linear.x,field.twist.twist.linear.y,field.twist.twist.linear.z,field.twist.twist.angular.x,field.twist.twist.angular.y,field.twist.twist.angular.z
1609045335861435989,23,1609045335861435989,0.0049225082621,-0.00164847937413,0.000457762653241,-0.920341729963,-0.390319819636,-0.0201285295212,0.0147098873858,0.0,0.0,0.0,0.0,0.0,0.0
1609045336033698866,24,1609045336033698866,0.00668350793421,0.00260562286712,-0.0013956805924,-0.920337014065,-0.390337469003,-0.0201417346486,0.0145172779856,0.0,0.0,0.0,0.0,0.0,0.0
1609045336240868301,25,1609045336240868301,0.00858312472701,0.000703393248841,-0.00107623287477,-0.920317084922,-0.390384403218,-0.0201165795603,0.0145534927981,0.0,0.0,0.0,0.0,0.0,0.0
1609045336445773839,26,1609045336445773839,0.00590707361698,-0.00361987971701,9.95053705992e-05,-0.920314322925,-0.390390205531,-0.0201197059332,0.0145681803059,0.0,0.0,0.0,0.0,0.0,0.0
1609045336652543720,27,1609045336652543720,0.00538524659351,-4.66301717097e-05,0.000713405723218,-0.920280791561,-0.390467017421,-0.0201161316062,0.0146326429342,0.0,0.0,0.0,0.0,0.0,0.0
1609045336858505284,28,1609045336858505284,0.00934860855341,0.00132316583768,0.00190444325563,-0.92026621056,-0.390498632043,-0.0201127129182,0.0147105014365,0.0,0.0,0.0,0.0,0.0,0.0
1609045337034416236,29,1609045337034416236,0.00751534290612,0.00120037794113,-0.000795731612016,-0.920339583162,-0.390331839459,-0.0201543790443,0.0144881943343,0.0,0.0,0.0,0.0,0.0,0.0
1609045337237661233,30,1609045337237661233,0.00327994022518,0.000856792845298,-0.00142889248673,-0.920380120088,-0.390236306859,-0.0201114735878,0.0145460642923,0.0,0.0,0.0,0.0,0.0,0.0
1609045337442790301,31,1609045337442790301,0.00472155725583,-0.00255871633999,-0.000865284877364,-0.920303474325,-0.390416664377,-0.0201159587328,0.014549622897,0.0,0.0,0.0,0.0,0.0,0.0
1609045337653517084,32,1609045337653517084,0.00624639587477,-0.00373380561359,5.31681071152e-05,-0.920300776,-0.390422038864,-0.0200973046709,0.0146017672651,0.0,0.0,0.0,0.0,0.0,0.0
1609045337861159235,33,1609045337861159235,0.0103618446738,-0.00164747971576,0.00144162389915,-0.920268848769,-0.390491544063,-0.0201330135111,0.014705841254,0.0,0.0,0.0,0.0,0.0,0.0
1609045338033470182,34,1609045338033470182,0.0145017430186,0.00444325152785,-0.000630848284345,-0.92023478605,-0.390579644762,-0.0201508805142,0.0144714081983,0.0,0.0,0.0,0.0,0.0,0.0
1609045338240126520,35,1609045338240126520,0.00988247152418,-0.00051067059394,0.0016276241513,-0.920273503633,-0.390490405383,-0.0201343118556,0.0144406129025,0.0,0.0,0.0,0.0,0.0,0.0
1609045338446226256,36,1609045338446226256,0.010700517334,-0.000574907055125,0.00298628443852,-0.920310797149,-0.390400195519,-0.0201367509016,0.0144994914696,0.0,0.0,0.0,0.0,0.0,0.0
1609045338655307359,37,1609045338655307359,0.0111689139158,0.00218891887926,0.00091728445841,-0.920280557092,-0.390465761148,-0.0201188533309,0.0146771029371,0.0,0.0,0.0,0.0,0.0,0.0
1609045338861420384,38,1609045338861420384,0.00915568042547,-0.000293239951134,0.00146277551539,-0.920213717976,-0.39062118539,-0.0201357959578,0.0147089256739,0.0,0.0,0.0,0.0,0.0,0.0
1609045339033212980,39,1609045339033212980,0.00987112615258,-0.000978947384283,-0.000755929388106,-0.920270290436,-0.390495529781,-0.0201339814771,0.0145071207574,0.0,0.0,0.0,0.0,0.0,0.0
1609045339239628696,40,1609045339239628696,0.00903907977045,-0.000121283897897,-0.000366523425328,-0.920314768797,-0.390389769858,-0.0201529822878,0.0145055585493,0.0,0.0,0.0,0.0,0.0,0.0
1609045339445812238,41,1609045339445812238,0.00703989947215,-0.00173413031735,0.00181470613461,-0.920302455111,-0.390419267914,-0.0201313181232,0.0145229607626,0.0,0.0,0.0,0.0,0.0,0.0
1609045339651870893,42,1609045339651870893,0.0087862983346,-0.00375476153567,0.00169078353792,-0.920245425184,-0.390551742929,-0.0201234376522,0.0145856360616,0.0,0.0,0.0,0.0,0.0,0.0
1609045339858290330,43,1609045339858290330,0.00694594625384,0.00248098676093,1.03421939457e-06,-0.920239800934,-0.390558689689,-0.0201319661476,0.0147418663851,0.0,0.0,0.0,0.0,0.0,0.0
1609045340032992629,44,1609045340032992629,0.00919410400093,0.00167613220401,-0.00170072284527,-0.920285737982,-0.390457896311,-0.0201520025407,0.0145151117222,0.0,0.0,0.0,0.0,0.0,0.0
1609045340237145459,45,1609045340237145459,0.00472539896145,0.00190326524898,-0.000567851238884,-0.92031858538,-0.390380280258,-0.0201400096973,0.0145367877905,0.0,0.0,0.0,0.0,0.0,0.0
1609045340442773242,46,1609045340442773242,0.00419287430122,0.00200122664683,0.000620158622041,-0.920349227457,-0.390308996726,-0.0201294889369,0.0145255040534,0.0,0.0,0.0,0.0,0.0,0.0
1609045340649161791,47,1609045340649161791,0.00525139737874,0.00234631518833,0.000543866597582,-0.920314912065,-0.390388118131,-0.0200951409587,0.0146207100879,0.0,0.0,0.0,0.0,0.0,0.0
1609045340855360345,48,1609045340855360345,0.00940120499581,0.00294996239245,0.00050901225768,-0.920267541328,-0.390497185503,-0.0201081090929,0.014671892888,0.0,0.0,0.0,0.0,0.0,0.0
1609045341062419645,49,1609045341062419645,0.00251121120527,-0.00197460339405,0.000244194787228,-0.920283305419,-0.390455498642,-0.0201110900594,0.0147880155403,0.0,0.0,0.0,0.0,0.0,0.0
1609045341233565143,50,1609045341233565143,0.0063607133925,0.00399869121611,-0.00219363463111,-0.92034218681,-0.390324783955,-0.0201244425996,0.0145543470842,0.0,0.0,0.0,0.0,0.0,0.0
1609045341439461642,51,1609045341439461642,0.00486605428159,0.000492480932735,-0.000232252205024,-0.92033187095,-0.390350259724,-0.0201101391336,0.014543189133,0.0,0.0,0.0,0.0,0.0,0.0
1609045341645858638,52,1609045341645858638,0.00362237473018,0.00234049418941,-0.000415143702412,-0.920389388944,-0.390211829607,-0.0201191990737,0.014605429936,0.0,0.0,0.0,0.0,0.0,0.0
1609045341852291177,53,1609045341852291177,0.00387976388447,0.00119607127272,-0.0004511422012,-0.92033026532,-0.390349506279,-0.0201125148807,0.0146612560285,0.0,0.0,0.0,0.0,0.0,0.0
1609045342058225368,54,1609045342058225368,-0.00276934914291,-0.0053326995112,-0.000186166755157,-0.920323978878,-0.390363322705,-0.0200876323202,0.0147219977102,0.0,0.0,0.0,0.0,0.0,0.0
1609045342232941724,55,1609045342232941724,-0.0016839831369,-0.00513090193272,-0.00217064470053,-0.920399507414,-0.390191320287,-0.0201214096224,0.0145123808757,0.0,0.0,0.0,0.0,0.0,0.0
1609045342436954943,56,1609045342436954943,0.0130693977699,0.000891819829121,-0.00142008520197,-0.920333284297,-0.390346772051,-0.0201372429137,0.0145098177646,0.0,0.0,0.0,0.0,0.0,0.0
1609045342642505278,57,1609045342642505278,0.00859152432531,6.56400516164e-05,-0.000579501385801,-0.920316903579,-0.390384575761,-0.0201250886757,0.0145485669445,0.0,0.0,0.0,0.0,0.0,0.0
1609045342849233953,58,1609045342849233953,0.0119029050693,0.000307293055812,-0.000408551801229,-0.920241401743,-0.390560106361,-0.0201478319078,0.0145818622623,0.0,0.0,0.0,0.0,0.0,0.0
1609045343033104257,59,1609045343033104257,0.0125621827319,0.0046480987221,-0.00187302916311,-0.920273267368,-0.390486316828,-0.0201700241374,0.0145161931839,0.0,0.0,0.0,0.0,0.0,0.0
1609045343236848341,60,1609045343236848341,0.0125193530694,-0.000316627352731,-0.00118014391046,-0.92026324882,-0.390511600471,-0.0201381501386,0.0145154289714,0.0,0.0,0.0,0.0,0.0,0.0
1609045343443235894,61,1609045343443235894,0.0135214626789,-0.00438577216119,-0.00179765978828,-0.920244075822,-0.390554631371,-0.0201300058298,0.0145843647155,0.0,0.0,0.0,0.0,0.0,0.0
1609045343648859831,62,1609045343648859831,0.0135749131441,0.00205461820588,-0.00145606778096,-0.920258054401,-0.390519118465,-0.0201393099642,0.0146403420885,0.0,0.0,0.0,0.0,0.0,0.0
1609045343854918286,63,1609045343854918286,0.0108652887866,-0.000559738604352,-0.00151939759962,-0.920228101087,-0.390587195283,-0.0201411411213,0.0147043968039,0.0,0.0,0.0,0.0,0.0,0.0
1609045344032966014,64,1609045344032966014,0.00454234797508,-0.00201538973488,-0.00333274155855,-0.920321446332,-0.390371927868,-0.0201331313937,0.0145893924882,0.0,0.0,0.0,0.0,0.0,0.0
1609045344237783511,65,1609045344237783511,0.00782042182982,0.00283397454768,-0.00306808948517,-0.920341544999,-0.3903231365,-0.0201377891642,0.0146205030253,0.0,0.0,0.0,0.0,0.0,0.0
1609045344444251477,66,1609045344444251477,0.0042416062206,0.000769062025938,-0.000406892620958,-0.920289921397,-0.390447255861,-0.0201263438145,0.0145715905077,0.0,0.0,0.0,0.0,0.0,0.0
1609045344650313554,67,1609045344650313554,0.00109758332837,-0.00183683168143,-0.00116822589189,-0.920316086952,-0.390383263099,-0.0200969178227,0.014673850323,0.0,0.0,0.0,0.0,0.0,0.0
1609045344856489234,68,1609045344856489234,0.000466436496936,-0.000184835051186,-0.000392560468754,-0.92033765853,-0.390329803261,-0.0201116374376,0.0147228060088,0.0,0.0,0.0,0.0,0.0,0.0
1609045345064863021,69,1609045345064863021,0.000613317941315,0.000797197921202,-0.000536669336725,-0.920270664845,-0.390483495951,-0.0200942433548,0.0148581358062,0.0,0.0,0.0,0.0,0.0,0.0
1609045345235021969,70,1609045345235021969,0.00964529719204,0.00438668439165,-0.00305175851099,-0.920300235063,-0.390421385555,-0.0201617778069,0.0145644004548,0.0,0.0,0.0,0.0,0.0,0.0
1609045345441191372,71,1609045345441191372,0.0089446855709,0.00724389730021,-0.00365016981959,-0.920300976162,-0.390416949993,-0.0201281571614,0.0146824971618,0.0,0.0,0.0,0.0,0.0,0.0
1609045345647147953,72,1609045345647147953,0.00714805210009,0.00499673141167,-0.00200388021767,-0.920314949241,-0.390384089045,-0.0201442263722,0.0146583549037,0.0,0.0,0.0,0.0,0.0,0.0
1609045345853605062,73,1609045345853605062,0.0127663807943,0.00654559908435,-0.00243046600372,-0.920221482916,-0.390600645494,-0.020135057275,0.0147694816364,0.0,0.0,0.0,0.0,0.0,0.0
1609045346059508582,74,1609045346059508582,0.0106548899785,0.00581928389147,-0.00302118179388,-0.920188968593,-0.390673462306,-0.0201332422086,0.0148714655378,0.0,0.0,0.0,0.0,0.0,0.0
1609045346234099899,75,1609045346234099899,0.0135762747377,0.010824165307,-0.00270989327691,-0.920211731514,-0.390629141723,-0.02015220606,0.0145990208956,0.0,0.0,0.0,0.0,0.0,0.0
1609045346439334769,76,1609045346439334769,0.00263078534044,0.00289971497841,-0.00170578912366,-0.920314804274,-0.390388827809,-0.0201136542429,0.0145830404682,0.0,0.0,0.0,0.0,0.0,0.0
1609045346644128131,77,1609045346644128131,0.00672784261405,0.0076339552179,-0.00255160336383,-0.920324120936,-0.39036412353,-0.0201130063875,0.0146570958131,0.0,0.0,0.0,0.0,0.0,0.0
1609045346850269992,78,1609045346850269992,0.00582897476852,0.00431268662214,-0.00135415140539,-0.920295307096,-0.39042992632,-0.0201265398421,0.0146949911218,0.0,0.0,0.0,0.0,0.0,0.0
1609045347061722613,79,1609045347061722613,0.00849939975888,0.00101036217529,-0.00136622902937,-0.92023964123,-0.390556900822,-0.0201181725272,0.0148178629513,0.0,0.0,0.0,0.0,0.0,0.0
1609045347233131213,80,1609045347233131213,0.00962284393609,0.00272290408611,-0.00239167059772,-0.920320634252,-0.390374740154,-0.0201359633675,0.0145614353379,0.0,0.0,0.0,0.0,0.0,0.0
1609045347443693918,81,1609045347443693918,0.00878793653101,0.00196865084581,-0.000664867460728,-0.920280164017,-0.390469070421,-0.0201408986627,0.0145831739474,0.0,0.0,0.0,0.0,0.0,0.0
1609045347648868296,82,1609045347648868296,0.00518370885402,-0.00241952738725,-0.000378484663088,-0.92031300965,-0.390390462459,-0.020115205044,0.0146502428715,0.0,0.0,0.0,0.0,0.0,0.0
1609045347856669716,83,1609045347856669716,0.00852291379124,0.0067629115656,-0.00062367611099,-0.920232287045,-0.3905763482,-0.0201181750554,0.0147618812999,0.0,0.0,0.0,0.0,0.0,0.0
1609045348061068369,84,1609045348061068369,0.00579761480913,0.00348145351745,0.00060455314815,-0.920233548041,-0.390573307084,-0.0201103521576,0.0147743896168,0.0,0.0,0.0,0.0,0.0,0.0
1609045348232813749,85,1609045348232813749,0.00715668592602,0.00631653843448,-0.00346410670318,-0.920275014764,-0.390480852639,-0.0201494672871,0.0145808055882,0.0,0.0,0.0,0.0,0.0,0.0
1609045348439252345,86,1609045348439252345,0.00687506375834,0.00368983275257,-0.0012343035778,-0.920327792184,-0.390358256072,-0.0201374310571,0.0145489078876,0.0,0.0,0.0,0.0,0.0,0.0
1609045348645901599,87,1609045348645901599,0.00564828841016,0.00430634850636,-0.00169389450457,-0.920258521931,-0.390519547633,-0.0201120706614,0.0146369512857,0.0,0.0,0.0,0.0,0.0,0.0
1609045348851533809,88,1609045348851533809,0.00939819682389,0.00256813433953,0.000122772413306,-0.920248671218,-0.390540250544,-0.0201472190171,0.0146555584319,0.0,0.0,0.0,0.0,0.0,0.0
1609045349057685126,89,1609045349057685126,0.00391920562834,0.0024551176466,-0.00182434835006,-0.920262428342,-0.390503854534,-0.020136100613,0.0147763333811,0.0,0.0,0.0,0.0,0.0,0.0
1609045349233337181,90,1609045349233337181,0.00997324846685,0.00875726342201,-0.00243170233443,-0.920293499513,-0.390438481699,-0.0201417041025,0.0145594820563,0.0,0.0,0.0,0.0,0.0,0.0
1609045349435904172,91,1609045349435904172,0.00843598507345,0.00506759434938,-0.000992677058093,-0.920276557303,-0.39047941377,-0.0201372276333,0.0145388295427,0.0,0.0,0.0,0.0,0.0,0.0
1609045349646875283,92,1609045349646875283,0.00755469873548,0.0008171829395,-0.000651867419947,-0.920306481766,-0.390406678655,-0.0201276236748,0.0146110795819,0.0,0.0,0.0,0.0,0.0,0.0
1609045349859791316,93,1609045349859791316,0.0118910083547,0.00420657172799,-0.000525013718288,-0.920197221802,-0.390657136293,-0.0201529768278,0.0147625328337,0.0,0.0,0.0,0.0,0.0,0.0
1609045350035774272,94,1609045350035774272,0.0095356144011,0.00618697423488,-0.00162264611572,-0.920322267998,-0.390371235203,-0.0201267201713,0.0145649197854,0.0,0.0,0.0,0.0,0.0,0.0
1609045350242171406,95,1609045350242171406,0.0105803338811,0.00685803685337,-0.000377802352887,-0.920305489814,-0.390409948511,-0.0201326225346,0.0145792671595,0.0,0.0,0.0,0.0,0.0,0.0
1609045350448590109,96,1609045350448590109,0.0119635537267,0.00802907999605,-9.36893266044e-05,-0.920230894434,-0.3905830878,-0.0201382599131,0.0146425046111,0.0,0.0,0.0,0.0,0.0,0.0
1609045350654372284,97,1609045350654372284,0.00943321175873,0.00613737013191,-0.000496424385346,-0.920221489544,-0.390602765151,-0.0201254710952,0.0147260127162,0.0,0.0,0.0,0.0,0.0,0.0
1609045350832198524,98,1609045350832198524,0.0101170893759,0.00876715686172,-0.00140153826214,-0.920267110679,-0.39050044021,-0.0201475914284,0.0145576701009,0.0,0.0,0.0,0.0,0.0,0.0
1609045351038373711,99,1609045351038373711,0.0130335679278,0.00955667160451,-0.00116397859529,-0.920225822208,-0.390597302469,-0.0201446374249,0.0145731612618,0.0,0.0,0.0,0.0,0.0,0.0
1609045351246604335,100,1609045351246604335,0.011449017562,0.00458876276389,-0.00099288020283,-0.920245594014,-0.390548766713,-0.020131209429,0.0146438356981,0.0,0.0,0.0,0.0,0.0,0.0
1609045351455860272,101,1609045351455860272,0.0089090578258,0.00602972786874,0.000121256271086,-0.920234636227,-0.390571809754,-0.0201223711559,0.0147297621327,0.0,0.0,0.0,0.0,0.0,0.0
1609045351662139371,102,1609045351662139371,0.0190013162792,0.00946919433773,-0.00158259423915,-0.920150349835,-0.390763550064,-0.020163346259,0.0148533197522,0.0,0.0,0.0,0.0,0.0,0.0
1609045351833963332,103,1609045351833963332,0.0145833352581,0.00809846166521,-0.00117588869762,-0.920233510854,-0.390579931637,-0.02014268294,0.0145559207004,0.0,0.0,0.0,0.0,0.0,0.0
1609045352041355923,104,1609045352041355923,0.00984490476549,0.00234431540594,-0.00127272447571,-0.920296072279,-0.39043210164,-0.0201323073133,0.0145809313201,0.0,0.0,0.0,0.0,0.0,0.0
1609045352247821602,105,1609045352247821602,0.0102620460093,0.00635449960828,-0.000359086465323,-0.920247355988,-0.390544450945,-0.0201297532389,0.0146502104848,0.0,0.0,0.0,0.0,0.0,0.0
1609045352453060502,106,1609045352453060502,0.0119403805584,0.00954664219171,-0.0009537434089,-0.920237198478,-0.390564559609,-0.0201320622254,0.0147486739986,0.0,0.0,0.0,0.0,0.0,0.0
1609045352658162422,107,1609045352658162422,0.0161990039051,0.0100958356634,-0.00213206652552,-0.920146018942,-0.390774485749,-0.0201538738214,0.0148467667208,0.0,0.0,0.0,0.0,0.0,0.0
1609045352831988320,108,1609045352831988320,0.0176534242928,0.00755321932957,-0.00123643886764,-0.920240585594,-0.390561809519,-0.0201676706746,0.0145603101226,0.0,0.0,0.0,0.0,0.0,0.0
1609045353037779825,109,1609045353037779825,0.0107627287507,0.00615980383009,-0.000934495590627,-0.920252392503,-0.390535634493,-0.0201371655352,0.0145583943917,0.0,0.0,0.0,0.0,0.0,0.0
1609045353243667422,110,1609045353243667422,0.00793308205903,0.00550367031246,-0.000437351292931,-0.920252829156,-0.390533710194,-0.0201340050878,0.0145867567072,0.0,0.0,0.0,0.0,0.0,0.0
1609045353449727959,111,1609045353449727959,0.0126239890233,0.00521540502086,-0.000460514012957,-0.920239957032,-0.390562119898,-0.0201238991843,0.0146519850062,0.0,0.0,0.0,0.0,0.0,0.0
1609045353655855956,112,1609045353655855956,0.0106635438278,0.00949429627508,-0.00101261632517,-0.920230990425,-0.390577774212,-0.0201406638558,0.0147743092006,0.0,0.0,0.0,0.0,0.0,0.0
1609045353862223810,113,1609045353862223810,0.00913177896291,0.00816629920155,-0.000817787891719,-0.920211515206,-0.390621791015,-0.0201362890861,0.0148294817532,0.0,0.0,0.0,0.0,0.0,0.0
1609045354034006678,114,1609045354034006678,0.00985436048359,0.00480485940352,-0.00272422423586,-0.920295062228,-0.390434502859,-0.0201424980657,0.0145663031823,0.0,0.0,0.0,0.0,0.0,0.0
1609045354240041135,115,1609045354240041135,0.0133615517989,0.0103722782806,0.00042966712499,-0.920298778296,-0.390425322465,-0.0201493905085,0.0145680577802,0.0,0.0,0.0,0.0,0.0,0.0
1609045354446232118,116,1609045354446232118,0.0117245446891,0.00582845695317,0.000940906058531,-0.920200576775,-0.390656482167,-0.0201256563891,0.0146071694638,0.0,0.0,0.0,0.0,0.0,0.0
1609045354652084637,117,1609045354652084637,0.0105961803347,0.00688723940402,-0.000786788063124,-0.920279294967,-0.390466674216,-0.020135676063,0.0147088453632,0.0,0.0,0.0,0.0,0.0,0.0
1609045354862078669,118,1609045354862078669,0.012232394889,0.00668381759897,-0.00125737115741,-0.920185610842,-0.390681955648,-0.0201377020983,0.0148500533341,0.0,0.0,0.0,0.0,0.0,0.0
1609045355032277603,119,1609045355032277603,0.0102815320715,0.00724604539573,-0.00194050231948,-0.920244292727,-0.390553815124,-0.0201594631613,0.0145518122552,0.0,0.0,0.0,0.0,0.0,0.0
1609045355237012348,120,1609045355237012348,0.012534622103,0.00905523542315,-0.00157614226919,-0.920272153659,-0.39048831199,-0.0201479608892,0.0145636901353,0.0,0.0,0.0,0.0,0.0,0.0
1609045355442709562,121,1609045355442709562,0.0120691452175,0.0074696727097,-0.00142230058555,-0.920260014912,-0.390515712579,-0.0201411163947,0.0146054309959,0.0,0.0,0.0,0.0,0.0,0.0
1609045355649053131,122,1609045355649053131,0.0113350544125,0.0071067828685,-0.00104103249032,-0.920238066072,-0.39056485862,-0.0201420993994,0.0146727228135,0.0,0.0,0.0,0.0,0.0,0.0
1609045355855209619,123,1609045355855209619,0.01221562922,0.00746226962656,-0.00202140910551,-0.920218142076,-0.390606714625,-0.0201326115636,0.0148203723132,0.0,0.0,0.0,0.0,0.0,0.0
1609045356061548102,124,1609045356061548102,0.0063143344596,0.00514845037833,-0.000684198690578,-0.920205448117,-0.390636676356,-0.0201372970444,0.0148124815277,0.0,0.0,0.0,0.0,0.0,0.0
1609045356233950809,125,1609045356233950809,0.0131917791441,0.00778872566298,-0.00324285798706,-0.920246007472,-0.390548006426,-0.0201478076326,0.0146152747113,0.0,0.0,0.0,0.0,0.0,0.0
1609045356439819787,126,1609045356439819787,0.0106095299125,0.00813943706453,-0.000968030421063,-0.920246209097,-0.390549237768,-0.0201423460458,0.0145771539338,0.0,0.0,0.0,0.0,0.0,0.0
1609045356646822884,127,1609045356646822884,0.00946721155196,0.00540541857481,-0.000360737438314,-0.920282422899,-0.390462495845,-0.0201240100084,0.0146398655346,0.0,0.0,0.0,0.0,0.0,0.0
1609045356858776973,128,1609045356858776973,0.0131866671145,0.00756437098607,-0.0015511950478,-0.920199238367,-0.390650654363,-0.0201582724405,0.014801081275,0.0,0.0,0.0,0.0,0.0,0.0
1609045357031393476,129,1609045357031393476,0.0124745042995,0.00932698789984,-0.00278118229471,-0.92022387538,-0.39060080498,-0.020164167425,0.0145752077443,0.0,0.0,0.0,0.0,0.0,0.0
1609045357238911050,130,1609045357238911050,0.0149283772334,0.00841715466231,-0.00183057563845,-0.920237426689,-0.390568154736,-0.0201470885933,0.0146181342335,0.0,0.0,0.0,0.0,0.0,0.0
1609045357443092620,131,1609045357443092620,0.0138462036848,0.00886472314596,-0.00203699083067,-0.920231051393,-0.390582179352,-0.0201421585642,0.0146515075465,0.0,0.0,0.0,0.0,0.0,0.0
1609045357649516562,132,1609045357649516562,0.0111291836947,0.00444227317348,0.00044089849689,-0.920211731739,-0.390629624716,-0.0201157980546,0.0146362472028,0.0,0.0,0.0,0.0,0.0,0.0
1609045357855449276,133,1609045357855449276,0.00987230427563,0.00450627086684,-0.0022759612184,-0.920216911871,-0.390611038883,-0.0201263201416,0.0147913030919,0.0,0.0,0.0,0.0,0.0,0.0
1609045358061515872,134,1609045358061515872,0.0156184099615,0.00909923762083,-0.00119380967226,-0.920174947232,-0.390706238901,-0.0201760145627,0.0148199124823,0.0,0.0,0.0,0.0,0.0,0.0
1609045358233575711,135,1609045358233575711,0.0129536278546,0.00896704755723,-0.00126373860985,-0.920282724638,-0.390463349195,-0.0201460046293,0.0145677096811,0.0,0.0,0.0,0.0,0.0,0.0
1609045358440450801,136,1609045358440450801,0.0106583172455,0.00565887056291,-0.00194099615328,-0.920269522992,-0.390493053814,-0.0201307796708,0.0146264036911,0.0,0.0,0.0,0.0,0.0,0.0
1609045358646140982,137,1609045358646140982,0.0134966727346,0.00848551280797,-0.0011236051796,-0.920241219515,-0.390558277343,-0.0201445936097,0.0146466805953,0.0,0.0,0.0,0.0,0.0,0.0
1609045358852361650,138,1609045358852361650,0.0112814446911,0.00741609465331,-0.000102249803604,-0.920253995761,-0.390527066365,-0.0201318826901,0.0146935707508,0.0,0.0,0.0,0.0,0.0,0.0
1609045359058362411,139,1609045359058362411,0.00858312752098,0.00697315018624,-0.00103530101478,-0.920216203193,-0.390611625727,-0.0201304307147,0.0148142832209,0.0,0.0,0.0,0.0,0.0,0.0
1609045359231533405,140,1609045359231533405,0.010198016651,0.00737706013024,-0.00216086534783,-0.920230174044,-0.390586513384,-0.0201418711957,0.0145913455899,0.0,0.0,0.0,0.0,0.0,0.0
1609045359436570157,141,1609045359436570157,0.0122603392228,0.00915105082095,-0.00185967842117,-0.920250029257,-0.390540135628,-0.0201499269704,0.0145693706178,0.0,0.0,0.0,0.0,0.0,0.0
1609045359642843858,142,1609045359642843858,0.00788490567356,0.00691811740398,0.000749180500861,-0.920312453027,-0.390393864197,-0.0201281911283,0.0145765401597,0.0,0.0,0.0,0.0,0.0,0.0
1609045359849003418,143,1609045359849003418,0.0114121390507,0.00834334082901,-0.000415096204961,-0.920218085534,-0.390611439909,-0.0201268892102,0.0147066787504,0.0,0.0,0.0,0.0,0.0,0.0
1609045360055291793,144,1609045360055291793,0.0139108160511,0.0117757478729,-0.00021908742201,-0.920222529825,-0.390599238403,-0.0201421792445,0.0147317065061,0.0,0.0,0.0,0.0,0.0,0.0
1609045360261337455,145,1609045360261337455,0.0166453365237,0.0135032432154,-0.000856205879245,-0.920162953254,-0.39073432313,-0.0201625847342,0.0148424513964,0.0,0.0,0.0,0.0,0.0,0.0
1609045360433461210,146,1609045360433461210,0.0112453335896,0.00419380096719,-0.000982739729807,-0.920236803217,-0.390573517166,-0.0201417990237,0.0145210752083,0.0,0.0,0.0,0.0,0.0,0.0
1609045360639825522,147,1609045360639825522,0.00557229667902,0.00500084320083,-0.00129596341867,-0.920303976411,-0.390414034158,-0.0201243672298,0.0145767890353,0.0,0.0,0.0,0.0,0.0,0.0
1609045360845783132,148,1609045360845783132,0.0152777656913,0.0079170325771,2.12656595977e-05,-0.920230153591,-0.39058534454,-0.0201447267912,0.014619953348,0.0,0.0,0.0,0.0,0.0,0.0
1609045361051917961,149,1609045361051917961,0.0124515080824,0.00662000151351,-0.00158913480118,-0.920250745461,-0.390533439649,-0.0201181054689,0.0147465191673,0.0,0.0,0.0,0.0,0.0,0.0
1609045361257855997,150,1609045361257855997,0.00986786838621,0.00618404150009,-0.000740879972,-0.920208927632,-0.390629947579,-0.0201346125302,0.0147773793024,0.0,0.0,0.0,0.0,0.0,0.0
1609045361431264984,151,1609045361431264984,0.0166657734662,0.0105381300673,-0.00096299679717,-0.920229373166,-0.390589921354,-0.0201703077009,0.0145111263106,0.0,0.0,0.0,0.0,0.0,0.0
1609045361636012600,152,1609045361636012600,0.00841194577515,0.00825997348875,-0.00163264176808,-0.92030845321,-0.390402419519,-0.0201291839628,0.0145985525306,0.0,0.0,0.0,0.0,0.0,0.0
1609045361842687221,153,1609045361842687221,0.011097365059,0.00870029442012,-0.00113914173562,-0.920299733811,-0.390421600611,-0.020134515925,0.0146278840854,0.0,0.0,0.0,0.0,0.0,0.0
1609045362048807830,154,1609045362048807830,0.00962091423571,0.00488315941766,-0.000532488105819,-0.920274728312,-0.390480061742,-0.0201322384485,0.0146437286338,0.0,0.0,0.0,0.0,0.0,0.0
1609045362255241532,155,1609045362255241532,0.0106193581596,0.00818939134479,-0.00147639634088,-0.920202286006,-0.390645036394,-0.0201334748725,0.0147936324051,0.0,0.0,0.0,0.0,0.0,0.0
1609045362461383926,156,1609045362461383926,0.011814926751,0.00863178726286,-0.00138103996869,-0.920184744462,-0.390683917195,-0.0201461756266,0.0148406372274,0.0,0.0,0.0,0.0,0.0,0.0
1609045362633414294,157,1609045362633414294,0.0107295690104,0.0076836431399,-0.00220800284296,-0.92027589078,-0.390480516797,-0.020125901891,0.0145670492889,0.0,0.0,0.0,0.0,0.0,0.0
1609045362839648578,158,1609045362839648578,0.00563273811713,0.00276375981048,-0.00111065327656,-0.920277626098,-0.390476424141,-0.0201058535181,0.0145947849639,0.0,0.0,0.0,0.0,0.0,0.0
1609045363045731340,159,1609045363045731340,0.0104406746104,0.00713931908831,0.00133598223329,-0.920267489377,-0.390499236452,-0.0201249985929,0.0145972174945,0.0,0.0,0.0,0.0,0.0,0.0
1609045363252388119,160,1609045363252388119,0.0124249598011,0.00875381007791,-0.000137291222927,-0.920210470167,-0.390627958259,-0.0201367781864,0.0147308854668,0.0,0.0,0.0,0.0,0.0,0.0
1609045363457896675,161,1609045363457896675,0.013297191821,0.00969131756574,-0.00103753036819,-0.920194894924,-0.390660932638,-0.0201482055043,0.0148135371099,0.0,0.0,0.0,0.0,0.0,0.0
1609045363631530930,162,1609045363631530930,0.00880177039653,0.0074175237678,-0.00103231542744,-0.920250309637,-0.390540122459,-0.0201567745909,0.0145425169652,0.0,0.0,0.0,0.0,0.0,0.0
1609045363836479125,163,1609045363836479125,0.0116860289127,0.00804247241467,-0.000449109880719,-0.920240413321,-0.390564106611,-0.0201474456851,0.0145375634417,0.0,0.0,0.0,0.0,0.0,0.0
1609045364042618385,164,1609045364042618385,0.00722291786224,0.00555515754968,-0.000328596361214,-0.920269355429,-0.390495214579,-0.0201238627067,0.0145887285159,0.0,0.0,0.0,0.0,0.0,0.0
1609045364248308379,165,1609045364248308379,0.0155102331191,0.0081924488768,-0.00209158007056,-0.920217671299,-0.390610991269,-0.0201328994282,0.0147362576514,0.0,0.0,0.0,0.0,0.0,0.0
1609045364455469109,166,1609045364455469109,0.0115440562367,0.00708697456867,-0.00096991105238,-0.920220554337,-0.390603869417,-0.0201275568338,0.0147522888873,0.0,0.0,0.0,0.0,0.0,0.0
1609045364661556811,167,1609045364661556811,0.0150268897414,0.00667920941487,-0.00139649421908,-0.92015470371,-0.390754581765,-0.0201446701124,0.0148448757265,0.0,0.0,0.0,0.0,0.0,0.0
1609045364833323228,168,1609045364833323228,0.0131389852613,0.010779039003,-0.00174630980473,-0.920261065706,-0.390514048056,-0.020151538194,0.0145693076453,0.0,0.0,0.0,0.0,0.0,0.0
1609045365038935023,169,1609045365038935023,0.00849347468466,0.00742858089507,-0.000160027790116,-0.920253847461,-0.3905315331,-0.0201338216838,0.0145810531984,0.0,0.0,0.0,0.0,0.0,0.0
1609045365245730326,170,1609045365245730326,0.0064133699052,0.00305083789863,-0.000652743328828,-0.920310100397,-0.390397810437,-0.0201041519691,0.0146523645079,0.0,0.0,0.0,0.0,0.0,0.0
1609045365452180860,171,1609045365452180860,0.00950067956001,0.00615568179637,-0.00035956906504,-0.92026365229,-0.390504128483,-0.020119935992,0.0147147575013,0.0,0.0,0.0,0.0,0.0,0.0
1609045365658289450,172,1609045365658289450,0.0140524702147,0.0078265145421,0.000264232221525,-0.920216861515,-0.3906113749,-0.0201312136782,0.0147788977379,0.0,0.0,0.0,0.0,0.0,0.0
1609045365831453296,173,1609045365831453296,0.0121960928664,0.00830360129476,-0.00285542034544,-0.920224656553,-0.390598396464,-0.0201666845354,0.0145869457873,0.0,0.0,0.0,0.0,0.0,0.0
1609045366036532118,174,1609045366036532118,0.00993693806231,0.00403721351177,2.82191467704e-05,-0.920240285001,-0.390566047071,-0.0201312367756,0.0145159926219,0.0,0.0,0.0,0.0,0.0,0.0
1609045366242765271,175,1609045366242765271,0.0103204883635,0.00593065470457,-0.00186952983495,-0.920244953188,-0.390550987625,-0.0201416121971,0.0146105323622,0.0,0.0,0.0,0.0,0.0,0.0
1609045366448918126,176,1609045366448918126,0.0113333081827,0.00538131315261,-0.000686721876264,-0.920222120518,-0.390603044602,-0.0201246300457,0.0146802494348,0.0,0.0,0.0,0.0,0.0,0.0
1609045366655180291,177,1609045366655180291,0.0131947975606,0.00842861458659,0.000423125078669,-0.920173705206,-0.390714460631,-0.0201395340027,0.0147296188124,0.0,0.0,0.0,0.0,0.0,0.0
1609045366861323911,178,1609045366861323911,0.0159305315465,0.0116950757802,-0.000215528125409,-0.920177135348,-0.390702340221,-0.0201435482816,0.0148309942846,0.0,0.0,0.0,0.0,0.0,0.0
1609045367033211989,179,1609045367033211989,0.0145881064236,0.00933061633259,-0.000463281641714,-0.920241579567,-0.390561134141,-0.0201498962069,0.0145402000285,0.0,0.0,0.0,0.0,0.0,0.0
1609045367239051652,180,1609045367239051652,0.00714734941721,0.00596378277987,-0.000748539110646,-0.920284270658,-0.390460755439,-0.0201220819307,0.0145726271115,0.0,0.0,0.0,0.0,0.0,0.0
1609045367445249321,181,1609045367445249321,0.0144227305427,0.00900975707918,-0.000764110591263,-0.920224045541,-0.390599376204,-0.0201493910723,0.0146231103536,0.0,0.0,0.0,0.0,0.0,0.0
1609045367651268078,182,1609045367651268078,0.00962910894305,0.00782574526966,0.000333496718667,-0.920250495683,-0.39053667544,-0.0201147264213,0.014680875731,0.0,0.0,0.0,0.0,0.0,0.0
1609045367857505083,183,1609045367857505083,0.00845688953996,0.00804126169533,-0.000215270571061,-0.920253396598,-0.390524563533,-0.0201470151127,0.0147766406745,0.0,0.0,0.0,0.0,0.0,0.0
1609045368030850506,184,1609045368030850506,0.00938360672444,0.00828915275633,-0.000671698478982,-0.920264496679,-0.390507495429,-0.0201381330351,0.0145467440527,0.0,0.0,0.0,0.0,0.0,0.0
1609045368236078558,185,1609045368236078558,0.0103002656251,0.006613928359,-0.000474431028124,-0.920292297289,-0.390441973819,-0.0201453986783,0.0145366964235,0.0,0.0,0.0,0.0,0.0,0.0
1609045368442005887,186,1609045368442005887,0.00237569352612,0.00282654166222,-0.00194611831103,-0.920291558739,-0.390442483701,-0.0200966566715,0.0146368789197,0.0,0.0,0.0,0.0,0.0,0.0
1609045368648285711,187,1609045368648285711,0.0053881527856,0.00377416610718,-0.000491549319122,-0.92033863299,-0.390330048479,-0.0201167235879,0.014648252883,0.0,0.0,0.0,0.0,0.0,0.0
1609045368854365980,188,1609045368854365980,0.00635063182563,0.00545219425112,-0.000191832747078,-0.920278226389,-0.390468180794,-0.0201369120624,0.0147339944831,0.0,0.0,0.0,0.0,0.0,0.0
1609045369060560645,189,1609045369060560645,0.00215776776895,0.00448518292978,0.000650785048492,-0.920238293589,-0.390560906646,-0.0201263501026,0.0147848315857,0.0,0.0,0.0,0.0,0.0,0.0
1609045369232808423,190,1609045369232808423,0.00330022489652,0.00483555393293,-0.000965347688179,-0.920344639764,-0.390320550156,-0.0201134433782,0.0145279585118,0.0,0.0,0.0,0.0,0.0,0.0
1609045369438898967,191,1609045369438898967,0.00600272975862,0.00570578314364,0.000213657796849,-0.920323731513,-0.390368432571,-0.0201107701124,0.0145695913427,0.0,0.0,0.0,0.0,0.0,0.0
1609045369645150106,192,1609045369645150106,0.00581150315702,0.00860172417015,0.000506779237185,-0.920330233519,-0.390351489286,-0.0201198555624,0.0146002566604,0.0,0.0,0.0,0.0,0.0,0.0
1609045369851355285,193,1609045369851355285,0.00362885114737,0.00354628730565,-0.000215461870539,-0.920247358519,-0.39054342376,-0.0201212791664,0.0146890238632,0.0,0.0,0.0,0.0,0.0,0.0
1609045370057595374,194,1609045370057595374,0.00738557055593,0.0108796944842,-0.000153322922415,-0.920238373829,-0.390560183557,-0.0201382453163,0.0147827408941,0.0,0.0,0.0,0.0,0.0,0.0
1609045370230849152,195,1609045370230849152,0.00821029860526,0.00838211085647,-0.00236517586745,-0.92031989994,-0.390375887268,-0.020154483793,0.0145514671651,0.0,0.0,0.0,0.0,0.0,0.0
1609045370435946415,196,1609045370435946415,0.00350996223278,0.00405101198703,-0.000147297032527,-0.920331001154,-0.390352613284,-0.0201258454422,0.0145133029272,0.0,0.0,0.0,0.0,0.0,0.0
1609045370642008578,197,1609045370642008578,0.00282386504114,0.00525473244488,7.5234718679e-05,-0.920350257565,-0.390306274994,-0.020105383416,0.0145666968702,0.0,0.0,0.0,0.0,0.0,0.0
1609045370848251589,198,1609045370848251589,0.0014776464086,0.00215117027983,0.000199981077458,-0.920326717966,-0.390358256774,-0.0201316761963,0.0146246086983,0.0,0.0,0.0,0.0,0.0,0.0
1609045371054955745,199,1609045371054955745,-0.00125520257279,0.00519035384059,0.000531454163138,-0.920329628684,-0.390349635358,-0.0201052191549,0.0147077158031,0.0,0.0,0.0,0.0,0.0,0.0
1609045371260588517,200,1609045371260588517,0.00097585527692,0.00421359017491,-0.00145988503937,-0.920269837796,-0.390485751482,-0.0201194147851,0.0148159603415,0.0,0.0,0.0,0.0,0.0,0.0
1609045371432804354,201,1609045371432804354,0.000344984990079,0.00481608975679,-0.00224634399638,-0.920365689962,-0.390267709053,-0.020120680623,0.0146037742388,0.0,0.0,0.0,0.0,0.0,0.0
1609045371639040208,202,1609045371639040208,0.00277600833215,0.00336520816199,-0.00173217628617,-0.920367651916,-0.390264526213,-0.0201123647125,0.0145766138905,0.0,0.0,0.0,0.0,0.0,0.0
1609045371844905919,203,1609045371844905919,-0.00347994361073,-0.00378530868329,0.000125302787637,-0.920374890513,-0.390248394036,-0.0200873329306,0.0145859837538,0.0,0.0,0.0,0.0,0.0,0.0
1609045372051243078,204,1609045372051243078,-0.0045123482123,-0.00680836755782,0.000115678434668,-0.920352425874,-0.390299173379,-0.0200808079407,0.0146536207298,0.0,0.0,0.0,0.0,0.0,0.0
1609045372257599194,205,1609045372257599194,-0.0064206700772,-0.00645012268797,0.000529406068381,-0.920334218402,-0.390340617602,-0.0200653848952,0.014714245414,0.0,0.0,0.0,0.0,0.0,0.0
1609045372431073610,206,1609045372431073610,-0.00310348160565,-0.00512517709285,-0.000691468419973,-0.920339265042,-0.390335111624,-0.0200975822415,0.0144991394029,0.0,0.0,0.0,0.0,0.0,0.0
1609045372635845623,207,1609045372635845623,-0.00412591733038,-0.0039527611807,0.000138558170875,-0.920441075775,-0.390094690829,-0.0200932706572,0.0145127077884,0.0,0.0,0.0,0.0,0.0,0.0
1609045372842013188,208,1609045372842013188,-0.00958967860788,-0.00630928110331,0.00189918838441,-0.920388970103,-0.390219502496,-0.0200731338162,0.0144897509556,0.0,0.0,0.0,0.0,0.0,0.0
1609045373048193916,209,1609045373048193916,-0.00422432646155,-0.00498866057023,0.00107388163451,-0.920375626897,-0.390246934766,-0.0200917783302,0.0145724316526,0.0,0.0,0.0,0.0,0.0,0.0
1609045373254409419,210,1609045373254409419,-0.000175104127266,-0.00385643797927,0.000898621743545,-0.920314095966,-0.390387081257,-0.0201071707954,0.0146830935498,0.0,0.0,0.0,0.0,0.0,0.0
1609045373460498893,211,1609045373460498893,-0.00383652793244,-0.00212083780207,-0.000750332314055,-0.920262116717,-0.390506236114,-0.0201071224892,0.0147722617388,0.0,0.0,0.0,0.0,0.0,0.0
1609045373632563937,212,1609045373632563937,0.00560813769698,-0.00354303582571,-0.00329219689593,-0.920266787194,-0.390502908849,-0.0201225106042,0.0145465850102,0.0,0.0,0.0,0.0,0.0,0.0
1609045373838775983,213,1609045373838775983,0.000516630418133,-0.00311717623845,-0.00223554950207,-0.920339817818,-0.39033014262,-0.0201168383327,0.0145709408077,0.0,0.0,0.0,0.0,0.0,0.0
1609045374045190688,214,1609045374045190688,-0.000887309899554,-0.00364170013927,-0.00207698298618,-0.920286683197,-0.390453396242,-0.0200993177585,0.0146486695507,0.0,0.0,0.0,0.0,0.0,0.0
1609045374251546982,215,1609045374251546982,0.00736403930932,-0.00189615797717,-0.00109642348252,-0.920199320376,-0.390657528855,-0.0201242482559,0.0146601691639,0.0,0.0,0.0,0.0,0.0,0.0
1609045374457621354,216,1609045374457621354,0.00298473378643,-0.000346942950273,-0.00125684146769,-0.92023679464,-0.390564892305,-0.0201170333032,0.0147855219711,0.0,0.0,0.0,0.0,0.0,0.0
1609045374630982343,217,1609045374630982343,-0.00399500224739,-0.00256863120012,5.75756203034e-05,-0.920362031977,-0.390281854493,-0.0201198943729,0.014456624743,0.0,0.0,0.0,0.0,0.0,0.0
1609045374835876294,218,1609045374835876294,0.00228463159874,0.000217076099943,-0.000927445362322,-0.920366086781,-0.390270298078,-0.0201023654917,0.0145346359894,0.0,0.0,0.0,0.0,0.0,0.0
1609045375042018598,219,1609045375042018598,0.00219126231968,-0.00212980411015,0.000468664045911,-0.920305962132,-0.390410480173,-0.0201150756962,0.0145594218581,0.0,0.0,0.0,0.0,0.0,0.0
1609045375248273098,220,1609045375248273098,0.00488512311131,0.000225203009904,-0.00164954620413,-0.920307971215,-0.390400225375,-0.0201179164992,0.0147027745902,0.0,0.0,0.0,0.0,0.0,0.0
1609045375454366173,221,1609045375454366173,0.00316187390126,-0.00017201754963,-0.00153129443061,-0.920254708046,-0.39052314304,-0.0201151653575,0.0147758990033,0.0,0.0,0.0,0.0,0.0,0.0
1609045375660591853,222,1609045375660591853,0.00484589766711,0.0019091310678,-0.00294775282964,-0.920201381011,-0.39064425319,-0.0201389702364,0.0148629644427,0.0,0.0,0.0,0.0,0.0,0.0
1609045375832367416,223,1609045375832367416,0.00832959916443,0.00108910270501,-0.00116243492812,-0.920272714913,-0.390489991739,-0.0201395235057,0.0144946931986,0.0,0.0,0.0,0.0,0.0,0.0
1609045376038850677,224,1609045376038850677,0.00571890221909,-0.00083556980826,-0.00108487938996,-0.920294588098,-0.390437085143,-0.020117279694,0.0145618927632,0.0,0.0,0.0,0.0,0.0,0.0
1609045376245121034,225,1609045376245121034,0.000749515427742,0.000513129518367,-0.001024916186,-0.920311374787,-0.390396114466,-0.0201044847517,0.0146170086065,0.0,0.0,0.0,0.0,0.0,0.0
1609045376452311710,226,1609045376452311710,0.00954056624323,0.00426807068288,0.000272922916338,-0.920222116631,-0.390602411016,-0.0201298398737,0.0146902048435,0.0,0.0,0.0,0.0,0.0,0.0
1609045376657546208,227,1609045376657546208,0.00505687436089,0.00106394744944,-0.000365756917745,-0.920226156694,-0.390589474958,-0.0201241217214,0.0147885872716,0.0,0.0,0.0,0.0,0.0,0.0
1609045376830573913,228,1609045376830573913,0.0032691184897,-0.0018428848125,-0.00156343996059,-0.920310510718,-0.390401287935,-0.0201213958172,0.0145095716903,0.0,0.0,0.0,0.0,0.0,0.0
1609045377035521968,229,1609045377035521968,0.0032422230579,-0.00299473945051,-0.00212044152431,-0.920318528327,-0.390381002045,-0.020109587276,0.0145631095535,0.0,0.0,0.0,0.0,0.0,0.0
1609045377241616026,230,1609045377241616026,0.00348724122159,-0.00022480377811,0.000548353535123,-0.92031745131,-0.390384485923,-0.0201059564722,0.0145427809936,0.0,0.0,0.0,0.0,0.0,0.0
1609045377447922137,231,1609045377447922137,0.002390694106,0.00136856141035,7.70590486354e-06,-0.920312507362,-0.390392100111,-0.0200977900751,0.0146620530008,0.0,0.0,0.0,0.0,0.0,0.0
1609045377654294695,232,1609045377654294695,0.00304258987308,-0.00154140172526,-0.00205952860415,-0.920292085939,-0.390436425425,-0.0201082389041,0.0147489995336,0.0,0.0,0.0,0.0,0.0,0.0
1609045377860249692,233,1609045377860249692,0.00528827076778,-0.00102789781522,0.000177426394657,-0.920255178564,-0.390522513373,-0.0201200323921,0.0147565975539,0.0,0.0,0.0,0.0,0.0,0.0
1609045378032251675,234,1609045378032251675,0.00631288392469,-8.59565479914e-05,-0.00168815616053,-0.92032755925,-0.390359782212,-0.0201188960391,0.0145483380349,0.0,0.0,0.0,0.0,0.0,0.0
1609045378238464914,235,1609045378238464914,0.00721820024773,0.00134142849129,-0.000342779443599,-0.920309078143,-0.390404439056,-0.0201157682415,0.0145234472925,0.0,0.0,0.0,0.0,0.0,0.0
1609045378444743399,236,1609045378444743399,0.00682977307588,0.00108002114575,0.000779732887167,-0.92026687169,-0.390502542992,-0.0201100919855,0.014568218372,0.0,0.0,0.0,0.0,0.0,0.0
1609045378650939970,237,1609045378650939970,0.00468652322888,-0.000615449680481,0.0003824410378,-0.920341704959,-0.390322226072,-0.0201110986154,0.0146713891397,0.0,0.0,0.0,0.0,0.0,0.0
1609045378856689252,238,1609045378856689252,0.00301258754916,-0.00334119820036,-0.000499405607115,-0.920278339775,-0.390469120371,-0.0201038423221,0.0147471659136,0.0,0.0,0.0,0.0,0.0,0.0
1609045379030528284,239,1609045379030528284,0.000563344918191,-0.00266346684657,-0.0028444735799,-0.920319500026,-0.390379142525,-0.0201179663261,0.014539958174,0.0,0.0,0.0,0.0,0.0,0.0
1609045379235325031,240,1609045379235325031,0.00536973960698,-0.000175019318704,-0.00253081810661,-0.920340082259,-0.390328822845,-0.0201329252973,0.0145673732258,0.0,0.0,0.0,0.0,0.0,0.0
1609045379441691199,241,1609045379441691199,0.00224790838547,-0.000153325323481,-0.00166299636476,-0.920321919196,-0.390371227225,-0.0201000628058,0.0146238667412,0.0,0.0,0.0,0.0,0.0,0.0
1609045379647646603,242,1609045379647646603,0.00659095915034,1.02484773379e-05,0.000365882471669,-0.920257161715,-0.390523291421,-0.0201148798353,0.0146187133108,0.0,0.0,0.0,0.0,0.0,0.0
1609045379854696534,243,1609045379854696534,0.00655231671408,0.00121313228738,-7.51381521695e-05,-0.920224987627,-0.390594087595,-0.0201291810675,0.0147325134234,0.0,0.0,0.0,0.0,0.0,0.0
1609045380059890193,244,1609045380059890193,0.00261820293963,-0.00225249002688,0.000249659380643,-0.920272805692,-0.390480657266,-0.0201256653958,0.0147572692955,0.0,0.0,0.0,0.0,0.0,0.0
1609045380232078230,245,1609045380232078230,0.00971210096031,0.00153762672562,-0.000687952095177,-0.920277790936,-0.390477896034,-0.0201313363077,0.0145096353241,0.0,0.0,0.0,0.0,0.0,0.0
1609045380438184242,246,1609045380438184242,0.0106006385759,-0.00279892026447,-0.000535600061994,-0.920328277056,-0.390358467946,-0.0201334722688,0.0145179973901,0.0,0.0,0.0,0.0,0.0,0.0
1609045380644600125,247,1609045380644600125,0.0110444286838,-0.0036112642847,0.000734341389034,-0.920288707271,-0.390451684812,-0.0201236948137,0.014533203505,0.0,0.0,0.0,0.0,0.0,0.0
1609045380850655167,248,1609045380850655167,0.00849897693843,-0.0036338630598,-0.000622765626758,-0.920239441918,-0.390563669642,-0.0201168035752,0.0146527713539,0.0,0.0,0.0,0.0,0.0,0.0
1609045381056801207,249,1609045381056801207,0.00904577970505,-0.00248141493648,-0.000398275471525,-0.920220682075,-0.390603909399,-0.0201243896974,0.0147475822812,0.0,0.0,0.0,0.0,0.0,0.0
1609045381230239670,250,1609045381230239670,0.0122672459111,-0.00100688717794,-0.000547639618162,-0.92023945593,-0.390569294294,-0.020149182404,0.0144561596987,0.0,0.0,0.0,0.0,0.0,0.0
1609045381435018385,251,1609045381435018385,0.0126449372619,0.00189572118688,0.000963539467193,-0.920249320993,-0.390545614002,-0.0201174521756,0.014512019583,0.0,0.0,0.0,0.0,0.0,0.0
1609045381641252601,252,1609045381641252601,0.0118554728106,-0.0031184933614,0.00105988048017,-0.920298644541,-0.390429825566,-0.0201101730957,0.0145098967116,0.0,0.0,0.0,0.0,0.0,0.0
1609045381847006785,253,1609045381847006785,0.0126902647316,-0.00410956889391,0.000518658314832,-0.920233214915,-0.390581052193,-0.0201186160645,0.0145778298379,0.0,0.0,0.0,0.0,0.0,0.0
1609045382053807735,254,1609045382053807735,0.00660140998662,-0.0023574908264,0.000318383041304,-0.920264906607,-0.39050342924,-0.0200968194917,0.0146864313752,0.0,0.0,0.0,0.0,0.0,0.0
1609045382260060326,255,1609045382260060326,0.0110153285787,0.0017696764553,0.000544642680325,-0.920209640077,-0.390629071442,-0.0201242769122,0.01477025161,0.0,0.0,0.0,0.0,0.0,0.0
1609045382431927913,256,1609045382431927913,0.0104447202757,-0.00140331231523,0.000718426017556,-0.920237426909,-0.390574475403,-0.0201393759553,0.0144590046769,0.0,0.0,0.0,0.0,0.0,0.0
1609045382638133902,257,1609045382638133902,0.00667931046337,-0.00122868386097,0.00175762886647,-0.920298788547,-0.390429999116,-0.0201251042575,0.014475350341,0.0,0.0,0.0,0.0,0.0,0.0
1609045382844450689,258,1609045382844450689,0.00547607894987,-0.00449741631746,0.00211338978261,-0.920271713728,-0.390493964654,-0.020104055096,0.0145004637592,0.0,0.0,0.0,0.0,0.0,0.0
1609045383050595365,259,1609045383050595365,0.00814308598638,-0.000685598817654,0.000691044901032,-0.920283461887,-0.390459906584,-0.0201230404546,0.014644943508,0.0,0.0,0.0,0.0,0.0,0.0
1609045383256855127,260,1609045383256855127,0.00541804218665,-0.00236131250858,0.000522052345332,-0.920268102226,-0.390494418046,-0.0200904380766,0.0147344425872,0.0,0.0,0.0,0.0,0.0,0.0
1609045383430220906,261,1609045383430220906,0.00634841946885,-0.00337569974363,-0.00199293368496,-0.920431102459,-0.390117247016,-0.0201542092164,0.0144543093308,0.0,0.0,0.0,0.0,0.0,0.0
1609045383635041146,262,1609045383635041146,0.00781233608723,-0.00342850503512,-0.00216489797458,-0.920234114949,-0.390580018986,-0.0201098654576,0.0145607611356,0.0,0.0,0.0,0.0,0.0,0.0
1609045383841290278,263,1609045383841290278,0.00442027207464,-0.00627898238599,9.44930798141e-05,-0.920274250607,-0.390487553513,-0.0201188716583,0.0144915570114,0.0,0.0,0.0,0.0,0.0,0.0
1609045384047601285,264,1609045384047601285,0.00899110827595,-0.00150580774061,-0.000735410954803,-0.920316152412,-0.390383164257,-0.0201218116299,0.0146382160833,0.0,0.0,0.0,0.0,0.0,0.0
1609045384253658908,265,1609045384253658908,0.00661422498524,-0.00528300926089,0.000163922813954,-0.92018806895,-0.390682712282,-0.0200996647462,0.0147288683612,0.0,0.0,0.0,0.0,0.0,0.0
1609045384459473607,266,1609045384459473607,0.00747549161315,-0.000390831875848,-0.000866811431479,-0.920216992498,-0.390612388712,-0.020096832546,0.0147907343741,0.0,0.0,0.0,0.0,0.0,0.0
1609045384631959320,267,1609045384631959320,0.0134493345395,0.00152234255802,0.00047575487406,-0.920239997417,-0.390568967155,-0.0201385011015,0.0144454083358,0.0,0.0,0.0,0.0,0.0,0.0
1609045384838390073,268,1609045384838390073,0.00974734686315,0.00146320206113,-0.000756251509301,-0.920264849317,-0.390498919121,-0.0202116426237,0.0146523301904,0.0,0.0,0.0,0.0,0.0,0.0
1609045385044495494,269,1609045385044495494,0.00581590738147,-0.00178560754284,0.00288896891288,-0.920256525467,-0.390522200129,-0.0202711263337,0.0144713502714,0.0,0.0,0.0,0.0,0.0,0.0
1609045385250638950,270,1609045385250638950,0.0113388681784,-0.000998906092718,-0.00687537901103,-0.920154716133,-0.390724621343,-0.0207725927119,0.0147671272608,0.0,0.0,0.0,0.0,0.0,0.0
1609045385456616444,271,1609045385456616444,0.00938824657351,0.000485337892314,-0.000262604444288,-0.920101411129,-0.390806987366,-0.0212126425292,0.0152746738245,0.0,0.0,0.0,0.0,0.0,0.0
1609045385629913266,272,1609045385629913266,0.0245994683355,0.0169871971011,0.00413056463003,-0.920591647239,-0.389847158062,-0.0182990269729,0.0139770525435,0.0,0.0,0.0,0.0,0.0,0.0
1609045385834527149,273,1609045385834527149,0.0124546103179,-0.00284429639578,-0.00748150190338,-0.920342540902,-0.390269929676,-0.0209407052666,0.0148484429959,0.0,0.0,0.0,0.0,0.0,0.0
1609045386041636495,274,1609045386041636495,0.0106687452644,0.0048959851265,-0.00880609732121,-0.920180361105,-0.390667598062,-0.0212545526409,0.0139704993573,0.0,0.0,0.0,0.0,0.0,0.0
1609045386247917391,275,1609045386247917391,0.0342788919806,0.0221623349935,-0.0358044914901,-0.920601035315,-0.389772339993,-0.0216661811886,0.0100912509672,0.0,0.0,0.0,0.0,0.0,0.0
1609045386454520907,276,1609045386454520907,0.00810514576733,-0.00384363951162,0.0463269166648,-0.919881955407,-0.391406248597,-0.00860035128668,0.0233317516367,0.0,0.0,0.0,0.0,0.0,0.0
1609045386660420992,277,1609045386660420992,0.0227258894593,-0.0441325269639,0.0770088508725,-0.919720089548,-0.391411851977,-0.0102267270504,0.0284100874329,0.0,0.0,0.0,0.0,0.0,0.0
1609045386832297551,278,1609045386832297551,0.057353425771,-0.0451078936458,0.198640227318,-0.919159334949,-0.391249753375,-0.016770666325,0.0422905688216,0.0,0.0,0.0,0.0,0.0,0.0
1609045387037712799,279,1609045387037712799,0.043569855392,-0.116684339941,0.289320617914,-0.920162525877,-0.390591304061,-0.00773906709003,0.026066568698,0.0,0.0,0.0,0.0,0.0,0.0
1609045387244286739,280,1609045387244286739,0.0501925759017,-0.172412097454,0.40169352293,-0.919835467908,-0.39173872135,-0.00356710662428,0.0207548048375,0.0,0.0,0.0,0.0,0.0,0.0
1609045387450132876,281,1609045387450132876,0.0705042555928,-0.247229114175,0.337737083435,-0.920187393848,-0.391046046833,-0.0161854921178,0.00872807561676,0.0,0.0,0.0,0.0,0.0,0.0
1609045387656685128,282,1609045387656685128,0.0821434557438,-0.286123991013,0.381641298532,0.919367759651,0.39114136085,0.0405738113964,-0.0111858917974,0.0,0.0,0.0,0.0,0.0,0.0
1609045387829995572,283,1609045387829995572,0.0776666104794,-0.367866665125,0.379825860262,-0.91946456483,-0.392554943184,-0.0189243797102,0.0112870924844,0.0,0.0,0.0,0.0,0.0,0.0
1609045388034927579,284,1609045388034927579,0.0454135425389,-0.457713246346,0.355611026287,-0.919610683158,-0.391952222575,0.0112573595817,0.023725903459,0.0,0.0,0.0,0.0,0.0,0.0
1609045388241281250,285,1609045388241281250,0.0521295070648,-0.528045892715,0.395763903856,-0.919406230869,-0.391744309727,0.0173135301856,0.0304765501248,0.0,0.0,0.0,0.0,0.0,0.0
1609045388447116793,286,1609045388447116793,0.0762723088264,-0.598507285118,0.291376709938,-0.92013104119,-0.391559945684,0.00309278228998,0.00548731929803,0.0,0.0,0.0,0.0,0.0,0.0
1609045388653755368,287,1609045388653755368,0.104790911078,-0.638752579689,0.299614310265,0.919152684066,0.391664918387,0.0323559344305,0.0266463615875,0.0,0.0,0.0,0.0,0.0,0.0
1609045388859796571,288,1609045388859796571,0.0712290108204,-0.671821773052,0.356204718351,0.91847512942,0.391528625217,0.0394487167577,0.0394026777999,0.0,0.0,0.0,0.0,0.0,0.0
1609045389032169816,289,1609045389032169816,0.0257115997374,-0.709257125854,0.462825089693,0.919697112426,0.391659993231,0.0197162285005,0.0192598398409,0.0,0.0,0.0,0.0,0.0,0.0
1609045389238181168,290,1609045389238181168,-0.00442582834512,-0.676671862602,0.524691343307,-0.920109652998,-0.391416397421,-0.00889351937392,0.0105988490922,0.0,0.0,0.0,0.0,0.0,0.0
1609045389444427251,291,1609045389444427251,-0.0484216846526,-0.671666562557,0.582244694233,-0.9203964133,-0.390682554536,-0.00477238611741,0.0146563398282,0.0,0.0,0.0,0.0,0.0,0.0
1609045389650524226,292,1609045389650524226,-0.116773992777,-0.669436693192,0.65890610218,-0.920393561993,-0.390723620551,-0.00498930445758,0.0136326896478,0.0,0.0,0.0,0.0,0.0,0.0
1609045389856754859,293,1609045389856754859,-0.156238630414,-0.653017282486,0.797322750092,-0.91974196624,-0.391581548119,-0.0194475336776,0.0189842077266,0.0,0.0,0.0,0.0,0.0,0.0
1609045390030079192,294,1609045390030079192,-0.143380045891,-0.611043691635,0.822068989277,-0.919510947548,-0.391831391058,-0.0241707071177,0.0195845663262,0.0,0.0,0.0,0.0,0.0,0.0
1609045390235078371,295,1609045390235078371,-0.257580131292,-0.686017632484,0.892077922821,-0.919414832885,-0.391917129497,-0.0116804113977,0.0306740389719,0.0,0.0,0.0,0.0,0.0,0.0
1609045390441215695,296,1609045390441215695,-0.262685269117,-0.69395005703,0.956631600857,-0.919659666832,-0.392017900284,0.00535109900058,0.0227909806583,0.0,0.0,0.0,0.0,0.0,0.0
1609045390647396762,297,1609045390647396762,-0.280785322189,-0.702428221703,1.01164078712,-0.919580936417,-0.392134604976,0.00790902310572,0.0232120725704,0.0,0.0,0.0,0.0,0.0,0.0
1609045390853677391,298,1609045390853677391,-0.306366294622,-0.745561659336,1.0235170126,0.9197769147,0.392413793388,0.00467138438545,-0.000141818830912,0.0,0.0,0.0,0.0,0.0,0.0
1609045391060251892,299,1609045391060251892,-0.288640797138,-0.737461686134,1.07107174397,0.919525202615,0.392563600762,0.012843200726,0.0142222820893,0.0,0.0,0.0,0.0,0.0,0.0
1609045391232017945,300,1609045391232017945,-0.302019953728,-0.71905952692,1.13250720501,0.919514510557,0.392740409964,0.0121859871172,0.00997682184731,0.0,0.0,0.0,0.0,0.0,0.0
1609045391438080269,301,1609045391438080269,-0.321381300688,-0.688926339149,1.18492162228,0.919548075586,0.392674266475,0.0134056023748,0.0076515984879,0.0,0.0,0.0,0.0,0.0,0.0
1609045391643763155,302,1609045391643763155,-0.35179245472,-0.666233301163,1.29605734348,-0.919620019403,-0.392795541887,-0.000408763646471,0.00324269927496,0.0,0.0,0.0,0.0,0.0,0.0
1609045391850651443,303,1609045391850651443,-0.394439488649,-0.630011498928,1.3035800457,-0.919863511136,-0.392132522803,0.00194154339949,0.00891267910576,0.0,0.0,0.0,0.0,0.0,0.0
1609045392056682563,304,1609045392056682563,-0.386029720306,-0.562379419804,1.3557267189,-0.919338787672,-0.392953279039,-0.00825328416157,0.0183247721841,0.0,0.0,0.0,0.0,0.0,0.0
1609045392229989215,305,1609045392229989215,-0.359212249517,-0.483923733234,1.41404461861,-0.919392146077,-0.392865074867,-0.00576372952093,0.0184903786921,0.0,0.0,0.0,0.0,0.0,0.0
1609045392434999384,306,1609045392434999384,-0.422784209251,-0.504537820816,1.46130657196,-0.919129819703,-0.392938727248,-0.0175392087198,0.0221789837412,0.0,0.0,0.0,0.0,0.0,0.0
1609045392641213179,307,1609045392641213179,-0.389776140451,-0.435666918755,1.45832824707,-0.919050761238,-0.392568842274,-0.0283276858527,0.0208073198078,0.0,0.0,0.0,0.0,0.0,0.0
1609045392847679205,308,1609045392847679205,-0.397956877947,-0.407103747129,1.48129677773,-0.918110721013,-0.39244274331,-0.0450329144604,0.0321470651878,0.0,0.0,0.0,0.0,0.0,0.0
1609045393053745353,309,1609045393053745353,-0.451154828072,-0.433131843805,1.42962276936,-0.918838112745,-0.392413143781,-0.0362709210547,0.0208054666052,0.0,0.0,0.0,0.0,0.0,0.0
1609045393259818134,310,1609045393259818134,-0.434571892023,-0.404370248318,1.48256444931,-0.918696039719,-0.39292262505,-0.0290664778186,0.0276502657257,0.0,0.0,0.0,0.0,0.0,0.0
1609045393431873048,311,1609045393431873048,-0.546882152557,-0.489052176476,1.46789300442,-0.919264979944,-0.392957542717,-0.0136477121059,0.0187084532998,0.0,0.0,0.0,0.0,0.0,0.0
1609045393638495116,312,1609045393638495116,-0.552066087723,-0.487672686577,1.48699617386,-0.919206518491,-0.393328659062,-0.0103802031762,0.0156266984899,0.0,0.0,0.0,0.0,0.0,0.0
1609045393844480466,313,1609045393844480466,-0.592653870583,-0.534668385983,1.5794750452,-0.919057521088,-0.393360159188,-0.00269987440998,0.0243673710847,0.0,0.0,0.0,0.0,0.0,0.0
1609045394050631090,314,1609045394050631090,-0.638845205307,-0.581831812859,1.58392286301,-0.919208169079,-0.393496631794,-0.00237686947111,0.014529045281,0.0,0.0,0.0,0.0,0.0,0.0
1609045394256613440,315,1609045394256613440,-0.702901780605,-0.659801661968,1.58077311516,-0.91923165698,-0.392865440149,-0.0230426353555,0.0117874381842,0.0,0.0,0.0,0.0,0.0,0.0
1609045394430063830,316,1609045394430063830,-0.740459501743,-0.69597941637,1.60609686375,0.918815910035,0.392816285042,0.0378928976861,-0.006067781837,0.0,0.0,0.0,0.0,0.0,0.0
1609045394634800995,317,1609045394634800995,-0.803166866302,-0.757798671722,1.63866949081,0.918948510513,0.392884053979,0.0342529226892,0.00157874686268,0.0,0.0,0.0,0.0,0.0,0.0
1609045394841150482,318,1609045394841150482,-0.898063838482,-0.81031692028,1.63536405563,0.919258819105,0.392361570303,0.0315896073288,0.00420931776028,0.0,0.0,0.0,0.0,0.0,0.0
1609045395047311088,319,1609045395047311088,-0.972051501274,-0.834595799446,1.57609713078,0.919133455435,0.39308844021,0.0234903743403,0.011107276298,0.0,0.0,0.0,0.0,0.0,0.0
1609045395253623366,320,1609045395253623366,-1.0745588541,-0.85773319006,1.62757575512,0.919162589407,0.39365394052,0.0129127241492,-0.00315767376865,0.0,0.0,0.0,0.0,0.0,0.0
1609045395459303434,321,1609045395459303434,-1.18010985851,-0.878779649734,1.64298307896,-0.919291203739,-0.393166725387,-0.00448691717617,0.0174205726373,0.0,0.0,0.0,0.0,0.0,0.0
1609045395631713782,322,1609045395631713782,-1.27813577652,-0.904819190502,1.6872061491,-0.91913720497,-0.393105393903,0.00807989347954,0.0242829785226,0.0,0.0,0.0,0.0,0.0,0.0
1609045395838039295,323,1609045395838039295,-1.35204672813,-0.930217862129,1.71170115471,-0.919091509297,-0.393173828829,0.0109058421876,0.0237949673051,0.0,0.0,0.0,0.0,0.0,0.0
1609045396044058225,324,1609045396044058225,-1.39826869965,-0.946496486664,1.73777925968,-0.919090491605,-0.393324556886,0.00936195775761,0.0219274927836,0.0,0.0,0.0,0.0,0.0,0.0
1609045396250092381,325,1609045396250092381,-1.4266898632,-0.971560359001,1.76084959507,-0.919128821463,-0.393318372726,0.00850454685334,0.0207494557622,0.0,0.0,0.0,0.0,0.0,0.0
1609045396456696110,326,1609045396456696110,-1.43677151203,-0.993267595768,1.77239918709,-0.919003743978,-0.393610624728,0.00871989036993,0.0206581259444,0.0,0.0,0.0,0.0,0.0,0.0
1609045396630055679,327,1609045396630055679,-1.41949641705,-1.01563119888,1.81131207943,-0.91889047081,-0.393744631331,0.0115857976913,0.021707999541,0.0,0.0,0.0,0.0,0.0,0.0
1609045396835042459,328,1609045396835042459,-1.38221085072,-1.03136336803,1.85306560993,-0.918937934683,-0.393714227763,0.0105353575678,0.020765001766,0.0,0.0,0.0,0.0,0.0,0.0
1609045397041427092,329,1609045397041427092,-1.35764300823,-1.06271493435,1.89019083977,-0.919258848988,-0.393480116687,-0.00353194356685,0.0111396455909,0.0,0.0,0.0,0.0,0.0,0.0
1609045397246921739,330,1609045397246921739,-1.31689369678,-1.08205580711,1.88690531254,0.919161112379,0.393630753892,0.0136623172491,0.00331966371183,0.0,0.0,0.0,0.0,0.0,0.0
1609045397453458519,331,1609045397453458519,-1.26610672474,-1.06841015816,1.85327684879,0.917954210204,0.394254462473,0.0307412315284,0.0312804007867,0.0,0.0,0.0,0.0,0.0,0.0
1609045397659645969,332,1609045397659645969,-1.27338707447,-1.05215024948,1.88778936863,0.91746640251,0.394249820705,0.0370948396144,0.0380322496488,0.0,0.0,0.0,0.0,0.0,0.0
1609045397831703744,333,1609045397831703744,-1.29560565948,-1.01258420944,1.90132296085,0.917991529274,0.394377626247,0.0303862698564,0.0288879681145,0.0,0.0,0.0,0.0,0.0,0.0
1609045398037713943,334,1609045398037713943,-1.33668327332,-0.932074189186,1.87448585033,0.918423426994,0.394453680319,0.0270297243752,0.0131945758203,0.0,0.0,0.0,0.0,0.0,0.0
1609045398243947004,335,1609045398243947004,-1.41333270073,-0.868389844894,1.91305994987,0.918662495834,0.393649479741,0.031234084971,-0.01112374865,0.0,0.0,0.0,0.0,0.0,0.0
1609045398449957855,336,1609045398449957855,-1.48786103725,-0.798040509224,1.93010377884,-0.918194778453,-0.393807925342,-0.0329120370131,0.0273946085855,0.0,0.0,0.0,0.0,0.0,0.0
1609045398656355368,337,1609045398656355368,-1.58662068844,-0.769250869751,1.96830105782,-0.918117363847,-0.393947906811,-0.0303920055167,0.0306900459834,0.0,0.0,0.0,0.0,0.0,0.0
1609045398829661937,338,1609045398829661937,-1.67493259907,-0.741796910763,1.97670662403,-0.918644960756,-0.393953302001,-0.0221889378174,0.0199970737762,0.0,0.0,0.0,0.0,0.0,0.0
1609045399034624020,339,1609045399034624020,-1.77286303043,-0.726504504681,1.96733474731,-0.918790203568,-0.394404067849,-0.00523133600884,0.0155764635109,0.0,0.0,0.0,0.0,0.0,0.0
1609045399240610093,340,1609045399240610093,-1.8512212038,-0.706808328629,1.99943733215,-0.918794734299,-0.394296165902,0.00725695439872,0.0171495303701,0.0,0.0,0.0,0.0,0.0,0.0
1609045399446643375,341,1609045399446643375,-1.9038643837,-0.676038146019,1.95810520649,-0.918898780952,-0.394309510385,0.00103181381231,0.0119989893524,0.0,0.0,0.0,0.0,0.0,0.0
1609045399652865000,342,1609045399652865000,-1.96724247932,-0.654013335705,1.93725144863,0.918801395835,0.394439974358,0.0146585083986,0.00249595112044,0.0,0.0,0.0,0.0,0.0,0.0
1609045399859694626,343,1609045399859694626,-2.03299999237,-0.616463601589,1.93577682972,0.918605944145,0.394471248257,0.021834017143,0.00887859080297,0.0,0.0,0.0,0.0,0.0,0.0
1609045400031055566,344,1609045400031055566,-2.10277152061,-0.577967941761,1.92934167385,0.918367253676,0.395078663531,0.0224623763539,0.00314303146947,0.0,0.0,0.0,0.0,0.0,0.0
1609045400237941638,345,1609045400237941638,-2.20015192032,-0.54041570425,1.98528122902,-0.918608447707,-0.394447064846,-0.0158067304987,0.0178935772448,0.0,0.0,0.0,0.0,0.0,0.0
1609045400443978559,346,1609045400443978559,-2.28804755211,-0.509468317032,1.974817276,-0.918177081911,-0.394254245697,-0.0183966028573,0.0342928710745,0.0,0.0,0.0,0.0,0.0,0.0
1609045400649964069,347,1609045400649964069,-2.3652741909,-0.483431816101,1.9671806097,-0.917649409907,-0.393760664331,-0.0337416359424,0.0416365431595,0.0,0.0,0.0,0.0,0.0,0.0
